     2.11           OBSERVATION DATA    M (MIXED)           RINEX VERSION / TYPE
RTKCONV 2.4.2       Liu.TY              20181001 205725 UTC PGM / RUN BY / DATE 
log: C:\Users\time0\Desktop\PVT  Project\DataFile\CABL\COM  COMMENT             
format: u-blox                                              COMMENT             
Antenna in CA548                                            COMMENT             
LIU                                                         MARKER NAME         
                                                            MARKER NUMBER       
Liu.TY              Liu.TY                                  OBSERVER / AGENCY   
u-blox              AEK-4T                                  REC # / TYPE / VERS 
                                                            ANT # / TYPE        
        0.0000        0.0000        0.0000                  APPROX POSITION XYZ 
        0.0000        0.0000        0.0000                  ANTENNA: DELTA H/E/N
     1     1                                                WAVELENGTH FACT L1/2
     4    C1    L1    D1    S1                              # / TYPES OF OBSERV 
  2018    10     1    20    33   10.0010000     GPS         TIME OF FIRST OBS   
  2018    10     1    20    57    4.0010000     GPS         TIME OF LAST OBS    
                                                            END OF HEADER       
 18 10  1 20 33 10.0010000  0  8G28G30G21G 5S27G 7G13G15
  21546761.850      211470.951        -819.186          50.000  
  22398895.324      861973.819       -3053.809          47.000  
  25800792.046      197715.4282       -750.664          33.000  
  21619107.905      804640.895       -2889.507          52.000  
  40018257.352      130146.3312       -447.095          38.000  
  25080632.004      992332.794       -3486.694          46.000  
  20503392.365      -91114.968         281.259          44.000  
  22336574.716     -636717.900        2226.161          35.000  
 18 10  1 20 33 11.0010000  0  8G28G30G21G 5S27G 7G13G15
  21546917.846      212290.344        -819.703          50.000  
  22399476.809      865027.875       -3054.499          47.000  
  25800935.583      198466.2432       -751.488          33.000  
  21619657.892      807530.843       -2890.451          52.000  
  40018342.457      130593.6092       -447.949          38.000  
  25081295.732      995819.204       -3486.630          46.000  
  20503338.880      -91396.101         280.648          44.000  
  22336151.085     -638943.714        2226.816          36.000  
 18 10  1 20 33 12.0010000  0  8G28G30G21G 5S27G 7G13G15
  21547073.415      213111.058        -821.051          50.000  
  22400058.259      868082.838       -3055.237          47.000  
  25801079.242      199218.2682       -752.243          33.000  
  21620207.836      810421.993       -2891.380          52.000  
  40018428.007      131041.5682       -447.077          38.000  
  25081959.285      999306.324       -3487.177          46.000  
  20503285.613      -91676.156         279.383          44.000  
  22335727.752     -641168.596        2224.035          36.000  
 18 10  1 20 33 13.0010000  0  8G28G30G21G 5S27G 7G13G15
  21547228.966      213932.560        -820.977          50.000  
  22400640.398      871138.174       -3054.676          47.000  
  25801222.063      199970.391        -752.679          33.000  
  21620758.286      813313.798       -2891.302          52.000  
  40018512.981      131489.7832       -447.781          38.000  
  25082622.349     1002793.620       -3486.344          46.000  
  20503232.381      -91955.659         280.132          44.000  
  22335304.741     -643393.065        2225.313          36.000  
 18 10  1 20 33 14.0010000  0  8G28G30G21G 5S27G 7G13G15
  21547385.486      214753.693        -821.138          50.000  
  22401221.656      874192.720       -3054.337          47.000  
  25801365.033      200722.528        -752.826          33.000  
  21621308.421      816205.087       -2891.396          52.000  
  40018597.963      131937.0412       -446.582          38.000  
  25083285.763     1006279.950       -3485.872          46.000  
  20503178.443      -92235.770         280.421          44.000  
  22334881.853     -645618.268        2224.246          36.000  
 18 10  1 20 33 15.0010000  0  8G28G30G21G 5S27G 7G13G15
  21547541.343      215575.405        -822.167          49.000  
  22401803.106      877247.446       -3055.107          47.000  
  25801507.915      201475.053        -751.393          33.000  
  21621858.757      819096.847       -2892.275          52.000  
  40018682.509      132384.2692       -446.806          38.000  
  25083948.941     1009766.242       -3486.712          46.000  
  20503125.080      -92515.550         279.422          44.000  
  22334458.545     -647843.304        2224.804          36.000  
 18 10  1 20 33 16.0010000  0  8G28G30G21G 5S27G 7G13G15
  21547697.880      216398.531        -823.562          49.000  
  22402384.905      880303.138       -3055.759          47.000  
  25801651.391      202228.805        -754.273          33.000  
  21622408.841      821989.870       -2893.333          52.000  
  40018767.937      132832.1952       -448.734          38.000  
  25084612.407     1013253.342       -3487.401          46.000  
  20503071.787      -92794.159         278.223          44.000  
  22334035.796     -650067.293        2222.723          36.000  
 18 10  1 20 33 17.0010000  0  8G28G30G21G 5S27G 7G13G15
  21547854.068      217222.345        -823.495          49.000  
  22402966.599      883359.123       -3055.691          47.000  
  25801794.797      202983.151        -754.706          32.000  
  21622959.517      824883.444       -2893.400          52.000  
  40018853.330      133280.2732       -448.215          38.000  
  25085276.048     1016740.527       -3487.016          46.000  
  20503019.192      -93072.320         278.739          44.000  
  22333613.091     -652290.950        2223.736          36.000  
 18 10  1 20 33 18.0010000  0  8G28G30G21G 5S27G 7G13G15
  21548010.832      218045.974        -823.393          49.000  
  22403547.892      886414.515       -3054.444          47.000  
  25801937.810      203737.5933       -752.764          32.000  
  21623509.923      827776.719       -2892.777          52.000  
  40018938.391      133727.5252       -447.318          38.000  
  25085939.322     1020226.921       -3485.817          46.000  
  20502966.239      -93350.886         279.143          44.000  
  22333190.455     -654515.206        2223.890          37.000  
 18 10  1 20 33 19.0010000  0  8G28G30G21G 5S27G 7G13G15
  21548167.779      218869.411        -824.020          49.000  
  22404129.185      889469.293       -3054.954          47.000  
  25802080.073      204491.2222       -753.621          32.000  
  21624060.373      830669.671       -2893.641          52.000  
  40019023.478      134173.9992       -446.667          38.000  
  25086602.674     1023712.498       -3485.923          45.000  
  20502913.400      -93629.891         278.637          44.000  
  22332768.221     -656740.018        2223.236          38.000  
 18 10  1 20 33 20.0010000  0  8G28G30G21G 5S27G 7G13G15
  21548324.997      219694.316        -825.818          49.000  
  22404710.408      892525.119       -3056.340          47.000  
  25802222.999      205246.1152       -755.174          31.000  
  21624610.587      833563.953       -2894.776          52.000  
  40019108.652      134621.3222       -448.667          38.000  
  25087266.385     1027198.944       -3486.738          46.000  
  20502860.474      -93907.691         276.960          44.000  
  22332345.289     -658963.744        2222.204          37.000  
 18 10  1 20 33 21.0010000  0  8G28G30G21G 5S27G 7G13G15
  21548481.962      220520.537        -826.405          49.000  
  22405291.945      895581.846       -3057.003          47.000  
  25802366.440      206002.2142       -754.923          31.000  
  21625161.429      836459.423       -2895.761          52.000  
  40019193.967      135069.2932       -447.906          38.000  
  25087930.069     1030686.108       -3486.874          46.000  
  20502807.713      -94184.368         276.379          44.000  
  22331922.741     -661186.531        2223.419          37.000  
 18 10  1 20 33 22.0010000  0  8G28G30G21G 5S27G 7G13G15
  21548639.101      221346.727        -826.179          49.000  
  22405873.884      898638.134       -3056.071          47.000  
  25802510.465      206758.0822       -756.689          32.000  
  21625712.594      839354.733       -2895.193          52.000  
  40019279.080      135516.6012       -446.443          38.000  
  25088594.163     1034172.622       -3486.284          46.000  
  20502754.725      -94461.323         277.348          44.000  
  22331499.826     -663409.752        2223.408          38.000  
 18 10  1 20 33 23.0010000  0  8G28G30G21G 5S27G 7G13G15
  21548796.415      222172.811        -826.250          49.000  
  22406455.247      901693.898       -3055.745          47.000  
  25802654.394      207513.7382       -755.992          32.000  
  21626263.297      842249.809       -2894.928          52.000  
  40019364.237      135963.2612       -445.608          38.000  
  25089257.463     1037658.429       -3485.430          46.000  
  20502701.642      -94738.594         277.178          44.000  
  22331077.059     -665633.436        2223.138          38.000  
 18 10  1 20 33 24.0010000  0  8G28G30G21G 5S27G 7G13G15
  21548954.138      223000.200        -828.212          49.000  
  22407036.496      904750.554       -3057.372          47.000  
  25802798.699      208270.4472       -757.656          32.000  
  21626814.166      845146.054       -2897.069          52.000  
  40019449.603      136410.5962       -448.356          38.000  
  25089920.929     1041144.932       -3486.908          46.000  
  20502649.152      -95014.805         275.963          44.000  
  22330654.136     -667856.187        2222.005          38.000  
 18 10  1 20 33 25.0010000  0  8G28G30G21G 5S27G 7G13G15
  21549111.871      223829.038        -829.267          49.000  
  22407618.949      907808.236       -3057.941          47.000  
  25802943.431      209028.004        -756.772          33.000  
  21627365.357      848043.625       -2898.086          51.000  
  40019534.804      136858.7872       -448.587          38.000  
  25090584.901     1044632.276       -3487.417          46.000  
  20502597.036      -95289.798         274.644          44.000  
  22330230.925     -670077.897        2220.833          38.000  
 18 10  1 20 33 26.0010000  0  8G28G30G21G 5S27G 7G13G15
  21549269.577      224658.099        -829.250          49.000  
  22408201.185      910865.729       -3057.146          47.000  
  25803088.154      209786.094        -759.352          33.000  
  21627916.435      850941.287       -2897.441          51.000  
  40019619.848      137306.5772       -447.440          38.000  
  25091248.725     1048119.239       -3486.108          46.000  
  20502544.328      -95564.799         275.434          44.000  
  22329808.062     -672299.740        2222.928          38.000  
 18 10  1 20 33 27.0010000  0  8G28G30G21G 5S27G 7G13G15
  21549427.668      225486.915        -829.098          49.000  
  22408782.914      913922.553       -3056.594          47.000  
  25803233.105      210543.786        -757.981          33.000  
  21628468.289      853838.571       -2897.213          51.000  
  40019704.665      137753.5832       -446.138          38.000  
  25091912.366     1051605.357       -3486.047          46.000  
  20502491.742      -95840.277         275.393          43.000  
  22329384.755     -674522.205        2223.366          37.000  
 18 10  1 20 33 28.0010000  0  8G28G30G21G 5S27G 7G13G15
  21549585.644      226316.603        -830.246          49.000  
  22409364.381      916979.846       -3057.495          47.000  
  25803377.828      211302.257        -760.432          33.000  
  21629019.768      856736.601       -2898.274          51.000  
  40019790.249      138200.7772       -446.963          38.000  
  25092575.701     1055091.741       -3486.620          47.000  
  20502438.894      -96115.141         274.333          43.000  
  22328961.718     -676744.199        2221.511          37.000  
 18 10  1 20 33 29.0010000  0  8G28G30G21G 5S27G 7G13G15
  21549743.735      227147.616        -831.784          49.000  
  22409947.035      920038.035       -3058.880          47.000  
  25803522.482      212061.808        -759.377          33.000  
  21629571.221      859635.819       -2899.785          51.000  
  40019875.598      138648.5462       -447.340          38.000  
  25093239.629     1058578.836       -3487.667          47.000  
  20502386.657      -96388.888         273.407          43.000  
  22328538.620     -678965.211        2221.118          37.000  
 18 10  1 20 33 30.0010000  0  8G28G30G21G 5S27G 7G13G15
  21549901.982      227979.142        -831.386          49.000  
  22410528.948      923096.317       -3057.982          47.000  
  25803667.074      212821.761        -759.032          33.000  
  21630122.945      862535.426       -2899.154          51.000  
  40019960.860      139096.2212       -446.275          38.000  
  25093903.985     1062065.845       -3486.596          47.000  
  20502334.664      -96662.364         273.808          43.000  
  22328115.522     -681186.109        2221.495          37.000  
 18 10  1 20 33 31.0010000  0  8G28G30G21G 5S27G 7G13G15
  21550060.351      228810.623        -831.421          49.000  
  22411110.913      926154.147       -3057.521          47.000  
  25803812.042      213581.508        -759.457          32.000  
  21630674.974      865434.845       -2899.555          51.000  
  40020046.000      139543.3702       -446.645          38.000  
  25094568.071     1065552.186       -3486.360          47.000  
  20502282.810      -96936.156         272.987          43.000  
  22327691.961     -683407.424        2221.782          37.000  
 18 10  1 20 33 32.0010000  0  8G28G30G21G 5S27G 7G13G15
  21550218.764      229642.794        -833.032          49.000  
  22411692.650      929212.244       -3058.874          47.000  
  25803956.913      214341.686        -761.632          32.000  
  21631226.793      868334.829       -2900.686          51.000  
  40020130.816      139990.6792       -447.270          38.000  
  25095231.589     1069038.634       -3486.785          47.000  
  20502230.940      -97209.461         272.668          43.000  
  22327269.317     -685628.408        2219.542          37.000  
 18 10  1 20 33 33.0010000  0  8G28G30G21G 5S27G 7G13G15
  21550377.291      230476.211        -834.280          49.000  
  22412274.231      932271.188       -3059.408          47.000  
  25804101.427      215103.029        -762.574          32.000  
  21631778.639      871235.921       -2901.607          51.000  
  40020216.567      140438.5712       -447.744          38.000  
  25095895.081     1072525.697       -3487.430          47.000  
  20502178.685      -97481.774         271.485          43.000  
  22326846.062     -687848.544        2219.282          35.000  
 18 10  1 20 33 34.0010000  0  8G28G30G21G 5S27G 7G13G15
  21550535.817      231310.083        -833.622          49.000  
  22412856.423      935330.160       -3058.244          47.000  
  25804246.125      215864.706        -760.782          32.000  
  21632330.755      874137.340       -2900.959          51.000  
  40020301.663      140886.2762       -446.855          38.000  
  25096558.599     1076012.606       -3486.450          47.000  
  20502126.683      -97753.872         272.859          43.000  
  22326422.362     -690068.653        2218.876          35.000  
 18 10  1 20 33 35.0010000  0  8G28G30G21G 5S27G 7G13G15
  21550694.108      232143.725        -833.646          49.000  
  22413438.466      938388.487       -3058.195          47.000  
  25804390.639      216625.923        -761.343          32.000  
  21632883.029      877038.391       -2900.999          51.000  
  40020386.113      141333.1362       -446.433          38.000  
  25097221.812     1079498.680       -3486.007          47.000  
  20502074.856      -98026.439         272.449          43.000  
  22325999.029     -692289.268        2221.240          35.000  
 18 10  1 20 33 36.0010000  0  8G28G30G21G 5S27G 7G13G15
  21550853.176      232977.928        -834.998          49.000  
  22414019.768      941446.957       -3058.802          47.000  
  25804535.589      217387.565        -761.613          32.000  
  21633435.162      879939.872       -2902.124          51.000  
  40020471.226      141779.9342       -447.050          38.000  
  25097885.723     1082984.720       -3486.401          47.000  
  20502022.994      -98298.657         272.002          43.000  
  22325576.000     -694509.755        2220.859          35.000  
 18 10  1 20 33 37.0010000  0  8G28G30G21G 5S27G 7G13G15
  21551012.331      233813.457        -836.426          49.000  
  22414602.108      944506.333       -3060.328          47.000  
  25804680.373      218150.381        -762.022          32.000  
  21633987.130      882842.557       -2903.228          51.000  
  40020556.270      142227.4102       -447.256          38.000  
  25098549.940     1086471.475       -3487.224          47.000  
  20501971.900      -98569.810         271.083          43.000  
  22325153.138     -696729.277        2220.249          35.000  
 18 10  1 20 33 38.0010000  0  8G28G30G21G 5S27G 7G13G15
  21551171.389      234649.846        -836.176          49.000  
  22415184.552      947566.153       -3059.458          47.000  
  25804825.856      218913.875        -761.989          32.000  
  21634539.717      885745.963       -2903.048          51.000  
  40020641.724      142675.1932       -447.221          38.000  
  25099213.859     1089958.456       -3486.731          48.000  
  20501920.387      -98840.358         270.242          44.000  
  22324730.494     -698948.358        2219.271          35.000  
 18 10  1 20 33 39.0010000  0  8G28G30G21G 5S27G 7G13G15
  21551330.736      235485.948        -836.072          49.000  
  22415766.317      950625.277       -3058.809          47.000  
  25804971.085      219676.884        -763.293          31.000  
  21635092.060      888648.949       -2902.828          51.000  
  40020727.160      143122.1322       -446.402          38.000  
  25099877.081     1093444.573       -3485.862          48.000  
  20501869.197      -99111.410         270.927          44.000  
  22324307.186     -701168.072        2218.886          35.000  
 18 10  1 20 33 40.0010000  0  8G28G30G21G 5S27G 7G13G15
  21551490.091      236322.108        -836.107          49.000  
  22416348.421      953684.045       -3058.706          47.000  
  25805116.411      220439.821        -762.558          32.000  
  21635644.717      891551.864       -2903.150          51.000  
  40020811.951      143568.5252       -445.629          38.000  
  25100540.695     1096930.135       -3485.307          48.000  
  20501818.312      -99382.618         271.135          44.000  
  22323884.036     -703388.088        2222.315          34.000  
 18 10  1 20 33 41.0010000  0  8G28G30G21G 5S27G 7G13G15
  21551649.438      237159.158        -837.764          49.000  
  22416930.595      956743.290       -3059.692          47.000  
  25805261.605      221203.512        -764.909          32.000  
  21636197.383      894455.551       -2904.078          51.000  
  40020896.802      144015.1322       -446.295          38.000  
  25101204.441     1100415.998       -3485.963          48.000  
  20501766.903      -99653.201         270.393          44.000  
  22323461.270     -705607.540        2218.735          34.000  
 18 10  1 20 33 42.0010000  0  8G28G30G21G 5S27G 7G13G15
  21551808.715      237997.653        -839.120          49.000  
  22417512.638      959803.558       -3060.540          47.000  
  25805407.559      221968.462        -765.090          32.000  
  21636750.485      897360.532       -2905.580          51.000  
  40020982.247      144462.5242       -447.437          38.000  
  25101868.465     1103902.668       -3486.892          48.000  
  20501715.504      -99922.542         268.921          44.000  
  22323039.847     -707825.948        2217.272          35.000  
 18 10  1 20 33 43.0010000  0  8G28G30G21G 5S27G 7G13G15
  21551968.428      238836.250        -838.641          49.000  
  22418095.127      962863.523       -3059.999          47.000  
  25805553.477      222733.360        -765.825          32.000  
  21637303.230      900265.493       -2905.023          51.000  
  40021067.291      144909.4372       -445.627          38.000  
  25102532.394     1107388.858       -3485.684          48.000  
  20501663.965     -100192.045         269.344          44.000  
  22322618.372     -710044.679        2219.552          35.000  
 18 10  1 20 33 44.0010000  0  9G28G30G21G 5S27G 7G 8G13G15
  21552128.342      239674.817        -839.007          50.000  
  22418677.388      965923.024       -3059.425          47.000  
  25805699.326      223498.066        -766.279          33.000  
  21637856.201      903170.282       -2904.920          51.000  
  40021151.994      145355.6442       -445.690          38.000  
  25103195.615     1110874.412       -3485.444          48.000  
  25871464.198       20827.5603      -1379.356          28.000  
  20501612.862     -100461.810         269.275          44.000  
  22322196.748     -712263.793        2218.850          36.000  
 18 10  1 20 33 45.0010000  0  8G28G30G21G 5S27G 7G13G15
  21552288.701      240514.465        -840.792          50.000  
  22419260.347      968983.216       -3060.859          47.000  
  25805845.629      224263.721        -766.085          33.000  
  21638409.006      906076.027       -2907.026          52.000  
  40021237.169      145802.3992       -448.387          38.000  
  25103858.758     1114360.439       -3486.701          48.000  
  20501562.090     -100730.707         268.190          44.000  
  22321775.107     -714482.227        2217.228          36.000  
 18 10  1 20 33 46.0010000  0  8G28G30G21G 5S27G 7G13G15
  21552448.623      241355.331        -841.515          50.000  
  22419843.028      972044.193       -3061.351          47.000  
  25805991.757      225030.426        -765.884          33.000  
  21638962.423      908982.864       -2907.128          52.000  
  40021322.474      146249.8512       -447.673          38.000  
  25104522.224     1117847.084       -3487.043          48.000  
  20501510.909     -100998.649         267.724          44.000  
  22321353.536     -716699.780        2218.066          35.000  
 18 10  1 20 33 47.0010000  0  9G28G30G21G 5S27G 7G 8G13G15
  21552608.895      242196.807        -841.382          50.000  
  22420426.074      975105.348       -3060.857          47.000  
  25806138.112      225797.543        -767.207          33.000  
  21639515.813      911890.166       -2907.126          51.000  
  40021407.457      146697.3052       -446.581          38.000  
  25105185.751     1121333.727       -3486.279          48.000  
  25872251.761       24971.5523      -1382.511          28.000  
  20501460.155     -101266.220         267.677          44.000  
  22320932.201     -718917.147        2218.084          35.000  
 18 10  1 20 33 48.0010000  0  8G28G30G21G 5S27G 7G13G15
  21552769.009      243038.184        -841.188          50.000  
  22421008.720      978165.986       -3060.404          48.000  
  25806283.804      226564.422        -766.291          33.000  
  21640069.046      914797.235       -2907.045          51.000  
  40021492.370      147143.9672       -445.582          38.000  
  25105849.462     1124819.641       -3485.576          48.000  
  20501409.287     -101534.130         268.219          44.000  
  22320510.010     -721134.965        2218.283          35.000  
 18 10  1 20 33 49.0010000  0  8G28G30G21G 5S27G 7G13G15
  21552929.586      243880.098        -842.781          50.000  
  22421591.348      981226.766       -3061.068          48.000  
  25806429.819      227331.697        -767.230          33.000  
  21640622.593      917704.720       -2908.083          52.000  
  40021577.178      147590.4272       -446.947          38.000  
  25106512.762     1128305.507       -3485.996          48.000  
  20501358.359     -101801.721         267.176          44.000  
  22320088.151     -723352.623        2217.035          35.000  
 18 10  1 20 33 50.0010000  0  8G28G30G21G 5S27G 7G13G15
  21553089.997      244723.237        -843.481          50.000  
  22422174.263      984288.340       -3062.021          48.000  
  25806575.894      228099.972        -766.928          33.000  
  21641176.262      920613.281       -2908.892          52.000  
  40021662.692      148037.4352       -446.317          38.000  
  25107176.289     1131791.970       -3486.453          48.000  
  20501307.718     -102068.361         266.239          44.000  
  22319666.790     -725569.422        2217.437          35.000  
 18 10  1 20 33 51.0010000  0  8G28G30G21G 5S27G 7G13G15
  21553250.347      245567.179        -843.608          50.000  
  22422756.917      987350.289       -3061.132          48.000  
  25806722.023      228868.896        -768.604          32.000  
  21641729.783      923522.513       -2908.757          52.000  
  40021747.387      148484.6512       -445.961          38.000  
  25107839.685     1135278.640       -3485.892          48.000  
  20501257.235     -102334.401         266.599          44.000  
  22319245.445     -727785.842        2216.675          35.000  
 18 10  1 20 33 52.0010000  0  8G28G30G21G 5S27G 7G13G15
  21553411.072      246410.815        -843.923          50.000  
  22423340.025      990411.536       -3061.389          48.000  
  25806867.793      229637.417        -766.816          32.000  
  21642283.548      926431.307       -2909.379          52.000  
  40021832.370      148931.0922       -447.299          38.000  
  25108502.933     1138764.388       -3486.077          48.000  
  20501206.821     -102600.990         266.199          44.000  
  22318823.996     -730002.848        2217.335          35.000  
 18 10  1 20 33 53.0010000  0  8G28G30G21G 5S27G 7G13G15
  21553571.859      247254.961        -845.007          50.000  
  22423922.548      993472.852       -3062.201          48.000  
  25807013.607      230406.250        -767.025          32.000  
  21642837.156      929340.490       -2910.030          52.000  
  40021917.317      149377.4972       -447.083          38.000  
  25109166.678     1142250.046       -3486.024          48.000  
  20501156.102     -102867.308         265.340          44.000  
  22318402.495     -732219.828        2215.471          35.000  
 18 10  1 20 33 54.0010000  0  8G28G30G21G 5S27G 7G13G15
  21553732.584      248100.508        -845.804          50.000  
  22424505.229      996535.169       -3062.393          48.000  
  25807159.936      231176.304        -773.165          32.000  
  21643391.009      932250.939       -2910.501          52.000  
  40022002.684      149824.6982       -446.695          38.000  
  25109830.389     1145736.503       -3486.162          48.000  
  20501105.697     -103132.452         265.570          44.000  
  22317981.142     -734435.726        2215.511          35.000  
 18 10  1 20 33 55.0010000  0  8G28G30G21G 5S27G 7G13G15
  21553893.737      248946.882        -846.474          50.000  
  22425088.266      999597.904       -3062.439          48.000  
  25807305.985      231947.058        -766.838          32.000  
  21643944.730      935162.078       -2911.078          52.000  
  40022087.850      150272.0302       -447.182          38.000  
  25110493.794     1149223.186       -3486.455          49.000  
  20501055.502     -103397.012         264.892          44.000  
  22317559.842     -736651.124        2217.052          34.000  
 18 10  1 20 33 56.0010000  0  8G28G30G21G 5S27G 7G13G15
  21554055.029      249793.150        -846.323          50.000  
  22425670.711     1002660.110       -3061.942          48.000  
  25807452.262      232717.509        -770.324          31.000  
  21644498.975      938072.976       -2910.759          52.000  
  40022172.867      150718.6622       -446.345          38.000  
  25111156.658     1152709.128       -3485.627          48.000  
  20501005.140     -103661.898         265.399          45.000  
  22317137.799     -738867.140        2212.790          33.000  
 18 10  1 20 33 57.0010000  0  8G28G30G21G 5S27G 7G13G15
  21554215.868      250639.447        -846.809          50.000  
  22426253.130     1005721.940       -3062.438          48.000  
  25807598.556      233487.868        -770.299          31.000  
  21645052.898      940983.773       -2911.130          52.000  
  40022257.605      151164.7732       -446.251          38.000  
  25111819.591     1156194.522       -3485.937          48.000  
  20500955.128     -103927.000         264.908          45.000  
  22316715.661     -741083.383        2216.573          34.000  
 18 10  1 20 33 58.0010000  0  8G28G30G21G 5S27G 7G13G15
  21554377.492      251487.087        -848.454          50.000  
  22426836.080     1008784.690       -3063.221          48.000  
  25807745.792      234259.356        -772.494          32.000  
  21645606.890      943895.777       -2912.837          52.000  
  40022342.186      151611.6242       -447.972          38.000  
  25112482.848     1159680.641       -3486.738          48.000  
  20500905.177     -104190.995         263.442          45.000  
  22316294.116     -743298.701        2213.691          34.000  
 18 10  1 20 33 59.0010000  0  8G28G30G21G 5S27G 7G13G15
  21554538.967      252336.001        -849.525          50.000  
  22427418.865     1011848.283       -3064.082          48.000  
  25807893.211      235031.987        -772.878          32.000  
  21646161.013      946808.914       -2913.744          52.000  
  40022427.579      152059.2022       -447.059          38.000  
  25113146.270     1163167.410       -3487.207          48.000  
  20500854.789     -104453.961         262.339          45.000  
  22315873.365     -745513.038        2215.150          32.000  
 18 10  1 20 34  0.0010000  0  8G28G30G21G 5S27G 7G13G15
  21554700.033      253185.050        -848.957          50.000  
  22428002.113     1014911.605       -3062.883          48.000  
  25808040.099      235804.617        -771.480          32.000  
  21646715.746      949722.054       -2912.854          52.000  
  40022512.675      152506.2772       -446.989          38.000  
  25113809.937     1166653.717       -3485.775          48.000  
  20500804.759     -104717.009         263.495          45.000  
  22315452.518     -747727.742        2215.314          32.000  
 18 10  1 20 34  1.0010000  0  8G28G30G21G 5S27G 7G13G15
  21554861.979      254033.866        -848.895          50.000  
  22428584.714     1017974.287       -3062.784          48.000  
  25808187.658      236576.877        -771.748          32.000  
  21647269.948      952634.830       -2913.128          52.000  
  40022597.806      152952.4932       -447.141          38.000  
  25114473.176     1170139.176       -3485.598          48.000  
  20500754.843     -104980.541         263.053          45.000  
  22315031.061     -749943.023        2213.192          32.000  
 18 10  1 20 34  2.0010000  0  8G28G30G21G 5S27G 7G13G15
  21555023.979      254883.928        -850.646          50.000  
  22429167.438     1021037.785       -3063.889          48.000  
  25808335.095      237350.6593       -773.597          32.000  
  21647824.446      955548.713       -2914.599          52.000  
  40022683.260      153399.3612       -446.836          38.000  
  25115136.267     1173625.268       -3486.506          48.000  
  20500705.258     -105243.059         261.789          45.000  
  22314609.586     -752157.484        2213.556          32.000  
 18 10  1 20 34  3.0010000  0  8G28G30G21G 5S27G 7G13G15
  21555185.768      255735.445        -851.947          50.000  
  22429750.520     1024102.317       -3064.587          48.000  
  25808482.907      238125.2342       -775.473          33.000  
  21648379.232      958463.924       -2915.586          52.000  
  40022767.815      153847.1152       -448.517          38.000  
  25115800.065     1177112.226       -3487.171          48.000  
  20500655.534     -105504.347         260.936          45.000  
  22314187.247     -754370.737        2214.060          31.000  
 18 10  1 20 34  4.0010000  0  8G28G30G21G 5S27G 7G13G15
  21555347.916      256587.365        -851.874          50.000  
  22430333.750     1027166.826       -3064.245          47.000  
  25808630.989      238900.0732       -773.633          34.000  
  21648934.035      961379.395       -2915.080          52.000  
  40022852.649      154294.5912       -446.343          38.000  
  25116463.522     1180598.965       -3486.222          48.000  
  20500605.888     -105765.477         261.120          45.000  
  22313766.792     -756584.051        2213.750          33.000  
 18 10  1 20 34  5.0010000  0  8G28G30G21G 5S27G 7G13G15
  21555509.923      257439.002        -851.835          50.000  
  22430916.822     1030230.641       -3063.708          47.000  
  25808778.470      239674.4632       -775.030          33.000  
  21649489.057      964294.446       -2915.274          52.000  
  40022937.701      154741.1482       -446.178          38.000  
  25117126.491     1184084.811       -3485.898          48.000  
  20500556.286     -106027.134         261.377          45.000  
  22313347.202     -758797.992        2214.871          34.000  
 18 10  1 20 34  6.0010000  0  8G28G30G21G 5S27G 7G13G15
  21555672.402      258291.396        -853.805          50.000  
  22431499.782     1033294.800       -3065.387          47.000  
  25808926.229      240449.4432       -776.549          34.000  
  21650044.253      967210.131       -2917.048          52.000  
  40023022.579      155187.8372       -447.579          38.000  
  25117789.747     1187570.811       -3487.067          48.000  
  20500507.129     -106288.251         259.765          45.000  
  22312927.760     -761011.592        2210.816          35.000  
 18 10  1 20 34  7.0010000  0  8G28G30G21G 5S27G 7G13G15
  21555834.724      259145.512        -854.935          50.000  
  22432083.422     1036360.255       -3065.712          48.000  
  25809074.199      241226.0122       -776.157          34.000  
  21650599.275      970127.407       -2917.995          52.000  
  40023107.902      155635.6492       -447.239          38.000  
  25118453.431     1191057.922       -3487.416          48.000  
  20500457.395     -106547.884         258.910          45.000  
  22312508.492     -763223.823        2211.767          35.000  
 18 10  1 20 34  8.0010000  0  8G28G30G21G 5S27G 7G13G15
  21555996.915      260000.179        -854.613          50.000  
  22432666.608     1039425.843       -3065.380          47.000  
  25809222.578      242002.9452       -777.834          34.000  
  21651154.733      973045.090       -2917.560          52.000  
  40023193.111      156083.3272       -446.172          38.000  
  25119117.142     1194544.979       -3486.993          48.000  
  20500408.055     -106807.230         259.326          45.000  
  22312087.863     -765435.909        2212.825          36.000  
 18 10  1 20 34  9.0010000  0  8G28G30G21G 5S27G 7G13G15
  21556159.298      260854.716        -854.297          49.000  
  22433249.733     1042490.884       -3064.736          47.000  
  25809371.035      242779.5732       -777.073          34.000  
  21651709.955      975962.520       -2917.261          52.000  
  40023277.998      156530.2752       -446.561          38.000  
  25119781.340     1198031.295       -3485.911          49.000  
  20500358.837     -107066.906         259.854          45.000  
  22311665.856     -767648.463        2214.298          35.000  
 18 10  1 20 34 10.0010000  0  8G28G30G21G 5S27G 7G13G15
  21556322.135      261709.819        -855.601          50.000  
  22433833.068     1045556.075       -3065.208          48.000  
  25809519.039      243556.6042       -779.584          34.000  
  21652265.265      978880.383       -2918.047          52.000  
  40023362.963      156977.1502       -446.435          38.000  
  25120444.457     1201517.569       -3486.261          48.000  
  20500309.723     -107326.263         259.342          45.000  
  22311244.808     -769860.857        2212.579          36.000  
 18 10  1 20 34 11.0010000  0  8G28G30G21G 5S27G 7G13G15
  21556484.937      262566.015        -856.283          49.000  
  22434416.612     1048621.937       -3066.112          48.000  
  25809667.218      244334.6132       -777.313          34.000  
  21652820.496      981799.203       -2918.980          52.000  
  40023448.190      157424.4962       -445.744          38.000  
  25121107.950     1205004.327       -3486.955          49.000  
  20500260.444     -107584.767         258.570          45.000  
  22310823.778     -772072.507        2211.622          35.000  
 18 10  1 20 34 12.0010000  0  8G28G30G21G 5S27G 7G13G15
  21556647.765      263423.088        -856.895          49.000  
  22434999.973     1051688.281       -3065.996          48.000  
  25809815.850      245113.3462       -777.972          34.000  
  21653375.814      984718.779       -2919.025          52.000  
  40023533.068      157872.1412       -446.406          38.000  
  25121771.800     1208491.377       -3486.489          48.000  
  20500211.225     -107842.610         258.310          45.000  
  22310402.835     -774283.673        2210.601          35.000  
 18 10  1 20 34 13.0010000  0  8G28G30G21G 5S27G 7G13G15
  21556810.663      264280.085        -856.815          49.000  
  22435583.543     1054754.131       -3065.174          48.000  
  25809964.020      245891.289        -778.502          34.000  
  21653931.603      987638.140       -2919.036          52.000  
  40023618.347      158319.1182       -446.195          37.000  
  25122435.510     1211977.720       -3485.721          48.000  
  20500162.653     -108100.778         258.620          45.000  
  22309981.273     -776495.288        2212.554          34.000  
 18 10  1 20 34 14.0010000  0  8G28G30G21G 5S27G 7G13G15
  21556973.988      265137.454        -858.122          49.000  
  22436166.642     1057819.920       -3066.294          47.000  
  25810112.748      246669.943        -778.756          33.000  
  21654487.218      990557.732       -2920.214          52.000  
  40023703.600      158765.8192       -445.840          38.000  
  25123099.648     1215463.838       -3486.670          49.000  
  20500114.045     -108358.800         257.728          45.000  
  22309559.405     -778706.855        2212.337          35.000  
 18 10  1 20 34 15.0010000  0  8G28G30G21G 5S27G 7G13G15
  21557136.886      265995.820        -858.044          49.000  
  22436750.421     1060886.285       -3066.112          47.000  
  25810261.424      247449.485        -777.901          33.000  
  21655042.728      993478.190       -2920.227          52.000  
  40023789.001      159213.0202       -445.686          38.000  
  25123762.747     1218950.337       -3486.447          49.000  
  20500064.923     -108616.066         257.887          45.000  
  22309137.075     -780917.903        2209.609          35.000  
 18 10  1 20 34 16.0010000  0  8G28G30G21G 5S27G 7G13G15
  21557300.098      266854.877        -858.569          49.000  
  22437334.245     1063952.915       -3065.939          47.000  
  25810409.917      248229.496        -778.383          33.000  
  21655598.666      996399.191       -2920.359          52.000  
  40023873.618      159660.3002       -446.514          38.000  
  25124426.056     1222436.923       -3485.910          49.000  
  20500015.861     -108872.880         257.675          45.000  
  22308715.268     -783128.533        2210.995          33.000  
 18 10  1 20 34 17.0010000  0  8G28G30G21G 5S27G 7G13G15
  21557463.842      267713.553        -858.618          49.000  
  22437917.536     1067018.753       -3065.444          47.000  
  25810558.366      249008.982        -779.158          33.000  
  21656154.508      999319.687       -2920.271          52.000  
  40023958.338      160106.5692       -445.950          38.000  
  25125089.758     1225922.507       -3485.311          49.000  
  20499966.713     -109130.312         257.651          45.000  
  22308294.456     -785339.928        2212.841          34.000  
 18 10  1 20 34 18.0010000  0  8G28G30G21G 5S27G 7G13G15
  21557627.001      268572.414        -859.098          49.000  
  22438501.071     1070084.345       -3065.871          47.000  
  25810706.457      249788.455        -779.891          33.000  
  21656710.062     1002240.225       -2921.028          52.000  
  40024043.382      160552.2952       -445.351          38.000  
  25125753.468     1229407.678       -3485.596          49.000  
  20499917.983     -109387.792         257.235          45.000  
  22307873.906     -787551.545        2211.741          34.000  
 18 10  1 20 34 19.0010000  0  8G28G30G21G 5S27G 7G13G15
  21557790.841      269432.772        -860.795          49.000  
  22439084.327     1073151.039       -3066.783          47.000  
  25810855.124      250569.332        -780.732          33.000  
  21657266.069     1005162.130       -2922.167          52.000  
  40024128.417      160999.0172       -446.631          38.000  
  25126416.760     1232893.745       -3485.964          49.000  
  20499869.655     -109644.006         255.926          45.000  
  22307453.339     -789762.080        2207.072          34.000  
 18 10  1 20 34 20.0010000  0  8G28G30G21G 5S27G 7G13G15
  21557954.708      270294.318        -861.649          49.000  
  22439668.019     1076218.491       -3067.018          47.000  
  25811003.599      251351.173        -782.969          33.000  
  21657821.649     1008085.085       -2922.784          52.000  
  40024213.286      161446.3612       -446.724          38.000  
  25127079.676     1236380.385       -3486.108          49.000  
  20499820.907     -109899.259         255.358          45.000  
  22307033.286     -791971.688        2208.720          33.000  
 18 10  1 20 34 21.0010000  0  8G28G30G21G 5S27G 7G13G15
  21558118.609      271155.793        -861.008          49.000  
  22440251.877     1079285.464       -3066.146          47.000  
  25811151.900      252132.862        -781.239          33.000  
  21658378.285     1011007.827       -2922.588          52.000  
  40024298.548      161892.9492       -445.840          38.000  
  25127742.994     1239866.325       -3485.268          49.000  
  20499772.544     -110154.838         255.514          45.000  
  22306612.465     -794181.843        2209.833          33.000  
 18 10  1 20 34 22.0010000  0  8G28G30G21G 5S27G 7G13G15
  21558282.536      272017.234        -861.902          49.000  
  22440835.395     1082351.980       -3066.656          47.000  
  25811300.646      252914.274        -782.769          33.000  
  21658934.319     1013930.421       -2922.876          52.000  
  40024383.443      162338.8892       -444.888          38.000  
  25128406.512     1243351.654       -3485.310          49.000  
  20499723.841     -110410.650         255.629          45.000  
  22306191.531     -796392.367        2209.326          33.000  
 18 10  1 20 34 23.0010000  0  8G28G30G21G 5S27G 7G13G15
  21558446.856      272879.966        -863.419          49.000  
  22441419.437     1085419.366       -3067.824          47.000  
  25811449.461      253696.837        -783.381          33.000  
  21659490.841     1016854.161       -2924.427          52.000  
  40024468.478      162785.4402       -447.525          38.000  
  25129070.423     1246837.652       -3486.367          49.000  
  20499674.849     -110665.420         254.736          45.000  
  22305770.806     -798601.965        2209.547          33.000  
 18 10  1 20 34 24.0010000  0  8G28G30G21G 5S27G 7G13G15
  21558611.246      273743.953        -864.354          49.000  
  22442003.321     1088487.602       -3068.470          48.000  
  25811598.948      254480.526        -783.913          33.000  
  21660047.276     1019779.028       -2925.367          52.000  
  40024553.906      163232.6772       -447.258          38.000  
  25129733.994     1250324.305       -3486.767          49.000  
  20499626.250     -110919.174         253.265          45.000  
  22305350.928     -800810.680        2208.134          34.000  
 18 10  1 20 34 25.0010000  0  8G28G30G21G 5S27G 7G13G15
  21558775.941      274608.132        -864.414          49.000  
  22442587.554     1091555.597       -3067.855          48.000  
  25811747.668      255264.243        -783.480          33.000  
  21660603.781     1022703.951       -2924.991          52.000  
  40024638.801      163679.5422       -446.914          38.000  
  25130397.748     1253810.538       -3486.162          49.000  
  20499577.878     -111172.973         253.375          45.000  
  22304930.831     -803019.592        2209.649          33.000  
 18 10  1 20 34 26.0010000  0  8G28G30G21G 5S27G 7G13G15
  21558940.104      275472.182        -864.083          49.000  
  22443171.063     1094623.051       -3067.405          48.000  
  25811896.763      256047.607        -783.918          33.000  
  21661159.902     1025628.605       -2924.529          52.000  
  40024723.871      164125.7322       -445.410          38.000  
  25131061.170     1257296.022       -3485.307          49.000  
  20499529.402     -111427.131         254.246          45.000  
  22304510.691     -805229.041        2207.493          34.000  
 18 10  1 20 34 27.0010000  0  8G28G30G21G 5S27G 7G13G15
  21559104.564      276337.179        -865.810          49.000  
  22443755.105     1097691.039       -3068.398          48.000  
  25812045.683      256831.743        -786.407          32.000  
  21661716.617     1028554.090       -2925.933          52.000  
  40024808.906      164572.2162       -447.080          38.000  
  25131724.505     1260781.863       -3485.915          49.000  
  20499481.021     -111680.571         252.996          45.000  
  22304089.809     -807437.846        2207.590          33.000  
 18 10  1 20 34 28.0010000  0  8G28G30G21G 5S27G 7G13G15
  21559269.311      277203.441        -866.503          49.000  
  22444339.181     1100759.894       -3069.064          47.000  
  25812194.882      257617.126        -786.011          32.000  
  21662273.209     1031480.696       -2927.034          52.000  
  40024893.818      165019.3122       -447.052          38.000  
  25132388.442     1264268.372       -3487.010          50.000  
  20499432.884     -111932.971         251.699          45.000  
  22303669.529     -809645.740        2208.012          33.000  
 18 10  1 20 34 29.0010000  0  8G28G30G21G 5S27G 7G13G15
  21559434.399      278070.175        -866.964          49.000  
  22444923.013     1103828.774       -3068.480          48.000  
  25812344.186      258402.744        -784.233          32.000  
  21662830.272     1034407.645       -2926.948          52.000  
  40024978.775      165466.2582       -445.732          38.000  
  25133052.004     1267754.723       -3485.857          50.000  
  20499385.123     -112185.126         252.197          45.000  
  22303250.096     -811853.617        2208.469          34.000  
 18 10  1 20 34 30.0010000  0  8G28G30G21G 5S27G 7G13G15
  21559599.112      278936.905        -866.752          49.000  
  22445507.429     1106897.247       -3068.389          48.000  
  25812493.743      259188.161        -787.562          33.000  
  21663387.056     1037334.445       -2926.599          51.000  
  40025063.757      165912.6492       -446.097          38.000  
  25133715.008     1271240.490       -3485.615          49.000  
  20499336.716     -112437.516         252.747          45.000  
  22302829.807     -814061.837        2207.886          34.000  
 18 10  1 20 34 31.0010000  0  8G28G30G21G 5S27G 7G13G15
  21559764.470      279804.339        -868.245          49.000  
  22446091.575     1109966.009       -3069.138          48.000  
  25812643.379      259974.205        -786.249          33.000  
  21663943.849     1040261.824       -2928.036          51.000  
  40025148.496      166359.1232       -446.502          38.000  
  25134378.413     1274726.333       -3486.276          49.000  
  20499288.432     -112689.457         251.014          44.000  
  22302409.458     -816269.720        2207.562          33.000  
 18 10  1 20 34 32.0010000  0  8G28G30G21G 5S27G 7G13G15
  21559930.003      280673.084        -869.248          49.000  
  22446675.529     1113035.658       -3070.061          48.000  
  25812792.910      260761.301        -786.188          33.000  
  21664501.253     1043190.367       -2929.401          51.000  
  40025233.845      166806.2582       -447.065          38.000  
  25135041.547     1278212.871       -3487.326          49.000  
  20499239.937     -112940.303         250.557          44.000  
  22301989.440     -818476.660        2205.571          34.000  
 18 10  1 20 34 33.0010000  0  8G28G30G21G 5S27G 7G13G15
  21560095.064      281542.660        -869.961          49.000  
  22447259.379     1116105.702       -3070.243          47.000  
  25812942.825      261549.109        -787.611          33.000  
  21665058.612     1046119.608       -2929.576          51.000  
  40025318.967      167253.6382       -447.293          38.000  
  25135705.127     1281699.641       -3486.437          49.000  
  20499191.949     -113190.564         250.407          44.000  
  22301569.945     -820683.152        2206.399          34.000  
 18 10  1 20 34 34.0010000  0  8G28G30G21G 5S27G 7G13G15
  21560260.449      282412.380        -869.616          49.000  
  22447843.525     1119175.495       -3069.104          48.000  
  25813093.368      262336.875        -787.082          33.000  
  21665616.243     1049048.874       -2928.805          51.000  
  40025403.880      167700.4982       -446.812          37.000  
  25136368.278     1285185.949       -3485.791          49.000  
  20499144.275     -113440.902         250.956          44.000  
  22301149.919     -822889.844        2208.100          34.000  
 18 10  1 20 34 35.0010000  0  8G28G30G21G 5S27G 7G13G15
  21560426.374      283282.161        -870.465          49.000  
  22448428.543     1122244.919       -3069.828          48.000  
  25813243.692      263124.547        -788.930          33.000  
  21666173.838     1051978.047       -2929.695          51.000  
  40025488.688      168146.8932       -445.053          38.000  
  25137031.474     1288671.707       -3486.213          49.000  
  20499096.505     -113691.430         250.228          44.000  
  22300729.743     -825096.905        2205.815          34.000  
 18 10  1 20 34 36.0010000  0  8G28G30G21G 5S27G 7G13G15
  21560592.291      284153.266        -871.674          49.000  
  22449012.663     1125315.238       -3070.854          48.000  
  25813394.331      263913.421        -788.768          34.000  
  21666731.329     1054908.415       -2930.841          51.000  
  40025573.749      168593.9542       -447.164          38.000  
  25137695.856     1292158.172       -3486.787          50.000  
  20499049.032     -113940.854         248.682          44.000  
  22300310.284     -827302.995        2206.383          34.000  
 18 10  1 20 34 37.0010000  0  8G28G30G21G 5S27G 7G13G15
  21560757.597      285025.375        -871.584          49.000  
  22449596.391     1128386.155       -3069.836          48.000  
  25813545.337      264703.125        -787.284          34.000  
  21667288.977     1057839.655       -2930.553          51.000  
  40025658.696      169041.3032       -445.900          38.000  
  25138358.581     1295645.048       -3485.773          49.000  
  20499001.454     -114189.510         249.671          44.000  
  22299890.449     -829508.424        2207.118          33.000  
 18 10  1 20 34 38.0010000  0  8G28G30G21G 5S27G 7G13G15
  21560924.229      285897.121        -872.039          49.000  
  22450180.755     1131456.285       -3070.242          48.000  
  25813696.107      265492.269        -787.745          34.000  
  21667846.843     1060770.379       -2930.818          51.000  
  40025743.749      169487.6462       -447.084          38.000  
  25139022.020     1299130.930       -3485.807          49.000  
  20498953.998     -114438.774         249.404          44.000  
  22299469.777     -831714.642        2204.595          33.000  
 18 10  1 20 34 39.0010000  0  8G28G30G21G 5S27G 7G13G15
  21561090.084      286769.400        -872.884          49.000  
  22450765.180     1134526.517       -3070.785          48.000  
  25813846.877      266281.798        -790.021          34.000  
  21668404.465     1063701.506       -2931.853          51.000  
  40025829.080      169933.9412       -445.050          38.000  
  25139684.404     1302616.750       -3486.210          49.000  
  20498906.420     -114687.737         248.604          44.000  
  22299049.549     -833920.681        2206.387          33.000  
 18 10  1 20 34 40.0010000  0  8G28G30G21G 5S27G 7G13G15
  21561256.280      287642.900        -874.283          49.000  
  22451349.396     1137597.568       -3071.370          48.000  
  25813997.655      267072.388        -791.360          34.000  
  21668962.505     1066633.731       -2932.630          51.000  
  40025913.984      170380.8832       -446.635          38.000  
  25140348.158     1306103.184       -3486.657          50.000  
  20498859.209     -114935.703         248.083          44.000  
  22298629.488     -836125.884        2204.686          34.000  
 18 10  1 20 34 41.0010000  0  9G28G30G21G 8G 5S27G 7G13G15
  21561422.598      288517.487        -874.868          49.000  
  22451933.620     1140669.270       -3071.692          48.000  
  25814149.080      267863.930        -792.938          34.000  
  25886645.189       60954.9603      -1412.479          28.000  
  21669520.747     1069566.890       -2933.336          51.000  
  40025998.600      170828.3702       -448.248          37.000  
  25141011.249     1309590.091       -3486.666          49.000  
  20498812.032     -115182.830         246.960          44.000  
  22298209.260     -838330.362        2204.415          33.000  
 18 10  1 20 34 42.0010000  0  9G28G30G21G 8G 5S27G 7G13G15
  21561588.846      289391.823        -873.587          49.000  
  22452518.019     1143740.325       -3070.300          48.000  
  25814300.076      268655.059        -791.141          33.000  
  25886914.917       62367.4293      -1411.666          29.000  
  21670078.962     1072499.676       -2932.424          51.000  
  40026083.478      171275.0282       -445.492          38.000  
  25141674.331     1313076.137       -3485.600          49.000  
  20498764.820     -115430.428         248.336          44.000  
  22297789.452     -840535.476        2206.592          33.000  
 18 10  1 20 34 43.0010000  0  9G28G30G21G 8G 5S27G 7G13G15
  21561755.749      290266.138        -875.006          49.000  
  22453102.514     1146810.931       -3071.334          48.000  
  25814450.776      269445.983        -791.144          33.000  
  25887186.364       63779.6933      -1413.503          30.000  
  21670637.683     1075432.316       -2933.395          51.000  
  40026169.106      171720.9842       -446.552          38.000  
  25142337.501     1316561.574       -3485.780          49.000  
  20498717.871     -115678.276         247.205          44.000  
  22297368.954     -842740.992        2205.605          33.000  
 18 10  1 20 34 44.0010000  0  9G28G30G21G 8G 5S27G 7G13G15
  21561921.989      291141.950        -876.367          49.000  
  22453686.835     1149882.623       -3071.968          48.000  
  25814601.948      270238.203        -793.590          33.000  
  25887452.794       65193.4703      -1414.348          30.000  
  21671195.741     1078366.303       -2934.468          51.000  
  40026254.220      172167.8802       -446.655          38.000  
  25143000.670     1320047.884       -3486.659          49.000  
  20498670.685     -115924.853         246.013          44.000  
  22296948.779     -844945.212        2207.290          32.000  
 18 10  1 20 34 45.0010000  0  9G28G30G21G 8G 5S27G 7G13G15
  21562089.031      292018.983        -877.645          49.000  
  22454271.321     1152955.121       -3072.711          48.000  
  25814753.258      271031.579        -794.637          32.000  
  25887723.002       66608.4713      -1414.979          30.000  
  21671753.999     1081301.379       -2935.305          51.000  
  40026339.560      172615.3652       -447.095          38.000  
  25143663.220     1323534.818       -3486.907          49.000  
  20498623.980     -116170.445         245.501          44.000  
  22296529.014     -847148.860        2202.958          33.000  
 18 10  1 20 34 46.0010000  0  9G28G30G21G 8G 5S27G 7G13G15
  21562256.056      292895.899        -877.017          49.000  
  22454855.528     1156027.084       -3071.893          48.000  
  25814903.950      271824.602        -792.136          32.000  
  25887994.457       68023.3183      -1414.326          30.000  
  21672312.842     1084236.201       -2934.883          51.000  
  40026424.674      173062.2382       -446.838          38.000  
  25144326.363     1327021.032       -3486.117          49.000  
  20498576.829     -116416.373         246.173          44.000  
  22296109.676     -849352.816        2204.188          34.000  
 18 10  1 20 34 47.0010000  0  9G28G30G21G 8G 5S27G 7G13G15
  21562423.194      293772.785        -877.302          49.000  
  22455440.233     1159098.589       -3071.616          48.000  
  25815054.039      272617.429        -791.925          31.000  
  25888263.138       69438.0333      -1414.450          30.000  
  21672871.459     1087170.858       -2934.964          52.000  
  40026509.630      173508.4802       -446.077          38.000  
  25144989.210     1330506.604       -3485.572          49.000  
  20498529.705     -116662.575         245.765          44.000  
  22295690.129     -851557.221        2203.803          35.000  
 18 10  1 20 34 48.0010000  0  9G28G30G21G 8G 5S27G 7G13G15
  21562590.454      294651.162        -879.061          49.000  
  22456025.086     1162171.172       -3072.888          48.000  
  25815205.062      273411.620        -794.898          31.000  
  25888529.743       70854.1273      -1416.335          29.000  
  21673430.067     1090106.867       -2936.422          52.000  
  40026594.918      173955.5462       -447.104          38.000  
  25145653.051     1333993.051       -3486.660          49.000  
  20498483.305     -116907.518         244.441          44.000  
  22295271.228     -853760.516        2203.846          35.000  
 18 10  1 20 34 49.0010000  0  9G28G30G21G 8G 5S27G 7G13G15
  21562757.662      295530.765        -880.205          49.000  
  22456609.336     1165244.549       -3074.125          48.000  
  25815356.286      274206.839        -796.010          31.000  
  25888795.501       72271.4693      -1417.878          29.000  
  21673989.110     1093043.970       -2937.615          52.000  
  40026680.485      174403.2332       -447.895          38.000  
  25146315.714     1337480.122       -3487.458          49.000  
  20498437.001     -117151.463         243.642          44.000  
  22294852.257     -855962.971        2202.544          35.000  
 18 10  1 20 34 50.0010000  0  9G28G30G21G 8G 5S27G 7G13G15
  21562924.966      296410.532        -879.725          49.000  
  22457193.640     1168317.685       -3073.241          48.000  
  25815506.532      275002.051        -797.312          32.000  
  25889060.474       73688.9453      -1417.727          29.000  
  21674548.303     1095981.088       -2937.347          52.000  
  40026765.546      174850.4352       -445.952          38.000  
  25146979.529     1340966.732       -3486.314          49.000  
  20498390.853     -117395.474         244.115          44.000  
  22294432.754     -858165.628        2200.634          36.000  
 18 10  1 20 34 51.0010000  0  9G28G30G21G 8G 5S27G 7G13G15
  21563092.235      297290.079        -879.993          49.000  
  22457778.876     1171390.174       -3072.391          48.000  
  25815657.764      275796.972        -795.391          32.000  
  25889327.724       75106.1193      -1417.401          30.000  
  21675107.172     1098917.850       -2937.019          51.000  
  40026850.206      175296.7872       -445.010          38.000  
  25147643.143     1344452.520       -3486.233          49.000  
  20498344.052     -117639.939         244.149          44.000  
  22294014.324     -860368.824        2204.135          37.000  
 18 10  1 20 34 52.0010000  0  9G28G30G21G 8G 5S27G 7G13G15
  21563260.289      298170.712        -881.606          49.000  
  22458363.807     1174463.338       -3073.894          48.000  
  25815808.883      276592.762        -796.707          32.000  
  25889594.668       76524.3523      -1418.759          30.000  
  21675666.164     1101855.557       -2938.539          51.000  
  40026934.953      175743.5972       -446.986          38.000  
  25148306.234     1347938.780       -3487.219          49.000  
  20498297.739     -117883.558         242.475          44.000  
  22293596.060     -862571.322        2201.571          37.000  
 18 10  1 20 34 53.0010000  0  9G28G30G21G 8G 5S27G 7G13G15
  21563428.117      299052.737        -882.887          49.000  
  22458947.788     1177537.467       -3074.575          47.000  
  25815960.770      277389.799        -797.747          32.000  
  25889867.276       77943.9282      -1420.266          31.000  
  21676224.614     1104794.524       -2939.628          51.000  
  40027019.901      176191.2022       -448.138          38.000  
  25148969.534     1351425.842       -3487.560          49.000  
  20498251.252     -118125.998         241.630          44.000  
  22293177.760     -864772.808        2200.273          37.000  
 18 10  1 20 34 54.0010000  0  9G28G30G21G 8G 5S27G 7G13G15
  21563596.171      299935.332        -882.656          49.000  
  22459531.847     1180611.752       -3074.059          47.000  
  25816112.395      278187.167        -798.146          33.000  
  25890131.708       79363.9742      -1419.638          31.000  
  21676783.876     1107733.932       -2939.037          51.000  
  40027105.023      176638.7562       -446.757          38.000  
  25149632.756     1354912.856       -3486.568          48.000  
  20498205.253     -118368.111         242.511          44.000  
  22292758.868     -866974.138        2201.846          37.000  
 18 10  1 20 34 55.0010000  0  9G28G30G21G 8G 5S27G 7G13G15
  21563763.824      300818.073        -883.071          49.000  
  22460116.996     1183685.756       -3073.906          47.000  
  25816264.412      278984.596        -797.063          33.000  
  25890402.631       80784.2092      -1417.879          31.000  
  21677343.479     1110673.353       -2939.341          51.000  
  40027189.997      177085.8352       -446.725          38.000  
  25150295.899     1358399.406       -3486.359          49.000  
  20498159.429     -118610.308         241.956          44.000  
  22292340.316     -869175.614        2200.888          36.000  
 18 10  1 20 34 56.0010000  0  9G28G30G21G 8G 5S27G 7G13G15
  21563932.009      301701.386        -884.094          49.000  
  22460702.381     1186759.916       -3074.937          47.000  
  25816417.137      279782.391        -799.082          34.000  
  25890675.317       82204.9213      -1420.984          30.000  
  21677903.186     1113613.192       -2940.593          51.000  
  40027275.285      177532.8172       -447.296          38.000  
  25150959.583     1361885.908       -3487.234          49.000  
  20498113.561     -118852.166         241.215          44.000  
  22291921.092     -871376.946        2201.244          36.000  
 18 10  1 20 34 57.0010000  0  9G28G30G21G 8G 5S27G 7G13G15
  21564100.212      302585.906        -884.679          49.000  
  22461286.710     1189834.872       -3075.103          47.000  
  25816569.730      280581.307        -797.760          34.000  
  25890941.406       83626.7593      -1421.978          30.000  
  21678462.465     1116554.120       -2941.043          51.000  
  40027360.075      177980.4382       -447.205          38.000  
  25151623.381     1365373.029       -3486.872          49.000  
  20498067.300     -119093.048         241.086          44.000  
  22291503.220     -873577.438        2200.463          38.000  
 18 10  1 20 34 58.0010000  0  9G28G30G21G 8G 5S27G 7G13G15
  21564268.345      303471.117        -885.183          49.000  
  22461871.484     1192910.101       -3075.001          47.000  
  25816721.879      281380.688        -799.177          34.000  
  25891209.677       85049.2503      -1422.162          30.000  
  21679022.268     1119495.606       -2941.477          51.000  
  40027445.241      178428.1852       -447.168          38.000  
  25152287.117     1368860.237       -3486.430          49.000  
  20498021.354     -119333.452         240.592          44.000  
  22291084.703     -875777.587        2200.107          37.000  
 18 10  1 20 34 59.0010000  0  9G28G30G21G 8G 5S27G 7G13G15
  21564436.879      304356.391        -885.054          49.000  
  22462456.294     1195984.961       -3074.390          47.000  
  25816873.905      282179.981        -798.410          33.000  
  25891479.580       86471.8003      -1421.422          29.000  
  21679582.019     1122437.007       -2940.868          51.000  
  40027530.468      178875.3962       -446.237          38.000  
  25152950.671     1372346.883       -3486.149          49.000  
  20497975.957     -119574.049         241.166          44.000  
  22290666.124     -877978.070        2201.324          37.000  
 18 10  1 20 35  0.0010000  0  9G28G30G21G 8G 5S27G 7G13G15
  21564605.596      305242.080        -886.084          49.000  
  22463041.513     1199059.819       -3074.920          47.000  
  25817026.586      282979.509        -798.937          33.000  
  25891749.622       87894.6572      -1423.214          29.000  
  21680141.848     1125378.691       -2941.844          51.000  
  40027615.215      179322.3782       -446.933          38.000  
  25153614.390     1375833.341       -3486.472          49.000  
  20497930.220     -119814.452         240.014          44.000  
  22290247.328     -880178.521        2200.353          37.000  
 18 10  1 20 35  1.0010000  0  9G28G30G21G 8G 5S27G 7G13G15
  21564774.148      306128.902        -886.749          49.000  
  22463625.999     1202135.410       -3075.727          47.000  
  25817178.987      283780.027        -802.416          33.000  
  25892019.786       89318.6862      -1425.073          29.000  
  21680701.947     1128321.377       -2943.072          51.000  
  40027700.319      179769.8992       -448.165          38.000  
  25154278.327     1379320.347       -3487.045          49.000  
  20497884.361     -120053.963         238.769          44.000  
  22289828.976     -882378.149        2200.649          37.000  
 18 10  1 20 35  2.0010000  0  9G28G30G21G 8G 5S27G 7G13G15
  21564943.040      307016.550        -887.485          49.000  
  22464210.512     1205211.400       -3075.418          46.000  
  25817331.345      284581.216        -800.046          33.000  
  25892289.628       90743.4733      -1425.133          29.000  
  21681261.838     1131264.733       -2943.200          51.000  
  40027785.834      180217.6532       -447.150          38.000  
  25154942.665     1382807.546       -3486.707          49.000  
  20497838.624     -120292.848         239.271          44.000  
  22289410.965     -884577.376        2199.323          38.000  
 18 10  1 20 35  3.0010000  0  9G28G30G21G 8G 5S27G 7G13G15
  21565112.185      307903.875        -886.979          49.000  
  22464795.844     1208286.641       -3074.721          47.000  
  25817483.711      285381.937        -799.431          33.000  
  25892559.522       92167.8553      -1427.140          29.000  
  21681821.745     1134207.646       -2942.423          51.000  
  40027870.834      180664.4322       -446.775          38.000  
  25155605.809     1386293.836       -3485.646          49.000  
  20497793.227     -120532.320         239.699          44.000  
  22288992.483     -886777.243        2199.938          38.000  
 18 10  1 20 35  4.0010000  0  9G28G30G21G 8G 5S27G 7G13G15
  21565281.374      308791.275        -888.042          49.000  
  22465381.465     1211361.532       -3075.134          47.000  
  25817636.008      286182.550        -799.561          33.000  
  25892829.773       93592.3053      -1424.700          29.000  
  21682381.862     1137150.480       -2943.419          51.000  
  40027956.061      181110.6732       -445.388          38.000  
  25156269.056     1389779.583       -3485.876          49.000  
  20497748.232     -120771.941         238.830          44.000  
  22288574.419     -888977.435        2199.747          38.000  
 18 10  1 20 35  5.0010000  0  9G28G30G21G 8G 5S27G 7G13G15
  21565450.475      309680.323        -889.668          49.000  
  22465966.841     1214437.660       -3076.789          46.000  
  25817788.375      286984.608        -804.102          33.000  
  25893100.217       95018.3622      -1427.247          30.000  
  21682942.119     1140094.843       -2945.161          51.000  
  40028041.052      181558.0652       -447.440          38.000  
  25156933.072     1393266.367       -3487.101          49.000  
  20497702.913     -121010.130         238.244          44.000  
  22288156.399     -891176.351        2198.325          38.000  
 18 10  1 20 35  6.0010000  0  9G28G30G21G 8G 5S27G 7G13G15
  21565620.021      310570.632        -890.351          49.000  
  22466551.685     1217514.620       -3076.815          46.000  
  25817940.611      287787.799        -805.874          33.000  
  25893371.262       96445.5882      -1427.914          29.000  
  21683502.777     1143040.314       -2945.423          51.000  
  40028126.183      182006.1202       -447.524          38.000  
  25157596.477     1396753.813       -3487.242          49.000  
  20497657.787     -121247.311         237.393          44.000  
  22287739.077     -893374.364        2198.571          38.000  
 18 10  1 20 35  7.0010000  0  9G28G30G21G 8G 5S27G 7G13G15
  21565789.332      311460.923        -890.131          49.000  
  22467136.547     1220591.154       -3076.719          46.000  
  25818092.933      288590.788        -804.437          33.000  
  25893641.967       97872.8233      -1427.426          29.000  
  21684063.104     1145985.635       -2945.195          51.000  
  40028211.681      182453.5162       -447.710          38.000  
  25158259.908     1400240.640       -3486.688          49.000  
  20497612.521     -121484.737         237.615          44.000  
  22287321.354     -895572.780        2199.114          39.000  
 18 10  1 20 35  8.0010000  0  9G28G30G21G 8G 5S27G 7G13G15
  21565958.791      312351.236        -890.369          49.000  
  22467722.595     1223667.282       -3076.193          46.000  
  25818245.492      289393.633        -803.831          33.000  
  25893912.847       99299.9172      -1427.558          29.000  
  21684623.587     1148930.841       -2945.272          51.000  
  40028296.532      182900.3692       -446.735          38.000  
  25158923.400     1403726.862       -3486.448          49.000  
  20497567.439     -121722.367         237.562          44.000  
  22286903.971     -897771.539        2199.121          39.000  
 18 10  1 20 35  9.0010000  0  9G28G30G21G 8G 5S27G 7G13G15
  21566128.826      313242.708        -892.363          49.000  
  22468307.544     1226744.146       -3077.340          46.000  
  25818398.530      290197.556        -805.012          33.000  
  25894183.727      100728.2243      -1429.092          28.000  
  21685184.612     1151877.063       -2947.050          51.000  
  40028381.785      183347.8192       -447.992          38.000  
  25159587.233     1407213.634       -3487.379          49.000  
  20497522.609     -121959.082         235.628          44.000  
  22286486.204     -899969.510        2197.667          39.000  
 18 10  1 20 35 10.0010000  0  8G28G30G21G 5S27G 7G13G15
  21566298.625      314135.557        -893.416          49.000  
  22468893.033     1229821.980       -3078.057          46.000  
  25818551.874      291002.647        -804.542          34.000  
  21685745.165     1154824.523       -2947.834          51.000  
  40028467.326      183795.9882       -447.736          38.000  
  25160250.725     1410701.182       -3487.607          49.000  
  20497477.657     -122194.642         235.408          44.000  
  22286068.515     -902166.484        2196.239          39.000  
 18 10  1 20 35 11.0010000  0  8G28G30G21G 5S27G 7G13G15
  21566468.337      315028.499        -892.699          49.000  
  22469478.322     1232899.469       -3076.876          46.000  
  25818705.401      291807.649        -806.265          34.000  
  21686306.041     1157771.938       -2947.001          51.000  
  40028552.719      184243.6612       -446.521          38.000  
  25160914.427     1414188.195       -3486.500          49.000  
  20497432.775     -122430.353         235.939          44.000  
  22285650.975     -904363.730        2197.773          39.000  
 18 10  1 20 35 12.0010000  0  8G28G30G21G 5S27G 7G13G15
  21566638.346      315921.135        -892.458          49.000  
  22470064.065     1235976.226       -3076.184          46.000  
  25818858.527      292612.196        -802.814          34.000  
  21686866.839     1160718.904       -2946.757          51.000  
  40028637.728      184690.3642       -446.756          38.000  
  25161577.797     1417674.310       -3485.594          49.000  
  20497387.824     -122666.590         236.694          44.000  
  22285233.400     -906561.643        2198.256          39.000  
 18 10  1 20 35 13.0010000  0  8G28G30G21G 5S27G 7G13G15
  21566808.774      316815.029        -894.723          49.000  
  22470649.223     1239053.855       -3077.889          46.000  
  25819012.438      293417.840        -807.403          34.000  
  21687428.073     1163667.000       -2948.743          51.000  
  40028722.614      185137.6392       -447.541          38.000  
  25162241.018     1421161.079       -3487.223          49.000  
  20497343.046     -122901.803         234.345          44.000  
  22284815.921     -908758.659        2196.952          39.000  
 18 10  1 20 35 14.0010000  0  9G28G30G21G 8G 5S27G 7G13G15
  21566978.826      317710.272        -895.839          49.000  
  22471234.381     1242132.381       -3078.520          46.000  
  25819165.799      294224.658        -808.846          34.000  
  25895540.795      107877.1993      -1432.893          28.000  
  21687989.472     1166616.310       -2949.961          51.000  
  40028807.911      185585.5822       -448.602          38.000  
  25162904.755     1424648.581       -3487.894          49.000  
  20497298.819     -123135.883         233.669          44.000  
  22284398.399     -910954.730        2196.502          39.000  
 18 10  1 20 35 15.0010000  0  8G28G30G21G 5S27G 7G13G15
  21567149.158      318605.908        -895.238          49.000  
  22471819.714     1245210.891       -3078.159          46.000  
  25819319.762      295031.749        -805.922          34.000  
  21688551.047     1169565.878       -2949.238          51.000  
  40028893.024      186033.2962       -447.152          38.000  
  25163569.102     1428135.877       -3486.598          49.000  
  20497254.783     -123369.813         234.206          44.000  
  22283981.086     -913150.761        2196.229          39.000  
 18 10  1 20 35 16.0010000  0  8G28G30G21G 5S27G 7G13G15
  21567319.446      319501.420        -895.319          49.000  
  22472405.448     1248288.859       -3077.518          46.000  
  25819473.935      295838.525        -807.321          34.000  
  21689111.949     1172515.181       -2948.829          51.000  
  40028978.024      186480.3042       -446.979          38.000  
  25164232.516     1431622.429       -3486.241          49.000  
  20497209.927     -123604.106         234.428          44.000  
  22283563.449     -915347.282        2197.107          39.000  
 18 10  1 20 35 17.0010000  0  8G28G30G21G 5S27G 7G13G15
  21567490.283      320397.540        -897.022          49.000  
  22472991.191     1251367.023       -3078.874          46.000  
  25819627.331      296645.727        -807.151          34.000  
  21689673.471     1175464.961       -2950.555          51.000  
  40029063.164      186927.3312       -447.845          38.000  
  25164896.270     1435108.990       -3487.086          49.000  
  20497165.604     -123838.021         233.204          44.000  
  22283145.648     -917543.555        2195.479          39.000  
 18 10  1 20 35 18.0010000  0  8G28G30G21G 5S27G 7G13G15
  21567660.754      321295.168        -897.942          49.000  
  22473576.724     1254446.247       -3080.028          46.000  
  25819781.102      297454.281        -807.153          33.000  
  21690234.905     1178416.092       -2951.638          51.000  
  40029148.408      187375.3102       -448.276          38.000  
  25165560.154     1438596.443       -3487.675          49.000  
  20497121.324     -124070.659         232.567          44.000  
  22282727.872     -919738.713        2195.060          39.000  
 18 10  1 20 35 19.0010000  0  8G28G30G21G 5S27G 7G13G15
  21567831.819      322192.930        -897.689          49.000  
  22474162.257     1257525.211       -3078.715          46.000  
  25819934.769      298262.865        -808.111          33.000  
  21690796.602     1181367.240       -2950.915          51.000  
  40029233.548      187822.9642       -446.977          38.000  
  25166224.196     1442083.433       -3486.679          49.000  
  20497077.236     -124303.393         232.825          44.000  
  22282309.869     -921934.075        2195.661          39.000  
 18 10  1 20 35 20.0010000  0  8G28G30G21G 5S27G 7G13G15
  21568002.622      323090.659        -897.721          49.000  
  22474748.384     1260603.716       -3077.856          46.000  
  25820088.348      299071.6733       -808.270          32.000  
  21691358.185     1184318.192       -2951.070          51.000  
  40029318.164      188269.8962       -446.001          38.000  
  25166887.392     1445569.776       -3486.179          49.000  
  20497032.659     -124536.374         233.352          44.000  
  22281891.474     -924129.850        2195.209          39.000  
 18 10  1 20 35 21.0010000  0  8G28G30G21G 5S27G 7G13G15
  21568173.564      323989.093        -899.447          49.000  
  22475333.760     1263682.506       -3079.406          46.000  
  25820241.745      299880.5703       -809.833          31.000  
  21691920.317     1187269.723       -2952.583          51.000  
  40029403.295      188716.8012       -447.907          38.000  
  25167550.683     1449056.213       -3487.135          49.000  
  20496988.467     -124768.891         231.719          44.000  
  22281472.966     -926325.302        2195.151          39.000  
 18 10  1 20 35 22.0010000  0  8G28G30G21G 5S27G 7G13G15
  21568344.733      324888.937        -900.592          49.000  
  22475919.843     1266762.272       -3080.624          46.000  
  25820395.237      300690.6483       -807.298          31.000  
  21692482.014     1190222.513       -2953.320          52.000  
  40029488.670      189164.4962       -448.771          38.000  
  25168214.158     1452543.436       -3487.588          49.000  
  20496944.536     -125000.243         230.587          44.000  
  22281055.033     -928519.717        2193.755          39.000  
 18 10  1 20 35 23.0010000  0  8G28G30G21G 5S27G 7G13G15
  21568516.147      325789.466        -900.208          49.000  
  22476505.883     1269842.312       -3079.501          46.000  
  25820549.025      301501.3182       -809.777          31.000  
  21693043.937     1193175.863       -2952.797          52.000  
  40029573.775      189612.3052       -447.277          38.000  
  25168878.374     1456030.737       -3486.848          49.000  
  20496900.526     -125231.127         231.392          44.000  
  22280636.743     -930713.804        2194.224          39.000  
 18 10  1 20 35 24.0010000  0  8G28G30G21G 5S27G 7G13G15
  21568687.290      326689.932        -900.082          49.000  
  22477092.027     1272921.866       -3078.812          46.000  
  25820702.552      302311.7553       -804.664          30.000  
  21693606.052     1196128.999       -2952.575          52.000  
  40029658.740      190059.4542       -445.983          38.000  
  25169542.076     1459517.377       -3485.471          50.000  
  20496856.386     -125462.307         232.145          44.000  
  22280218.967     -932908.338        2194.714          39.000  
 18 10  1 20 35 25.0010000  0  8G28G30G21G 5S27G 7G13G15
  21568859.262      327590.930        -901.379          49.000  
  22477678.293     1276001.524       -3079.906          46.000  
  25820856.071      303122.5453       -811.889          31.000  
  21694168.516     1199082.524       -2954.018          52.000  
  40029743.967      190506.5012       -447.125          38.000  
  25170205.490     1463003.928       -3486.752          49.000  
  20496813.040     -125693.181         230.386          44.000  
  22279801.348     -935102.697        2194.932          39.000  
 18 10  1 20 35 26.0010000  0  8G28G30G21G 5S27G 7G13G15
  21569030.919      328493.083        -902.596          49.000  
  22478264.734     1279081.923       -3080.749          46.000  
  25821009.982      303934.2573       -812.254          31.000  
  21694730.335     1202037.069       -2954.627          52.000  
  40029829.298      190954.1572       -447.429          38.000  
  25170869.209     1466491.023       -3487.188          49.000  
  20496769.065     -125923.142         229.717          44.000  
  22279384.018     -937296.276        2193.689          39.000  
 18 10  1 20 35 27.0010000  0  8G28G30G21G 5S27G 7G13G15
  21569202.725      329396.161        -903.156          49.000  
  22478851.358     1282162.837       -3080.646          46.000  
  25821164.390      304746.8013       -809.024          31.000  
  21695292.947     1204992.397       -2955.151          52.000  
  40029914.281      191402.1522       -448.818          38.000  
  25171533.006     1469978.451       -3486.845          49.000  
  20496725.536     -126152.388         229.828          44.000  
  22278966.504     -939489.278        2193.046          39.000  
 18 10  1 20 35 28.0010000  0  8G28G30G21G 5S27G 7G13G15
  21569374.907      330298.874        -902.616          50.000  
  22479437.659     1285242.960       -3079.531          46.000  
  25821318.475      305558.8523       -813.982          31.000  
  21695855.629     1207947.221       -2954.488          52.000  
  40029999.359      191849.2032       -446.027          38.000  
  25172196.629     1473464.884       -3485.853          49.000  
  20496681.465     -126382.244         230.388          44.000  
  22278548.597     -941683.052        2192.857          38.000  
 18 10  1 20 35 29.0010000  0  8G28G30G21G 5S27G 7G13G15
  21569546.887      331201.547        -903.381          50.000  
  22480023.969     1288322.618       -3079.782          46.000  
  25821472.866      306370.6153       -817.105          31.000  
  21696418.207     1210901.858       -2955.457          52.000  
  40030084.883      192295.6272       -446.559          38.000  
  25172859.790     1476950.683       -3486.543          49.000  
  20496637.796     -126612.365         229.787          45.000  
  22278130.516     -943877.203        2193.217          38.000  
 18 10  1 20 35 30.0010000  0  8G28G30G21G 5S27G 7G13G15
  21569719.042      332105.574        -904.420          50.000  
  22480610.540     1291403.205       -3080.916          46.000  
  25821627.562      307183.6323       -812.993          31.000  
  21696980.610     1213857.732       -2956.466          52.000  
  40030170.075      192742.7262       -446.821          38.000  
  25173522.732     1480437.241       -3486.711          49.000  
  20496594.362     -126841.358         228.796          45.000  
  22277712.304     -946070.375        2193.348          38.000  
 18 10  1 20 35 31.0010000  0  8G28G30G21G 5S27G 7G13G15
  21569891.154      333010.917        -905.257          50.000  
  22481197.033     1294484.713       -3081.770          47.000  
  25821782.293      307997.8313       -814.103          31.000  
  21697543.240     1216814.777       -2957.016          52.000  
  40030254.831      193190.5192       -447.717          38.000  
  25174186.600     1483924.496       -3487.073          49.000  
  20496550.789     -127069.269         228.026          45.000  
  22277294.354     -948262.607        2192.255          38.000  
 18 10  1 20 35 32.0010000  0  8G28G30G21G 5S27G 7G13G15
  21570064.016      333916.190        -905.073          50.000  
  22481783.291     1297565.724       -3080.580          47.000  
  25821937.312      308811.8073       -812.782          31.000  
  21698105.765     1219771.622       -2956.849          52.000  
  40030339.805      193637.6892       -446.463          38.000  
  25174849.848     1487411.077       -3486.343          49.000  
  20496507.242     -127297.473         228.497          45.000  
  22276876.142     -950455.227        2192.914          38.000  
 18 10  1 20 35 33.0010000  0  8G28G30G21G 5S27G 7G13G15
  21570236.433      334821.571        -905.892          50.000  
  22482369.409     1300646.416       -3080.885          47.000  
  25822091.703      309625.6272       -816.187          31.000  
  21698668.386     1222728.415       -2956.909          52.000  
  40030424.613      194084.2582       -445.943          38.000  
  25175512.877     1490897.153       -3486.158          49.000  
  20496464.341     -127525.794         228.157          45.000  
  22276458.096     -952648.193        2193.149          38.000  
 18 10  1 20 35 34.0010000  0  8G28G30G21G 5S27G 7G13G15
  21570408.422      335728.021        -907.316          50.000  
  22482956.242     1303727.765       -3081.996          47.000  
  25822246.207      310440.4433       -814.585          30.000  
  21699231.243     1225686.154       -2958.337          52.000  
  40030509.778      194531.2452       -447.404          38.000  
  25176176.500     1494383.693       -3486.764          49.000  
  20496421.064     -127753.274         227.003          45.000  
  22276040.085     -954840.398        2192.208          37.000  
 18 10  1 20 35 35.0010000  0  8G28G30G21G 5S27G 7G13G15
  21570581.179      336635.905        -908.487          49.000  
  22483543.189     1306810.113       -3082.589          47.000  
  25822401.331      311256.4793       -817.685          30.000  
  21699794.676     1228645.172       -2959.392          52.000  
  40030594.770      194979.0262       -447.890          38.000  
  25176840.202     1497871.059       -3487.582          49.000  
  20496378.267     -127979.578         225.438          45.000  
  22275622.152     -957031.539        2191.304          37.000  
 18 10  1 20 35 36.0010000  0  8G28G30G21G 5S27G 7G13G15
  21570753.762      337543.733        -908.101          50.000  
  22484130.118     1309891.992       -3082.110          47.000  
  25822555.783      312072.2703       -818.768          29.000  
  21700357.794     1231603.997       -2959.095          52.000  
  40030679.831      195426.1772       -446.105          38.000  
  25177503.511     1501357.755       -3486.701          49.000  
  20496334.677     -128206.132         226.511          45.000  
  22275204.141     -959223.152        2190.832          37.000  
 18 10  1 20 35 37.0010000  0  8G28G30G21G 5S27G 7G13G15
  21570926.824      338451.599        -908.463          49.000  
  22484716.489     1312973.504       -3081.933          47.000  
  25822710.060      312887.9803       -815.713          30.000  
  21700920.991     1234562.746       -2958.944          52.000  
  40030764.805      195872.7922       -446.831          38.000  
  25178166.707     1504843.889       -3486.418          49.000  
  20496291.575     -128432.890         226.728          45.000  
  22274785.702     -961415.033        2191.954          36.000  
 18 10  1 20 35 38.0010000  0  8G28G30G21G 5S27G 7G13G15
  21571099.808      339360.275        -909.734          49.000  
  22485303.035     1316055.383       -3082.708          47.000  
  25822864.765      313704.3522       -817.383          30.000  
  21701484.118     1237522.144       -2960.012          52.000  
  40030850.180      196319.5782       -447.154          38.000  
  25178829.963     1508330.213       -3486.878          49.000  
  20496248.420     -128659.070         225.803          44.000  
  22274367.830     -963606.490        2191.915          36.000  
 18 10  1 20 35 39.0010000  0  8G28G30G21G 5S27G 7G13G15
  21571272.784      340270.520        -910.701          49.000  
  22485889.545     1319138.425       -3083.265          47.000  
  25823019.968      314522.1053       -817.323          30.000  
  21702047.158     1240482.977       -2961.260          52.000  
  40030935.529      196767.3562       -447.793          38.000  
  25179493.263     1511817.499       -3487.585          49.000  
  20496205.266     -128883.922         224.628          44.000  
  22273949.749     -965796.774        2190.090          35.000  
 18 10  1 20 35 40.0010000  0  8G28G30G21G 5S27G 7G13G15
  21571446.134      341181.305        -910.589          49.000  
  22486476.640     1322221.592       -3082.654          47.000  
  25823176.156      315340.3083       -815.519          31.000  
  21702610.486     1243444.230       -2960.961          52.000  
  40031020.668      197215.1372       -447.918          38.000  
  25180156.694     1515304.744       -3486.478          49.000  
  20496162.469     -129108.426         224.697          44.000  
  22273532.401     -967986.856        2190.017          35.000  
 18 10  1 20 35 41.0010000  0  8G28G30G21G 5S27G 7G13G15
  21571619.520      342092.066        -910.645          50.000  
  22487063.570     1325304.308       -3082.449          47.000  
  25823331.733      316158.2432       -817.660          32.000  
  21703173.867     1246405.295       -2960.733          52.000  
  40031105.695      197662.2932       -447.138          38.000  
  25180819.838     1518791.333       -3486.269          49.000  
  20496119.577     -129333.200         224.929          44.000  
  22273114.399     -970177.343        2189.717          35.000  
 18 10  1 20 35 42.0010000  0  8G28G30G21G 5S27G 7G13G15
  21571792.949      343003.273        -912.110          49.000  
  22487650.272     1328387.057       -3083.643          47.000  
  25823487.677      316976.4542       -819.917          32.000  
  21703737.387     1249366.673       -2961.910          52.000  
  40031190.956      198109.2582       -447.032          38.000  
  25181483.129     1522277.769       -3486.732          49.000  
  20496076.946     -129557.748         223.716          44.000  
  22272696.920     -972367.738        2188.829          35.000  
 18 10  1 20 35 43.0010000  0  8G28G30G21G 5S27G 7G13G15
  21571966.439      343915.431        -912.122          49.000  
  22488237.123     1331470.338       -3083.307          47.000  
  25823643.891      317795.4852       -821.061          32.000  
  21704301.063     1252328.882       -2962.229          52.000  
  40031276.314      198556.4902       -446.378          38.000  
  25182146.726     1525764.552       -3486.408          49.000  
  20496034.132     -129781.563         223.871          44.000  
  22272279.441     -974557.545        2190.512          35.000  
 18 10  1 20 35 44.0010000  0  8G28G30G21G 5S27G 7G13G15
  21572139.833      344828.175        -913.017          50.000  
  22488824.114     1334553.772       -3083.444          47.000  
  25823799.608      318614.9492       -819.089          32.000  
  21704864.479     1255291.520       -2962.828          52.000  
  40031361.724      199003.7152       -446.796          38.000  
  25182810.175     1529251.312       -3486.630          49.000  
  20495991.789     -130005.026         223.187          44.000  
  22271861.761     -976747.173        2188.695          34.000  
 18 10  1 20 35 45.0010000  0  8G28G30G21G 5S27G 7G13G15
  21572313.724      345741.300        -913.245          50.000  
  22489411.235     1337637.177       -3083.405          47.000  
  25823955.666      319434.6202       -819.493          32.000  
  21705428.417     1258254.411       -2963.000          52.000  
  40031446.925      199450.8162       -446.526          38.000  
  25183473.754     1532737.849       -3486.137          49.000  
  20495949.132     -130228.327         223.494          44.000  
  22271444.526     -978936.727        2189.172          34.000  
 18 10  1 20 35 46.0010000  0  8G28G30G21G 5S27G 7G13G15
  21572487.965      346654.217        -913.345          50.000  
  22489998.269     1340719.960       -3083.037          48.000  
  25824112.360      320253.9002       -820.623          33.000  
  21705992.033     1261216.940       -2963.149          52.000  
  40031531.663      199897.1552       -446.374          38.000  
  25184136.670     1536223.551       -3486.004          49.000  
  20495906.780     -130452.076         223.388          44.000  
  22271026.838     -981126.882        2190.588          33.000  
 18 10  1 20 35 47.0010000  0  8G28G30G21G 5S27G 7G13G15
  21572661.463      347568.219        -914.345          49.000  
  22490585.268     1343803.400       -3083.680          48.000  
  25824268.653      321074.1332       -821.315          33.000  
  21706555.780     1264180.418       -2963.812          52.000  
  40031616.305      200344.0052       -447.494          38.000  
  25184799.875     1539709.743       -3486.151          49.000  
  20495864.140     -130674.962         222.830          44.000  
  22270609.481     -983316.319        2188.100          33.000  
 18 10  1 20 35 48.0010000  0  8G28G30G21G 5S27G 7G13G15
  21572835.494      348483.304        -914.816          49.000  
  22491172.747     1346887.504       -3083.552          48.000  
  25824424.998      321895.3572       -820.148          33.000  
  21707119.570     1267144.857       -2964.319          52.000  
  40031701.305      200791.3122       -446.365          38.000  
  25185463.271     1543196.421       -3486.021          49.000  
  20495821.963     -130897.002         222.314          44.000  
  22270192.534     -985505.018        2189.327          34.000  
 18 10  1 20 35 49.0010000  0  8G28G30G21G 5S27G 7G13G15
  21573009.944      349398.428        -915.111          49.000  
  22491759.903     1349971.236       -3083.270          48.000  
  25824581.492      322715.839        -818.839          33.000  
  21707683.526     1270109.179       -2964.097          52.000  
  40031786.489      201237.8982       -446.959          38.000  
  25186125.733     1546682.513       -3486.119          49.000  
  20495779.577     -131119.224         222.054          44.000  
  22269775.945     -987694.115        2189.883          33.000  
 18 10  1 20 35 50.0010000  0  8G28G30G21G 5S27G 7G13G15
  21573183.984      350313.623        -915.183          49.000  
  22492347.260     1353054.593       -3083.366          48.000  
  25824737.872      323536.793        -819.708          33.000  
  21708247.596     1273073.424       -2964.600          52.000  
  40031871.471      201683.9072       -445.715          38.000  
  25186789.060     1550168.058       -3485.410          49.000  
  20495736.893     -131341.620         222.172          44.000  
  22269359.260     -989883.427        2188.484          33.000  
 18 10  1 20 35 51.0010000  0  8G28G30G21G 5S27G 7G13G15
  21573358.207      351229.804        -916.799          49.000  
  22492935.219     1356138.544       -3084.426          49.000  
  25824894.400      324358.545        -821.639          32.000  
  21708811.884     1276038.540       -2965.755          51.000  
  40031956.236      202130.3672       -446.969          38.000  
  25187453.067     1553654.026       -3486.127          49.000  
  20495694.725     -131563.246         220.792          44.000  
  22268942.139     -992072.103        2187.940          33.000  
 18 10  1 20 35 52.0010000  0  8G28G30G21G 5S27G 7G13G15
  21573532.796      352147.307        -917.996          49.000  
  22493522.576     1359223.360       -3084.832          49.000  
  25825050.632      325181.468        -822.950          32.000  
  21709376.451     1279004.805       -2966.627          52.000  
  40032041.419      202577.5372       -447.096          38.000  
  25188117.091     1557140.622       -3486.738          49.000  
  20495652.906     -131783.788         220.295          44.000  
  22268525.602     -994259.899        2185.913          33.000  
 18 10  1 20 35 53.0010000  0  8G28G30G21G 5S27G 7G13G15
  21573707.264      353065.111        -917.807          49.000  
  22494109.200     1362308.086       -3084.499          48.000  
  25825207.317      326004.9843       -823.207          32.000  
  21709940.817     1281971.255       -2966.591          51.000  
  40032126.480      203024.4452       -446.736          38.000  
  25188780.767     1560626.955       -3486.192          49.000  
  20495610.999     -132004.252         220.269          44.000  
  22268108.935     -996447.720        2188.960          32.000  
 18 10  1 20 35 54.0010000  0  8G28G30G21G 5S27G 7G13G15
  21573882.281      353982.743        -917.823          49.000  
  22494696.478     1365392.216       -3083.819          49.000  
  25825363.619      326827.6882       -823.944          31.000  
  21710505.366     1284937.380       -2966.092          51.000  
  40032211.236      203470.5572       -446.453          38.000  
  25189443.569     1564112.501       -3485.397          49.000  
  20495568.883     -132225.110         221.146          44.000  
  22267692.215     -998636.111        2186.465          32.000  
 18 10  1 20 35 55.0010000  0  8G28G30G21G 5S27G 7G13G15
  21574056.826      354901.203        -919.357          49.000  
  22495283.338     1368476.751       -3085.102          48.000  
  25825519.833      327651.1222       -823.483          31.000  
  21711069.724     1287904.213       -2967.459          51.000  
  40032296.209      203916.9002       -446.698          38.000  
  25190106.128     1567598.269       -3486.122          49.000  
  20495526.941     -132445.375         219.938          44.000  
  22267275.495    -1000823.948        2187.353          33.000  
 18 10  1 20 35 56.0010000  0  8G28G30G21G 5S27G 7G13G15
  21574232.018      355821.223        -921.363          49.000  
  22495870.555     1371562.428       -3086.360          49.000  
  25825676.885      328475.9212       -825.460          31.000  
  21711634.483     1290872.456       -2969.068          52.000  
  40032381.183      204364.1082       -448.247          38.000  
  25190769.699     1571084.998       -3487.396          49.000  
  20495485.366     -132664.309         218.064          44.000  
  22266859.141    -1003010.663        2186.496          32.000  
 18 10  1 20 35 57.0010000  0  8G28G30G21G 5S27G 7G13G15
  21574406.686      356741.912        -920.401          49.000  
  22496457.886     1374648.342       -3085.802          48.000  
  25825833.117      329301.2062       -823.918          31.000  
  21712199.381     1293841.219       -2968.449          52.000  
  40032466.210      204811.3332       -447.379          38.000  
  25191433.566     1574571.768       -3486.290          49.000  
  20495443.547     -132882.814         218.531          44.000  
  22266442.919    -1005197.090        2186.518          32.000  
 18 10  1 20 35 58.0010000  0  8G28G30G21G 5S27G 7G13G15
  21574582.313      357662.667        -920.698          49.000  
  22497045.217     1377733.904       -3085.022          48.000  
  25825989.829      330126.3702       -824.925          32.000  
  21712764.053     1296809.913       -2968.381          51.000  
  40032551.227      205258.0812       -445.075          38.000  
  25192096.779     1578057.995       -3485.860          49.000  
  20495402.190     -133101.461         218.809          44.000  
  22266026.557    -1007383.753        2185.964          32.000  
 18 10  1 20 35 59.0010000  0  8G28G30G21G 5S27G 7G13G15
  21574757.575      358583.950        -921.899          49.000  
  22497632.006     1380819.579       -3086.158          48.000  
  25826147.108      330951.9612       -823.933          32.000  
  21713329.003     1299779.007       -2969.483          51.000  
  40032636.262      205704.7172       -447.644          38.000  
  25192760.324     1581544.156       -3486.337          49.000  
  20495360.911     -133319.810         217.964          44.000  
  22265610.631    -1009570.324        2186.088          32.000  
 18 10  1 20 36  0.0010000  0  8G28G30G21G 5S27G 7G13G15
  21574932.967      359506.435        -922.863          49.000  
  22498218.787     1383906.036       -3086.626          48.000  
  25826304.404      331778.4863       -827.271          32.000  
  21713893.823     1302749.158       -2970.353          51.000  
  40032721.506      206151.9622       -447.074          38.000  
  25193423.694     1585030.914       -3486.836          49.000  
  20495319.493     -133537.179         217.236          44.000  
  22265194.399    -1011755.990        2188.772          32.000  
 18 10  1 20 36  1.0010000  0  8G28G30G21G 5S27G 7G13G15
  21575108.699      360429.618        -922.766          49.000  
  22498806.101     1386992.760       -3086.333          48.000  
  25826462.032      332605.6672       -827.210          32.000  
  21714458.696     1305719.880       -2970.345          51.000  
  40032806.733      206599.2252       -446.853          38.000  
  25194087.282     1588517.777       -3486.354          49.000  
  20495278.040     -133754.085         217.822          44.000  
  22264778.604    -1013941.372        2186.068          32.000  
 18 10  1 20 36  2.0010000  0  8G28G30G21G 5S27G 7G13G15
  21575284.266      361352.838        -923.418          49.000  
  22499392.882     1390079.126       -3085.911          48.000  
  25826619.529      333432.6652       -826.209          32.000  
  21715023.917     1308690.491       -2970.615          51.000  
  40032891.655      207045.9142       -446.133          38.000  
  25194750.634     1592004.054       -3486.004          49.000  
  20495236.561     -133971.178         216.951          44.000  
  22264362.931    -1016127.067        2186.543          32.000  
 18 10  1 20 36  3.0010000  0  8G28G30G21G 5S27G 7G13G15
  21575459.955      362276.192        -923.587          49.000  
  22499979.828     1393165.175       -3086.204          48.000  
  25826777.270      334259.6732       -828.148          32.000  
  21715589.199     1311661.097       -2970.915          51.000  
  40032976.925      207492.1182       -445.597          38.000  
  25195414.161     1595489.846       -3485.994          48.000  
  20495195.631     -134188.370         216.815          44.000  
  22263947.189    -1018312.936        2185.953          32.000  
 18 10  1 20 36  4.0010000  0  8G28G30G21G 5S27G 7G13G15
  21575635.940      363200.637        -924.918          49.000  
  22500566.871     1396251.920       -3086.731          48.000  
  25826935.255      335087.6082       -828.187          32.000  
  21716154.682     1314632.637       -2971.776          51.000  
  40033062.100      207938.9192       -446.600          38.000  
  25196077.113     1598976.126       -3486.523          48.000  
  20495154.859     -134404.703         216.369          45.000  
  22263531.681    -1020498.190        2184.030          33.000  
 18 10  1 20 36  5.0010000  0  8G28G30G21G 5S27G 7G13G15
  21575812.257      364126.031        -925.028          49.000  
  22501154.027     1399339.166       -3086.769          47.000  
  25827093.695      335916.3132       -826.296          32.000  
  21716720.610     1317604.980       -2972.067          51.000  
  40033147.457      208386.2252       -447.293          38.000  
  25196741.320     1602462.749       -3486.160          49.000  
  20495113.799     -134620.329         215.274          45.000  
  22263116.244    -1022682.810        2184.401          33.000  
 18 10  1 20 36  6.0010000  0  8G28G30G21G 5S27G 7G13G15
  21575988.339      365051.179        -924.660          49.000  
  22501741.236     1402425.759       -3085.754          47.000  
  25827251.157      336744.5612       -828.351          33.000  
  21717285.954     1320576.951       -2971.320          51.000  
  40033232.309      208832.7112       -444.305          38.000  
  25197404.708     1605948.517       -3484.911          49.000  
  20495073.070     -134836.409         216.711          45.000  
  22262701.173    -1024868.044        2185.678          33.000  
 18 10  1 20 36  7.0010000  0  8G28G30G21G 5S27G 7G13G15
  21576164.350      365976.182        -925.640          49.000  
  22502328.951     1405511.803       -3086.450          47.000  
  25827408.549      337572.085        -827.757          32.000  
  21717851.812     1323548.634       -2972.041          51.000  
  40033317.004      209278.3982       -446.786          38.000  
  25198067.772     1609433.546       -3485.079          49.000  
  20495032.507     -135052.857         216.157          45.000  
  22262285.317    -1027053.740        2185.673          33.000  
 18 10  1 20 36  8.0010000  0  8G28G30G21G 5S27G 7G13G15
  21576340.833      366902.520        -927.004          49.000  
  22502916.220     1408598.725       -3087.643          47.000  
  25827566.910      338401.206        -830.322          32.000  
  21718417.339     1326521.497       -2973.580          51.000  
  40033401.751      209724.7252       -446.418          38.000  
  25198731.570     1612919.262       -3486.254          49.000  
  20494991.664     -135268.240         214.853          45.000  
  22261869.217    -1029238.555        2184.348          32.000  
 18 10  1 20 36  9.0010000  0  8G28G30G21G 5S27G 7G13G15
  21576517.098      367830.141        -927.711          49.000  
  22503503.123     1411686.548       -3087.840          47.000  
  25827725.061      339231.511        -831.110          32.000  
  21718983.380     1329495.522       -2974.042          51.000  
  40033486.724      210171.7472       -447.436          38.000  
  25199395.237     1616405.683       -3486.349          49.000  
  20494951.067     -135482.523         214.694          45.000  
  22261453.805    -1031422.358        2184.400          32.000  
 18 10  1 20 36 10.0010000  0  8G28G30G21G 5S27G 7G13G15
  21576693.519      368757.696        -927.831          49.000  
  22504090.550     1414773.853       -3087.390          46.000  
  25827882.671      340062.0753       -830.253          31.000  
  21719549.596     1332469.329       -2973.842          51.000  
  40033571.960      210618.1002       -444.453          38.000  
  25200058.624     1619891.425       -3485.331          49.000  
  20494910.416     -135697.121         214.480          45.000  
  22261037.984    -1033606.687        2183.448          32.000  
 18 10  1 20 36 11.0010000  0  8G28G30G21G 5S27G 7G13G15
  21576869.740      369685.394        -927.826          49.000  
  22504677.427     1417860.892       -3087.118          46.000  
  25828040.561      340892.1262       -825.613          31.000  
  21720115.716     1335443.144       -2973.994          51.000  
  40033656.594      211063.9782       -446.529          38.000  
  25200721.942     1623376.708       -3485.055          49.000  
  20494869.286     -135911.791         214.302          45.000  
  22260621.753    -1035791.177        2185.600          32.000  
 18 10  1 20 36 12.0010000  0  8G28G30G21G 5S27G 7G13G15
  21577046.563      370614.306        -929.564          49.000  
  22505264.609     1420948.717       -3088.866          46.000  
  25828198.294      341723.2213       -831.412          30.000  
  21720681.853     1338418.035       -2975.721          51.000  
  40033741.166      211510.3852       -447.670          38.000  
  25201385.495     1626862.594       -3486.181          49.000  
  20494829.107     -136125.476         212.718          45.000  
  22260206.490    -1037974.814        2184.730          32.000  
 18 10  1 20 36 13.0010000  0  8G28G30G21G 5S27G 7G13G15
  21577223.482      371544.574        -930.212          49.000  
  22505852.280     1424037.494       -3088.774          46.000  
  25828355.939      342555.4353       -830.927          29.000  
  21721247.991     1341394.139       -2976.328          51.000  
  40033826.620      211957.5812       -447.042          38.000  
  25202049.354     1630349.224       -3486.329          49.000  
  20494788.937     -136338.025         212.806          46.000  
  22259791.515    -1040157.465        2182.156          32.000  
 18 10  1 20 36 14.0010000  0  8G28G30G21G 5S27G 7G13G15
  21577400.332      372474.933        -930.416          49.000  
  22506439.611     1427125.922       -3088.434          46.000  
  25828513.628      343387.6773       -833.816          28.000  
  21721814.460     1344370.186       -2976.240          51.000  
  40033911.018      212404.1632       -446.123          38.000  
  25202713.762     1633835.351       -3485.944          49.000  
  20494748.461     -136550.702         212.608          46.000  
  22259376.523    -1042340.406        2183.556          33.000  
 18 10  1 20 36 15.0010000  0  8G28G30G21G 5S27G 7G13G15
  21577577.373      373405.344        -930.505          49.000  
  22507027.073     1430213.981       -3088.151          46.000  
  25828670.968      344219.7383       -830.933          28.000  
  21722380.737     1347346.148       -2976.185          51.000  
  40033996.061      212850.1792       -446.117          38.000  
  25203376.774     1637320.892       -3485.539          49.000  
  20494707.802     -136763.568         212.727          46.000  
  22258961.539    -1044523.633        2182.535          32.000  
 18 10  1 20 36 16.0010000  0  7G28G30G 5S27G 7G13G15
  21577754.431      374336.731        -931.894          49.000  
  22507614.901     1433302.550       -3088.779          46.000  
  21722947.118     1350322.956       -2977.225          51.000  
  40034080.765      213296.6202       -446.945          38.000  
  25204040.389     1640806.836       -3486.237          49.000  
  20494667.343     -136975.676         211.543          46.000  
  22258546.590    -1046706.264        2179.711          32.000  
 18 10  1 20 36 17.0010000  0  7G28G30G 5S27G 7G13G15
  21577931.717      375269.335        -933.323          48.000  
  22508202.415     1436391.961       -3089.608          46.000  
  21723513.744     1353300.824       -2978.260          51.000  
  40034166.288      213743.5992       -447.413          38.000  
  25204703.820     1644293.360       -3487.019          50.000  
  20494627.330     -137186.806         210.715          46.000  
  22258131.712    -1048888.028        2184.661          32.000  
 18 10  1 20 36 18.0010000  0  7G28G30G 5S27G 7G13G15
  21578109.247      376202.317        -932.788          48.000  
  22508790.007     1439481.338       -3088.940          45.000  
  21724080.362     1356278.937       -2977.862          51.000  
  40034251.550      214190.4502       -447.695          38.000  
  25205367.600     1647779.682       -3485.588          50.000  
  20494587.212     -137397.769         211.299          46.000  
  22257716.920    -1051069.817        2182.305          32.000  
 18 10  1 20 36 19.0010000  0  7G28G30G 5S27G 7G13G15
  21578286.794      377135.184        -933.173          48.000  
  22509377.059     1442570.165       -3088.847          45.000  
  21724647.119     1359256.796       -2977.956          51.000  
  40034336.358      214636.6952       -446.135          38.000  
  25206031.092     1651265.263       -3485.257          50.000  
  20494547.024     -137609.087         211.457          46.000  
  22257301.954    -1053252.061        2181.697          33.000  
 18 10  1 20 36 20.0010000  0  7G28G30G 5S27G 7G13G15
  21578464.664      378068.869        -934.218          48.000  
  22509964.319     1445659.385       -3089.586          45.000  
  21725214.207     1362235.321       -2978.956          51.000  
  40034421.463      215083.1552       -446.630          38.000  
  25206694.785     1654751.052       -3485.960          50.000  
  20494506.915     -137819.815         210.400          46.000  
  22256887.084    -1055433.8663       2180.556          33.000  
 18 10  1 20 36 21.0010000  0  7G28G30G 5S27G 7G13G15
  21578642.953      379003.995        -935.863          48.000  
  22510551.685     1448749.652       -3090.441          44.000  
  21725781.069     1365215.147       -2980.536          51.000  
  40034506.838      215530.3992       -446.189          38.000  
  25207357.876     1658237.679       -3487.287          50.000  
  20494467.285     -138029.329         208.714          46.000  
  22256472.536    -1057614.6072       2180.022          33.000  
 18 10  1 20 36 22.0010000  0  7G28G30G 5S27G 7G13G15
  21578820.657      379939.604        -935.668          48.000  
  22511138.518     1451839.935       -3090.232          44.000  
  21726348.707     1368195.310       -2980.311          51.000  
  40034591.629      215977.3932       -446.613          38.000  
  25208021.281     1661724.173       -3486.450          50.000  
  20494427.228     -138238.607         208.932          46.000  
  22256058.346    -1059795.1692       2183.022          33.000  
 18 10  1 20 36 23.0010000  0  7G28G30G 5S27G 7G13G15
  21578998.492      380875.194        -935.698          48.000  
  22511725.867     1454929.809       -3089.910          43.000  
  21726915.586     1371175.330       -2980.115          51.000  
  40034676.585      216423.7602       -447.018          38.000  
  25208684.703     1665210.042       -3485.790          50.000  
  20494387.233     -138448.118         209.322          46.000  
  22255643.651    -1061976.1802       2181.663          33.000  
 18 10  1 20 36 24.0010000  0  8G28G30G21G 5S27G 7G13G15
  21579176.301      381811.555        -937.228          48.000  
  22512313.058     1458020.030       -3090.325          43.000  
  25830096.083      351736.1183       -837.349          28.000  
  21727482.954     1374155.966       -2981.399          51.000  
  40034761.524      216870.2822       -446.689          38.000  
  25209348.274     1668696.073       -3486.582          50.000  
  20494347.420     -138657.077         207.818          46.000  
  22255228.885    -1064156.7462       2178.785          34.000  
 18 10  1 20 36 25.0010000  0  8G28G30G21G 5S27G 7G13G15
  21579354.756      382748.889        -937.723          48.000  
  22512900.074     1461110.793       -3091.342          43.000  
  25830258.772      352573.5413       -839.071          28.000  
  21728050.068     1377137.454       -2981.903          51.000  
  40034846.698      217317.1782       -446.394          38.000  
  25210011.923     1672182.476       -3486.482          50.000  
  20494307.598     -138865.300         207.468          46.000  
  22254814.896    -1066336.7312       2179.058          34.000  
 18 10  1 20 36 26.0010000  0  8G28G30G21G 5S27G 7G13G15
  21579533.193      383687.106        -938.272          48.000  
  22513486.977     1464202.020       -3091.349          42.000  
  25830418.773      353411.6963       -838.145          29.000  
  21728617.401     1380119.656       -2982.441          51.000  
  40034931.917      217764.3862       -448.600          38.000  
  25210676.131     1675669.140       -3486.469          50.000  
  20494267.995     -139072.865         207.364          46.000  
  22254400.637    -1068516.1782       2179.949          35.000  
 18 10  1 20 36 27.0010000  0  8G28G30G21G 5S27G 7G13G15
  21579711.569      384625.347        -938.246          48.000  
  22514074.387     1467292.838       -3090.745          42.000  
  25830580.187      354249.7303       -837.756          29.000  
  21729184.708     1383101.756       -2981.991          51.000  
  40035016.969      218211.1032       -446.566          38.000  
  25211339.335     1679155.229       -3485.854          50.000  
  20494228.697     -139280.632         207.750          46.000  
  22253986.177    -1070695.9602       2179.952          35.000  
 18 10  1 20 36 28.0010000  0  8G28G30G21G 5S27G 7G13G15
  21579890.338      385563.987        -939.138          48.000  
  22514661.587     1470383.655       -3091.422          41.000  
  25830747.273      355087.9553       -844.261          29.000  
  21729752.049     1386084.115       -2982.916          51.000  
  40035101.498      218657.6042       -446.231          38.000  
  25212003.289     1682641.104       -3486.233          50.000  
  20494189.330     -139488.232         206.859          46.000  
  22253572.153    -1072875.6832       2179.878          35.000  
 18 10  1 20 36 29.0010000  0  8G28G30G21G 5S27G 7G13G15
  21580068.732      386503.844        -940.012          48.000  
  22515249.511     1473475.266       -3091.119          41.000  
  25830905.145      355926.3763       -839.507          29.000  
  21730319.835     1389067.557       -2983.771          51.000  
  40035186.725      219104.7052       -448.369          38.000  
  25212666.659     1686127.594       -3486.931          50.000  
  20494149.944     -139694.819         206.270          46.000  
  22253157.981    -1075054.5832       2178.532          36.000  
 18 10  1 20 36 30.0010000  0  8G28G30G21G 5S27G 7G13G15
  21580247.570      387444.631        -940.707          48.000  
  22515837.129     1476567.359       -3091.553          41.000  
  25831068.226      356766.4923       -839.466          29.000  
  21730887.517     1392051.795       -2984.025          51.000  
  40035271.367      219552.2182       -447.022          38.000  
  25213330.082     1689614.417       -3486.146          50.000  
  20494111.284     -139900.710         206.040          46.000  
  22252744.044    -1077232.9152       2178.991          36.000  
 18 10  1 20 36 31.0010000  0  8G28G30G21G 5S27G 7G13G15
  21580426.514      388385.656        -940.736          48.000  
  22516425.071     1479659.305       -3091.836          41.000  
  25831221.980      357606.6403       -837.888          28.000  
  21731455.155     1395036.106       -2984.333          51.000  
  40035356.297      219999.3032       -447.219          38.000  
  25213993.173     1693100.854       -3486.078          50.000  
  20494072.099     -140106.596         205.930          46.000  
  22252329.863    -1079411.387        2179.520          36.000  
 18 10  1 20 36 32.0010000  0  8G28G30G21G 5S27G 7G13G15
  21580605.849      389326.876        -941.873          48.000  
  22517012.515     1482751.023       -3092.108          40.000  
  25831376.598      358445.8553       -840.597          28.000  
  21732023.099     1398020.496       -2985.228          51.000  
  40035441.585      220445.9482       -447.259          38.000  
  25214656.621     1696586.882       -3486.115          50.000  
  20494032.662     -140312.496         205.311          46.000  
  22251916.363    -1081590.006        2177.319          36.000  
 18 10  1 20 36 33.0010000  0  7G28G30G 5S27G 7G13G15
  21580785.037      390269.242        -942.727          48.000  
  22517600.683     1485843.431       -3092.368          40.000  
  21732590.946     1401005.883       -2985.874          51.000  
  40035527.056      220893.0662       -447.448          38.000  
  25215319.913     1700073.447       -3486.800          50.000  
  20493993.207     -140517.490         204.031          46.000  
  22251502.313    -1083767.829        2178.277          36.000  
 18 10  1 20 36 34.0010000  0  7G28G30G 5S27G 7G13G15
  21580964.652      391212.541        -943.208          48.000  
  22518189.139     1488936.368       -3092.626          40.000  
  21733158.899     1403992.035       -2985.917          51.000  
  40035611.777      221340.4962       -446.107          38.000  
  25215983.789     1703560.321       -3486.239          50.000  
  20493954.301     -140721.784         204.274          46.000  
  22251089.065    -1085945.111        2177.279          36.000  
 18 10  1 20 36 35.0010000  0  7G28G30G 5S27G 7G13G15
  21581144.328      392155.832        -942.974          48.000  
  22518777.247     1492028.871       -3092.781          40.000  
  21733727.121     1406978.063       -2985.885          51.000  
  40035696.952      221787.2852       -447.165          38.000  
  25216647.089     1707046.599       -3485.847          50.000  
  20493915.614     -140926.294         204.584          46.000  
  22250675.155    -1088122.761        2177.383          37.000  
 18 10  1 20 36 36.0010000  0  7G28G30G 5S27G 7G13G15
  21581323.952      393099.184        -943.415          48.000  
  22519365.258     1495120.993       -3091.771          40.000  
  21734295.519     1409963.995       -2985.938          51.000  
  40035781.890      222233.4972       -446.805          38.000  
  25217309.621     1710532.320       -3485.593          50.000  
  20493876.639     -141130.970         204.798          46.000  
  22250261.323    -1090300.684        2178.707          37.000  
 18 10  1 20 36 37.0010000  0  7G28G30G 5S27G 7G13G15
  21581503.724      394043.708        -945.215          48.000  
  22519953.278     1498213.896       -3092.751          40.000  
  21734863.898     1412950.973       -2987.227          51.000  
  40035867.082      222680.3432       -446.651          38.000  
  25217973.253     1714018.610       -3486.229          50.000  
  20493837.760     -141334.694         203.611          46.000  
  22249847.343    -1092477.831        2177.260          37.000  
 18 10  1 20 36 38.0010000  0  7G28G30G 5S27G 7G13G15
  21581683.357      394989.125        -945.557          48.000  
  22520541.943     1501307.270       -3092.788          40.000  
  21735432.217     1415938.679       -2987.594          51.000  
  40035952.082      223127.5062       -448.564          38.000  
  25218636.815     1717505.169       -3486.270          50.000  
  20493799.038     -141537.766         203.168          46.000  
  22249432.996    -1094654.452        2177.340          37.000  
 18 10  1 20 36 39.0010000  0  7G28G30G 5S27G 7G13G15
  21581862.902      395934.691        -945.458          48.000  
  22521131.028     1504400.357       -3092.758          41.000  
  21736000.815     1418926.405       -2987.489          51.000  
  40036036.960      223574.1902       -447.345          38.000  
  25219300.351     1720991.270       -3485.814          50.000  
  20493760.072     -141740.897         203.388          46.000  
  22249018.806    -1096831.245        2176.331          37.000  
 18 10  1 20 36 40.0010000  0  7G28G30G 5S27G 7G13G15
  21582042.709      396880.489        -946.126          48.000  
  22521719.807     1507493.246       -3093.091          41.000  
  21736569.509     1421914.215       -2988.130          51.000  
  40036122.187      224020.4522       -446.142          38.000  
  25219963.869     1724476.990       -3485.716          50.000  
  20493720.826     -141944.032         202.927          46.000  
  22248604.879    -1099008.197        2175.628          37.000  
 18 10  1 20 36 41.0010000  0  7G28G30G 5S27G 7G13G15
  21582222.603      397827.274        -947.404          48.000  
  22522308.752     1510586.729       -3093.865          41.000  
  21737138.089     1424902.876       -2989.245          51.000  
  40036207.152      224467.0002       -447.160          38.000  
  25220626.507     1727963.099       -3486.461          50.000  
  20493682.034     -142146.398         201.902          46.000  
  22248190.820    -1101184.479        2175.344          37.000  
 18 10  1 20 36 42.0010000  0  7G28G30G 5S27G 7G13G15
  21582402.960      398775.036        -948.118          48.000  
  22522897.688     1513680.720       -3095.114          41.000  
  21737707.193     1427892.356       -2990.114          51.000  
  40036291.716      224913.9582       -446.721          38.000  
  25221289.789     1731449.561       -3486.718          50.000  
  20493643.687     -142348.025         200.911          46.000  
  22247777.712    -1103360.226        2174.802          38.000  
 18 10  1 20 36 43.0010000  0  7G28G30G 5S27G 7G13G15
  21582583.456      399723.105        -948.488          48.000  
  22523487.418     1516774.644       -3093.328          41.000  
  21738276.027     1430882.022       -2989.808          51.000  
  40036376.943      225360.6012       -447.103          38.000  
  25221953.753     1734935.739       -3485.658          50.000  
  20493605.559     -142549.546         201.783          46.000  
  22247363.819    -1105535.948        2176.340          38.000  
 18 10  1 20 36 44.0010000  0  7G28G30G 5S27G 7G13G15
  21582763.499      400671.183        -948.036          48.000  
  22524077.035     1519868.134       -3093.497          42.000  
  21738845.131     1433871.535       -2989.651          51.000  
  40036461.690      225806.8132       -445.445          38.000  
  25222617.149     1738421.295       -3485.686          50.000  
  20493566.680     -142751.298         201.748          46.000  
  22246949.769    -1107712.088        2175.445          38.000  
 18 10  1 20 36 45.0010000  0  7G28G30G 5S27G 7G13G15
  21582944.257      401619.923        -949.885          48.000  
  22524666.442     1522961.884       -3094.498          42.000  
  21739413.912     1436861.580       -2990.861          51.000  
  40036546.306      226253.1302       -446.967          38.000  
  25223280.196     1741906.922       -3486.326          50.000  
  20493528.298     -142952.600         200.396          46.000  
  22246535.466    -1109887.890        2175.796          38.000  
 18 10  1 20 36 46.0010000  0  7G28G30G 5S27G 7G13G15
  21583125.015      402569.993        -950.525          48.000  
  22525255.779     1526056.507       -3095.118          42.000  
  21739983.225     1439852.804       -2991.928          51.000  
  40036631.306      226700.0932       -447.934          38.000  
  25223943.775     1745393.269       -3486.552          50.000  
  20493490.117     -143152.812         199.777          46.000  
  22246121.573    -1112062.752        2172.977          37.000  
 18 10  1 20 36 47.0010000  0  7G28G30G 5S27G 7G13G15
  21583305.904      403520.689        -950.844          48.000  
  22525846.243     1529151.356       -3094.739          42.000  
  21740552.765     1442844.520       -2991.774          51.000  
  40036716.725      227147.1372       -446.888          38.000  
  25224607.346     1748879.627       -3486.099          50.000  
  20493451.787     -143352.600         199.762          46.000  
  22245707.837    -1114237.302        2175.030          38.000  
 18 10  1 20 36 48.0010000  0  7G28G30G 5S27G 7G13G15
  21583486.933      404471.213        -950.296          48.000  
  22526435.327     1532245.602       -3094.084          42.000  
  21741121.922     1445835.909       -2990.998          51.000  
  40036802.152      227593.3342       -445.419          38.000  
  25225270.821     1752365.219       -3484.972          50.000  
  20493413.545     -143552.807         200.358          46.000  
  22245294.572    -1116412.435        2175.497          38.000  
 18 10  1 20 36 49.0010000  0  7G28G30G 5S27G 7G13G15
  21583667.525      405422.256        -951.693          48.000  
  22527024.830     1535339.957       -3095.214          43.000  
  21741691.532     1448827.670       -2992.638          51.000  
  40036887.056      228039.4652       -446.438          38.000  
  25225933.851     1755850.704       -3485.727          50.000  
  20493375.635     -143752.718         199.118          46.000  
  22244881.316    -1118587.386        2174.344          39.000  
 18 10  1 20 36 50.0010000  0  7G28G30G 5S27G 7G13G15
  21583848.850      406374.711        -952.914          48.000  
  22527614.482     1538435.293       -3095.576          43.000  
  21742261.081     1451820.710       -2993.552          51.000  
  40036972.030      228486.3322       -445.604          38.000  
  25226596.941     1759337.000       -3486.459          50.000  
  20493337.742     -143951.437         198.466          45.000  
  22244467.572    -1120761.267        2173.494          38.000  
 18 10  1 20 36 51.0010000  0  7G28G30G 5S27G 7G13G15
  21584030.594      407328.105        -952.957          48.000  
  22528205.084     1541531.155       -3095.151          44.000  
  21742831.101     1454814.539       -2993.555          52.000  
  40037057.170      228933.5982       -446.096          38.000  
  25227260.242     1762823.619       -3486.149          50.000  
  20493299.805     -144149.451         198.318          45.000  
  22244054.115    -1122934.615        2173.416          38.000  
 18 10  1 20 36 52.0010000  0  7G28G30G 5S27G 7G13G15
  21584212.050      408281.395        -953.236          48.000  
  22528795.233     1544626.481       -3094.815          44.000  
  21743400.501     1457808.120       -2993.242          52.000  
  40037142.187      229380.1412       -446.067          38.000  
  25227923.498     1766309.541       -3485.374          49.000  
  20493262.234     -144347.789         198.870          45.000  
  22243640.361    -1125108.372        2174.735          38.000  
 18 10  1 20 36 53.0010000  0  7G28G30G 5S27G 7G13G15
  21584393.890      409234.760        -954.089          48.000  
  22529385.059     1547721.459       -3095.735          44.000  
  21743970.059     1460801.633       -2994.461          52.000  
  40037226.969      229826.1142       -445.585          38.000  
  25228586.519     1769794.913       -3486.048          49.000  
  20493224.490     -144546.270         197.856          46.000  
  22243226.442    -1127282.452        2173.546          38.000  
 18 10  1 20 36 54.0010000  0  7G28G30G 5S27G 7G13G15
  21584575.713      410189.341        -955.274          48.000  
  22529974.990     1550817.221       -3096.284          45.000  
  21744539.739     1463796.232       -2995.129          52.000  
  40037311.262      230272.6052       -446.294          38.000  
  25229249.436     1773280.899       -3486.208          49.000  
  20493187.338     -144743.763         197.233          45.000  
  22242812.794    -1129455.669        2172.829          38.000  
 18 10  1 20 36 55.0010000  0  7G28G30G 5S27G 7G13G15
  21584757.727      411144.833        -955.598          48.000  
  22530564.834     1553913.503       -3096.042          45.000  
  21745109.986     1466791.591       -2995.236          52.000  
  40037396.367      230719.4202       -446.517          38.000  
  25229912.631     1776767.189       -3485.987          49.000  
  20493149.646     -144940.584         196.893          45.000  
  22242399.293    -1131628.342        2172.583          38.000  
 18 10  1 20 36 56.0010000  0  7G28G30G 5S27G 7G13G15
  21584940.143      412100.456        -956.011          48.000  
  22531154.817     1557009.473       -3096.422          45.000  
  21745680.023     1469786.940       -2995.411          52.000  
  40037480.887      231165.8232       -446.199          38.000  
  25230575.530     1780253.002       -3485.723          49.000  
  20493112.171     -145137.481         196.715          45.000  
  22241985.618    -1133801.220        2173.706          38.000  
 18 10  1 20 36 57.0010000  0  7G28G30G 5S27G 7G13G15
  21585122.158      413056.300        -956.081          48.000  
  22531744.721     1560105.245       -3096.044          46.000  
  21746249.782     1472782.352       -2995.886          52.000  
  40037565.564      231611.9062       -446.969          38.000  
  25231238.856     1783738.423       -3485.497          49.000  
  20493074.662     -145334.382         196.450          45.000  
  22241571.437    -1135974.271        2172.687          38.000  
 18 10  1 20 36 58.0010000  0  7G28G30G 5S27G 7G13G15
  21585304.617      414013.226        -957.615          49.000  
  22532334.146     1563201.674       -3096.900          46.000  
  21746819.959     1475778.716       -2996.897          52.000  
  40037650.992      232058.4542       -447.010          38.000  
  25231902.035     1787224.322       -3486.200          49.000  
  20493037.624     -145530.433         195.501          46.000  
  22241157.859    -1138146.583        2171.814          38.000  
 18 10  1 20 36 59.0010000  0  7G28G30G 5S27G 7G13G15
  21585487.042      414971.279        -958.667          48.000  
  22532923.667     1566298.822       -3097.727          46.000  
  21747390.432     1478776.062       -2997.637          52.000  
  40037735.852      232505.4292       -447.089          38.000  
  25232564.951     1790710.729       -3486.846          49.000  
  20493000.848     -145725.561         194.818          46.000  
  22240744.733    -1140318.134        2170.664          38.000  
 18 10  1 20 37  0.0010000  0  7G28G30G 5S27G 7G13G15
  21585669.440      415929.493        -958.346          49.000  
  22533513.240     1569395.702       -3096.929          46.000  
  21747960.583     1481773.419       -2997.564          52.000  
  40037820.756      232952.0892       -447.054          38.000  
  25233228.478     1794196.691       -3485.974          49.000  
  20492963.836     -145920.791         194.710          46.000  
  22240330.832    -1142489.853        2172.434          38.000  
 18 10  1 20 37  1.0010000  0  7G28G30G 5S27G 7G13G15
  21585851.978      416887.786        -958.269          49.000  
  22534102.865     1572492.223       -3096.388          46.000  
  21748530.883     1484770.700       -2997.687          52.000  
  40037905.503      233398.1762       -445.797          38.000  
  25233891.612     1797682.126       -3485.296          49.000  
  20492926.388     -146116.164         194.889          46.000  
  22239917.157    -1144661.874        2171.591          37.000  
 18 10  1 20 37  2.0010000  0  7G28G30G 5S27G 7G13G15
  21586034.403      417847.042        -960.005          49.000  
  22534692.779     1575589.284       -3097.503          46.000  
  21749101.426     1487768.809       -2998.753          52.000  
  40037990.451      233844.6152       -447.218          38.000  
  25234554.921     1801167.911       -3486.393          49.000  
  20492889.533     -146310.781         193.930          46.000  
  22239504.128    -1146833.329        2170.970          38.000  
 18 10  1 20 37  3.0010000  0  7G28G30G 5S27G 7G13G15
  21586217.255      418807.520        -961.024          49.000  
  22535282.779     1578687.145       -3098.252          47.000  
  21749672.581     1490767.986       -2999.707          52.000  
  40038075.626      234291.7642       -447.735          38.000  
  25235217.715     1804654.309       -3486.518          49.000  
  20492853.158     -146504.415         192.925          46.000  
  22239090.523    -1149003.898        2170.456          37.000  
 18 10  1 20 37  4.0010000  0  7G28G30G 5S27G 7G13G15
  21586399.697      419768.336        -961.322          48.000  
  22535872.361     1581784.931       -3097.837          47.000  
  21750243.116     1493767.360       -2999.459          52.000  
  40038160.870      234738.6362       -446.743          38.000  
  25235880.850     1808140.437       -3485.897          49.000  
  20492816.242     -146697.928         193.301          46.000  
  22238677.240    -1151174.490        2170.086          37.000  
 18 10  1 20 37  5.0010000  0  7G28G30G 5S27G 7G13G15
  21586582.462      420729.288        -960.879          48.000  
  22536462.231     1584882.417       -3097.597          47.000  
  21750813.476     1496766.730       -2999.301          52.000  
  40038245.870      235184.9102       -446.058          38.000  
  25236543.871     1811626.088       -3485.042          48.000  
  20492779.492     -146891.532         193.537          46.000  
  22238264.194    -1153345.299        2170.103          37.000  
 18 10  1 20 37  6.0010000  0  7G28G30G 5S27G 7G13G15
  21586765.724      421690.845        -961.907          48.000  
  22537051.699     1587980.087       -3097.983          47.000  
  21751384.543     1499766.552       -3000.269          52.000  
  40038330.582      235631.1292       -445.922          38.000  
  25237206.918     1815111.727       -3486.210          49.000  
  20492742.811     -147084.744         192.974          46.000  
  22237851.042    -1155515.881        2169.769          37.000  
 18 10  1 20 37  7.0010000  0  7G28G30G 5S27G 7G13G15
  21586949.300      422653.641        -963.370          48.000  
  22537641.333     1591078.588       -3098.588          47.000  
  21751955.593     1502767.469       -3001.014          52.000  
  40038415.774      236077.9632       -446.147          38.000  
  25237869.957     1818598.005       -3486.236          48.000  
  20492706.201     -147276.964         191.846          46.000  
  22237437.551    -1157685.563        2169.343          37.000  
 18 10  1 20 37  8.0010000  0  7G28G30G 5S27G 7G13G15
  21587132.493      423616.977        -963.443          48.000  
  22538231.360     1594177.190       -3098.716          47.000  
  21752526.712     1505768.793       -3001.435          52.000  
  40038500.687      236524.7802       -446.861          38.000  
  25238533.065     1822084.222       -3486.304          48.000  
  20492669.782     -147468.849         191.594          46.000  
  22237023.666    -1159855.106        2169.748          37.000  
 18 10  1 20 37  9.0010000  0  7G28G30G 5S27G 7G13G15
  21587315.894      424580.461        -963.618          48.000  
  22538820.837     1597275.516       -3098.894          47.000  
  21753098.111     1508770.108       -3001.677          52.000  
  40038585.774      236971.2402       -446.468          38.000  
  25239195.859     1825569.970       -3485.758          48.000  
  20492633.494     -147660.821         191.252          46.000  
  22236609.739    -1162024.815        2171.336          36.000  
 18 10  1 20 37 10.0010000  0  7G28G30G 5S27G 7G13G15
  21587499.863      425544.531        -964.718          49.000  
  22539410.210     1600374.024       -3098.392          47.000  
  21753669.300     1511771.880       -3001.993          52.000  
  40038670.975      237417.7352       -446.027          38.000  
  25239859.142     1829055.690       -3485.887          48.000  
  20492597.137     -147852.427         191.289          46.000  
  22236196.578    -1164194.295        2169.565          36.000  
 18 10  1 20 37 11.0010000  0  7G28G30G 5S27G 7G13G15
  21587683.326      426509.669        -965.581          49.000  
  22540000.009     1603473.160       -3099.197          47.000  
  21754240.489     1514774.576       -3002.954          52.000  
  40038756.132      237864.6392       -445.891          38.000  
  25240521.901     1832541.875       -3486.209          48.000  
  20492561.041     -148043.177         190.575          46.000  
  22235783.061    -1166363.114        2168.417          35.000  
 18 10  1 20 37 12.0010000  0  7G28G30G 5S27G 7G13G15
  21587866.964      427475.418        -965.321          49.000  
  22540589.993     1606572.506       -3098.676          47.000  
  21754811.870     1517777.737       -3002.750          52.000  
  40038841.280      238311.5202       -447.142          38.000  
  25241184.756     1836028.069       -3485.406          48.000  
  20492524.797     -148233.544         190.607          46.000  
  22235369.586    -1168531.622        2167.500          35.000  
 18 10  1 20 37 13.0010000  0  7G28G30G 5S27G 7G13G15
  21588051.220      428441.082        -965.799          49.000  
  22541179.653     1609671.325       -3099.221          48.000  
  21755383.461     1520780.676       -3003.167          52.000  
  40038926.001      238757.7582       -446.095          38.000  
  25241848.013     1839513.562       -3485.607          48.000  
  20492488.832     -148424.214         189.953          46.000  
  22234955.990    -1170700.596        2169.345          35.000  
 18 10  1 20 37 14.0010000  0  7G28G30G 5S27G 7G13G15
  21588234.840      429407.368        -966.569          49.000  
  22541769.339     1612770.351       -3099.174          48.000  
  21755955.069     1523784.074       -3003.508          52.000  
  40039010.983      239203.9132       -446.941          38.000  
  25242511.409     1842999.067       -3485.652          48.000  
  20492452.553     -148614.489         189.796          46.000  
  22234542.804    -1172869.299        2168.545          35.000  
 18 10  1 20 37 15.0010000  0  7G28G30G 5S27G 7G13G15
  21588418.687      430374.794        -967.591          49.000  
  22542359.837     1615870.095       -3099.800          48.000  
  21756526.974     1526788.478       -3004.544          52.000  
  40039096.219      239650.5662       -446.324          38.000  
  25243174.631     1846485.109       -3485.947          48.000  
  20492416.204     -148803.864         188.868          46.000  
  22234129.871    -1175037.217        2167.521          35.000  
 18 10  1 20 37 16.0010000  0  7G28G30G 5S27G 7G13G15
  21588602.944      431343.028        -968.145          49.000  
  22542949.943     1618970.227       -3099.680          48.000  
  21757098.512     1529793.550       -3004.733          52.000  
  40039181.079      240097.3282       -446.928          38.000  
  25243837.748     1849971.353       -3486.052          48.000  
  20492380.580     -148992.620         188.998          46.000  
  22233717.313    -1177204.720        2168.562          35.000  
 18 10  1 20 37 17.0010000  0  7G28G30G 5S27G 7G13G15
  21588787.349      432311.232        -968.417          48.000  
  22543539.742     1622069.880       -3099.524          48.000  
  21757670.609     1532798.427       -3004.771          52.000  
  40039265.879      240543.4042       -445.208          38.000  
  25244500.699     1853456.957       -3485.422          48.000  
  20492344.868     -149181.659         188.889          46.000  
  22233304.432    -1179372.570        2168.566          34.000  
 18 10  1 20 37 18.0010000  0  7G28G30G 5S27G 7G13G15
  21588971.370      433279.560        -968.829          48.000  
  22544129.865     1625169.255       -3099.902          48.000  
  21758242.409     1535803.284       -3005.338          52.000  
  40039350.783      240989.0542       -446.406          38.000  
  25245163.415     1856942.074       -3485.315          47.000  
  20492309.034     -149370.789         189.034          46.000  
  22232891.708    -1181540.681        2166.487          34.000  
 18 10  1 20 37 19.0010000  0  7G28G30G 5S27G 7G13G15
  21589156.037      434249.033        -969.737          48.000  
  22544720.337     1628269.363       -3100.443          49.000  
  21758814.532     1538809.151       -3006.481          52.000  
  40039435.591      241435.3542       -446.583          38.000  
  25245826.549     1860427.741       -3485.574          47.000  
  20492273.104     -149558.993         187.702          46.000  
  22232478.792    -1183707.972        2166.987          34.000  
 18 10  1 20 37 20.0010000  0  7G28G30G 5S27G 7G13G15
  21589340.565      435219.568        -970.865          48.000  
  22545310.721     1631370.087       -3100.604          49.000  
  21759386.576     1541815.925       -3006.803          52.000  
  40039520.800      241882.1452       -446.599          38.000  
  25246489.614     1863913.826       -3486.073          48.000  
  20492237.418     -149746.372         187.199          46.000  
  22232066.094    -1185874.629        2166.396          34.000  
 18 10  1 20 37 21.0010000  0  7G28G30G 5S27G 7G13G15
  21589524.900      436190.138        -970.390          48.000  
  22545900.958     1634470.432       -3100.197          49.000  
  21759958.865     1544822.591       -3006.688          52.000  
  40039605.792      242328.4212       -445.750          38.000  
  25247152.347     1867399.364       -3485.022          47.000  
  20492202.169     -149933.926         187.462          47.000  
  22231653.650    -1188041.539        2166.507          33.000  
 18 10  1 20 37 22.0010000  0  7G28G30G 5S27G 7G13G15
  21589709.445      437160.841        -970.939          48.000  
  22546491.211     1637570.483       -3100.330          49.000  
  21760530.839     1547829.246       -3007.089          52.000  
  40039690.905      242774.1562       -444.654          38.000  
  25247815.202     1870884.419       -3485.095          47.000  
  20492166.500     -150121.582         187.053          46.000  
  22231241.703    -1190208.738        2166.324          34.000  
 18 10  1 20 37 23.0010000  0  7G28G30G 5S27G 7G13G15
  21589894.469      438132.726        -972.560          48.000  
  22547081.125     1640671.290       -3101.296          49.000  
  21761103.049     1550836.953       -3008.253          52.000  
  40039775.460      243220.4772       -447.813          38.000  
  25248478.441     1874370.046       -3485.933          47.000  
  20492131.015     -150308.260         186.081          46.000  
  22230829.651    -1192375.038        2166.419          34.000  
 18 10  1 20 37 24.0010000  0  7G28G30G 5S27G 7G13G15
  21590079.555      439105.651        -972.863          48.000  
  22547671.073     1643772.717       -3101.653          49.000  
  21761675.669     1553845.548       -3008.785          52.000  
  40039860.696      243667.2302       -446.584          38.000  
  25249141.663     1877856.114       -3485.981          47.000  
  20492095.687     -150494.124         185.850          47.000  
  22230417.991    -1194540.744        2164.148          34.000  
 18 10  1 20 37 25.0010000  0  7G28G30G 5S27G 7G13G15
  21590264.876      440078.815        -973.007          48.000  
  22548261.606     1646873.970       -3101.378          49.000  
  21762248.115     1556854.231       -3008.675          52.000  
  40039945.792      244113.7072       -445.854          38.000  
  25249804.893     1881341.807       -3485.676          47.000  
  20492059.862     -150679.984         185.700          47.000  
  22230005.948    -1196706.493        2166.478          34.000  
 18 10  1 20 37 26.0010000  0  7G28G30G 5S27G 7G13G15
  21590450.180      441052.112        -973.681          48.000  
  22548851.493     1649974.925       -3100.928          49.000  
  21762820.561     1559862.913       -3008.881          52.000  
  40040030.748      244559.6902       -446.088          38.000  
  25250468.080     1884827.026       -3485.446          47.000  
  20492024.534     -150865.925         185.785          47.000  
  22229593.294    -1198872.490        2165.371          34.000  
 18 10  1 20 37 27.0010000  0  7G28G30G 5S27G 7G13G15
  21590635.667      442026.400        -974.849          48.000  
  22549441.738     1653076.450       -3101.637          49.000  
  21763393.242     1562872.455       -3009.939          52.000  
  40040115.818      245006.1382       -447.256          38.000  
  25251131.468     1888312.620       -3485.941          47.000  
  20491989.590     -151051.096         184.768          47.000  
  22229180.919    -1201037.850        2164.162          33.000  
 18 10  1 20 37 28.0010000  0  7G28G30G 5S27G 7G13G15
  21590821.477      443001.893        -976.397          48.000  
  22550032.305     1656178.750       -3102.874          49.000  
  21763965.984     1565883.057       -3011.157          52.000  
  40040200.914      245453.0792       -448.177          38.000  
  25251794.471     1891798.812       -3486.562          47.000  
  20491954.733     -151235.288         183.292          47.000  
  22228769.268    -1203202.346        2163.786          33.000  
 18 10  1 20 37 29.0010000  0  7G28G30G 5S27G 7G13G15
  21591006.773      443977.902        -975.947          48.000  
  22550622.803     1659281.152       -3101.879          49.000  
  21764538.849     1568894.039       -3010.906          52.000  
  40040285.652      245900.0132       -446.155          38.000  
  25252458.208     1895284.919       -3485.701          47.000  
  20491919.187     -151419.189         183.885          47.000  
  22228357.304    -1205366.674        2163.404          33.000  
 18 10  1 20 37 30.0010000  0  7G28G30G 5S27G 7G13G15
  21591192.504      444953.941        -976.312          48.000  
  22551212.638     1662383.147       -3101.946          49.000  
  21765111.923     1571904.894       -3010.853          52.000  
  40040370.940      246346.2992       -445.906          38.000  
  25253121.709     1898770.448       -3485.127          47.000  
  20491884.339     -151603.276         183.794          46.000  
  22227944.719    -1207531.359        2166.298          33.000  
 18 10  1 20 37 31.0010000  0  7G28G30G 5S27G 7G13G15
  21591378.131      445930.588        -977.673          48.000  
  22551802.804     1665485.346       -3103.072          49.000  
  21765684.787     1574916.212       -3012.174          52.000  
  40040455.582      246792.4732       -446.869          38.000  
  25253784.861     1902255.973       -3486.041          47.000  
  20491849.360     -151786.987         182.833          46.000  
  22227532.484    -1209695.729        2164.894          33.000  
 18 10  1 20 37 32.0010000  0  7G28G30G 5S27G 7G13G15
  21591563.757      446908.405        -979.152          48.000  
  22552393.276     1668588.280       -3103.328          49.000  
  21766257.931     1577928.573       -3012.569          52.000  
  40040540.364      247239.1992       -446.339          38.000  
  25254448.466     1905742.053       -3486.353          47.000  
  20491814.460     -151969.736         182.290          46.000  
  22227120.310    -1211859.406        2162.956          33.000  
 18 10  1 20 37 33.0010000  0  7G28G30G 5S27G 7G13G15
  21591750.143      447886.875        -978.810          48.000  
  22552983.879     1671691.448       -3102.929          49.000  
  21766831.388     1580941.418       -3012.667          52.000  
  40040625.242      247685.9912       -446.514          38.000  
  25255112.081     1909228.187       -3485.719          47.000  
  20491779.708     -152152.063         182.525          47.000  
  22226708.310    -1214022.697        2163.722          32.000  
 18 10  1 20 37 34.0010000  0  7G28G30G 5S27G 7G13G15
  21591936.258      448865.595        -978.366          48.000  
  22553574.185     1674794.444       -3102.596          49.000  
  21767404.646     1583954.364       -3012.750          52.000  
  40040709.972      248132.4962       -446.107          38.000  
  25255775.608     1912713.966       -3485.092          47.000  
  20491745.208     -152334.357         182.744          47.000  
  22226296.128    -1216186.156        2162.519          32.000  
 18 10  1 20 37 35.0010000  0  7G28G30G 5S27G 7G13G15
  21592122.417      449844.889        -979.975          48.000  
  22554164.936     1677897.590       -3103.756          49.000  
  21767978.348     1586967.746       -3013.911          52.000  
  40040794.736      248578.9342       -447.543          38.000  
  25256439.370     1916199.712       -3486.270          47.000  
  20491710.631     -152516.299         181.274          47.000  
  22225884.364    -1218349.368        2163.713          32.000  
 18 10  1 20 37 36.0010000  0  7G28G30G 5S27G 7G13G15
  21592308.916      450825.185        -980.837          48.000  
  22554755.547     1681001.317       -3103.716          48.000  
  21768551.779     1589981.990       -3014.569          52.000  
  40040879.841      249025.6782       -447.001          38.000  
  25257103.307     1919685.854       -3486.035          47.000  
  20491676.175     -152697.461         180.706          47.000  
  22225472.346    -1220511.918        2162.470          31.000  
 18 10  1 20 37 37.0010000  0  7G28G30G 5S27G 7G13G15
  21592495.276      451806.036        -980.926          48.000  
  22555345.600     1684105.169       -3103.720          48.000  
  21769125.481     1592996.634       -3014.331          52.000  
  40040964.614      249472.4282       -447.184          38.000  
  25257767.297     1923171.948       -3485.883          47.000  
  20491641.511     -152878.298         180.993          47.000  
  22225060.469    -1222674.2483       2160.587          31.000  
 18 10  1 20 37 38.0010000  0  7G28G30G 5S27G 7G13G15
  21592682.499      452786.988        -980.727          48.000  
  22555936.517     1687208.694       -3103.072          48.000  
  21769699.009     1596011.220       -3014.311          52.000  
  40041049.675      249918.7642       -445.780          38.000  
  25258430.815     1926657.509       -3485.099          47.000  
  20491607.500     -153059.258         181.488          47.000  
  22224648.277    -1224836.8343       2163.701          31.000  
 18 10  1 20 37 39.0010000  0  7G28G30G 5S27G 7G13G15
  21592869.732      453768.375        -981.812          48.000  
  22556527.407     1690312.224       -3103.732          48.000  
  21770272.728     1599026.099       -3015.272          52.000  
  40041134.527      250364.9262       -446.878          38.000  
  25259094.246     1930142.903       -3485.463          48.000  
  20491572.949     -153240.009         180.405          47.000  
  22224236.103    -1226999.4192       2161.091          30.000  
 18 10  1 20 37 40.0010000  0  7G28G30G 5S27G 7G13G15
  21593055.978      454750.808        -982.985          48.000  
  22557118.263     1693416.393       -3104.415          48.000  
  21770846.544     1602041.889       -3016.110          52.000  
  40041219.221      250811.5362       -447.084          38.000  
  25259757.765     1933628.738       -3486.271          48.000  
  20491538.685     -153419.925         179.692          47.000  
  22223824.339    -1229161.2453       2161.318          30.000  
 18 10  1 20 37 41.0010000  0  8G28G30G 8G 5S27G 7G13G15
  21593242.739      455733.966        -983.426          48.000  
  22557708.778     1696520.858       -3104.458          48.000  
  25936772.868       18013.5123      -1515.618          29.000  
  21771420.455     1605058.258       -3016.316          52.000  
  40041304.422      251258.2582       -446.848          38.000  
  25260421.702     1937114.693       -3485.841          47.000  
  20491504.570     -153599.337         179.570          47.000  
  22223412.252    -1231322.7152       2160.618          30.000  
 18 10  1 20 37 42.0010000  0  7G28G30G 5S27G 7G13G15
  21593429.718      456717.212        -983.496          47.000  
  22558299.372     1699624.984       -3103.703          48.000  
  21771994.524     1608074.566       -3015.732          52.000  
  40041389.082      251704.4002       -446.777          38.000  
  25261085.081     1940600.135       -3484.944          47.000  
  20491470.533     -153778.876         180.107          47.000  
  22223000.506    -1233484.5463       2157.901          30.000  
 18 10  1 20 37 43.0010000  0  7G28G30G 5S27G 7G13G15
  21593616.444      457700.641        -984.256          47.000  
  22558890.402     1702728.862       -3104.984          48.000  
  21772569.151     1611090.898       -3017.031          52.000  
  40041474.221      252150.1002       -447.157          38.000  
  25261748.625     1944085.130       -3485.476          48.000  
  20491436.375     -153958.473         178.408          47.000  
  22222588.681    -1235646.3973       2160.743          29.000  
 18 10  1 20 37 44.0010000  0  7G28G30G 5S27G 7G13G15
  21593803.423      458685.327        -985.962          47.000  
  22559480.717     1705833.596       -3105.286          48.000  
  21773143.115     1614108.356       -3018.486          52.000  
  40041559.448      252596.4472       -446.844          38.000  
  25262412.388     1947570.792       -3486.204          48.000  
  20491402.355     -154137.016         177.821          47.000  
  22222176.803    -1237807.3963       2159.453          29.000  
 18 10  1 20 37 45.0010000  0  7G28G30G 5S27G 7G13G15
  21593991.004      459671.156        -986.333          47.000  
  22560071.259     1708939.038       -3105.355          47.000  
  21773717.716     1617126.808       -3019.051          52.000  
  40041644.640      253043.4052       -447.019          38.000  
  25263076.264     1951056.979       -3486.377          48.000  
  20491368.188     -154314.640         177.181          47.000  
  22221765.126    -1239967.6272       2158.897          29.000  
 18 10  1 20 37 46.0010000  0  7G28G30G 5S27G 7G13G15
  21594178.350      460657.233        -986.561          47.000  
  22560662.010     1712044.299       -3105.729          47.000  
  21774292.377     1620145.361       -3018.881          52.000  
  40041729.701      253490.0152       -446.704          38.000  
  25263739.965     1954542.807       -3485.854          48.000  
  20491334.448     -154492.231         177.492          47.000  
  22221353.205    -1242128.0083       2160.737          29.000  
 18 10  1 20 37 47.0010000  0  7G28G30G 5S27G 7G13G15
  21594365.931      461643.644        -986.367          47.000  
  22561252.830     1715149.495       -3105.026          47.000  
  21774866.664     1623164.099       -3018.794          52.000  
  40041815.059      253936.3392       -445.768          38.000  
  25264403.885     1958028.371       -3485.217          48.000  
  20491300.516     -154669.703         177.447          47.000  
  22220941.520    -1244288.3543       2160.186          29.000  
 18 10  1 20 37 48.0010000  0  6G28G30G 5S27G 7G13
  21594553.555      462630.668        -987.796          47.000  
  22561843.424     1718254.870       -3105.405          47.000  
  21775441.117     1626183.314       -3019.319          52.000  
  40041900.007      254382.8182       -446.381          38.000  
  25265067.386     1961513.936       -3485.216          48.000  
  20491266.584     -154846.798         176.961          47.000  
 18 10  1 20 37 49.0010000  0  6G28G30G 5S27G 7G13
  21594740.971      463618.917        -988.774          47.000  
  22562434.315     1721361.044       -3106.439          47.000  
  21776015.770     1629203.606       -3020.608          52.000  
  40041985.015      254829.9982       -447.015          38.000  
  25265731.088     1965000.120       -3486.177          48.000  
  20491232.966     -155022.874         175.638          47.000  
 18 10  1 20 37 50.0010000  0  6G28G30G 5S27G 7G13
  21594928.700      464607.388        -988.895          47.000  
  22563025.380     1724467.016       -3106.243          47.000  
  21776590.039     1632223.969       -3020.525          52.000  
  40042070.207      255276.7062       -447.472          38.000  
  25266394.719     1968485.913       -3486.071          48.000  
  20491199.627     -155198.959         176.106          47.000  
 18 10  1 20 37 51.0010000  0  6G28G30G 5S27G 7G13
  21595116.726      465596.007        -988.859          47.000  
  22563616.323     1727572.713       -3105.448          46.000  
  21777164.718     1635244.330       -3020.169          52.000  
  40042154.754      255722.8912       -444.507          38.000  
  25267058.063     1971971.238       -3485.192          48.000  
  20491165.739     -155375.122         176.129          47.000  
 18 10  1 20 37 52.0010000  0  7G28G30G 5S27G 7G13G15
  21595304.578      466585.448        -990.311          46.000  
  22564207.109     1730678.794       -3106.522          46.000  
  21777739.459     1638265.364       -3021.646          52.000  
  40042239.614      256169.3342       -446.723          38.000  
  25267721.774     1975456.770       -3485.955          48.000  
  20491132.366     -155550.688         175.065          47.000  
  22218882.900    -1255086.5073       2158.545          29.000  
 18 10  1 20 37 53.0010000  0  7G28G30G 5S27G 7G13G15
  21595492.918      467576.162        -991.755          46.000  
  22564798.470     1733785.745       -3107.105          46.000  
  21778314.478     1641287.530       -3023.051          52.000  
  40042324.492      256616.3852       -446.354          38.000  
  25268385.859     1978942.977       -3486.877          48.000  
  20491099.132     -155725.182         173.736          47.000  
  22218472.890    -1257244.7703       2157.335          29.000  
 18 10  1 20 37 54.0010000  0  7G28G30G 5S27G 7G13G15
  21595681.136      468567.490        -990.795          46.000  
  22565388.689     1736892.858       -3106.654          46.000  
  21778889.594     1644310.160       -3022.373          52.000  
  40042409.614      257063.3392       -447.277          38.000  
  25269050.294     1982429.189       -3485.788          48.000  
  20491066.011     -155899.298         174.368          47.000  
  22218061.824    -1259402.6083       2158.335          29.000  
 18 10  1 20 37 55.0010000  0  7G28G30G 5S27G 7G13G15
  21595869.660      469558.750        -991.456          46.000  
  22565979.658     1739999.512       -3106.350          46.000  
  21779464.727     1647332.591       -3022.360          52.000  
  40042494.283      257509.6082       -447.444          37.000  
  25269713.611     1985914.734       -3485.122          48.000  
  20491032.760     -156073.681         174.571          47.000  
  22217653.009    -1261560.9843       2157.405          30.000  
 18 10  1 20 37 56.0010000  0  7G28G30G 5S27G 7G13G15
  21596058.279      470550.409        -992.142          46.000  
  22566570.322     1743106.112       -3107.048          45.000  
  21780040.200     1650355.265       -3023.311          52.000  
  40042579.230      257955.6382       -446.454          37.000  
  25270377.356     1989400.042       -3485.973          48.000  
  20490999.142     -156247.899         173.524          47.000  
  22217241.471    -1263719.3193       2158.342          30.000  
 18 10  1 20 37 57.0010000  0  7G28G30G 5S27G 7G13G15
  21596247.404      471543.337        -993.368          46.000  
  22567160.715     1746213.574       -3107.581          45.000  
  21780615.778     1653379.057       -3024.492          52.000  
  40042663.750      258402.4012       -448.755          38.000  
  25271041.145     1992886.030       -3486.375          49.000  
  20490965.943     -156421.058         172.340          46.000  
  22216832.447    -1265876.5233       2157.065          30.000  
 18 10  1 20 37 58.0010000  0  7G28G30G 5S27G 7G13G15
  21596436.355      472537.010        -993.479          46.000  
  22567750.951     1749321.341       -3107.135          45.000  
  21781191.068     1656403.446       -3023.884          52.000  
  40042748.602      258849.3092       -446.659          38.000  
  25271705.065     1996372.152       -3485.554          49.000  
  20490932.796     -156593.696         173.186          46.000  
  22216425.011    -1268033.5012       2158.282          31.000  
 18 10  1 20 37 59.0010000  0  7G28G30G 5S27G 7G13G15
  21596626.092      473530.483        -993.349          47.000  
  22568341.327     1752428.487       -3107.372          44.000  
  21781766.716     1659427.478       -3023.931          52.000  
  40042833.672      259295.3822       -447.472          38.000  
  25272368.723     1999857.458       -3484.954          49.000  
  20490899.859     -156766.753         173.336          46.000  
  22216014.756    -1270191.1832       2156.798          31.000  
 18 10  1 20 38  0.0010000  0  7G28G30G 5S27G 7G13G15
  21596815.924      474524.299        -993.826          47.000  
  22568932.025     1755535.558       -3107.279          44.000  
  21782341.919     1662451.724       -3024.119          52.000  
  40042918.707      259741.2462       -445.540          38.000  
  25273031.884     2003342.508       -3484.881          49.000  
  20490866.616     -156939.681         172.864          46.000  
  22215606.220    -1272348.7312       2158.925          32.000  
 18 10  1 20 38  1.0010000  0  7G28G30G 5S27G 7G13G15
  21597005.302      475519.223        -995.052          47.000  
  22569522.567     1758643.320       -3107.674          44.000  
  21782917.767     1665476.922       -3025.448          52.000  
  40043003.724      260187.6512       -446.089          38.000  
  25273695.891     2006828.040       -3485.407          49.000  
  20490833.496     -157111.720         171.917          46.000  
  22215197.213    -1274505.5752       2154.987          32.000  
 18 10  1 20 38  2.0010000  0  7G28G30G 5S27G 7G13G15
  21597194.812      476515.203        -995.848          47.000  
  22570112.829     1761751.704       -3108.026          44.000  
  21783493.476     1668503.031       -3025.963          52.000  
  40043088.968      260634.5472       -447.781          38.000  
  25274359.880     2010314.021       -3485.329          49.000  
  20490800.864     -157282.926         171.620          46.000  
  22214787.343    -1276661.6802       2156.872          33.000  
 18 10  1 20 38  3.0010000  0  7G28G30G 5S27G 7G13G15
  21597384.487      477510.799        -995.305          47.000  
  22570702.690     1764859.287       -3107.267          44.000  
  21784069.289     1671528.615       -3025.118          52.000  
  40043173.401      261080.4852       -445.016          38.000  
  25275023.189     2013799.015       -3484.610          49.000  
  20490767.647     -157454.729         171.986          46.000  
  22214376.739    -1278818.5612       2156.450          33.000  
 18 10  1 20 38  4.0010000  0  7G28G30G 5S27G 7G13G15
  21597575.130      478507.005        -997.354          47.000  
  22571293.284     1767967.039       -3108.676          43.000  
  21784645.112     1674554.645       -3026.972          52.000  
  40043258.567      261526.3322       -446.011          38.000  
  25275685.974     2017284.009       -3485.637          49.000  
  20490734.928     -157626.157         170.622          46.000  
  22213967.383    -1280975.1652       2156.694          33.000  
 18 10  1 20 38  5.0010000  0  7G28G30G 5S27G 7G13G15
  21597765.102      479504.896        -998.782          47.000  
  22571884.183     1771076.060       -3110.428          43.000  
  21785221.405     1677582.217       -3028.287          52.000  
  40043343.323      261973.1972       -447.102          38.000  
  25276349.545     2020770.080       -3486.498          49.000  
  20490702.314     -157796.121         168.914          46.000  
  22213557.739    -1283130.4782       2155.006          34.000  
 18 10  1 20 38  6.0010000  0  7G28G30G 5S27G 7G13G15
  21597954.987      480504.172        -999.005          47.000  
  22572475.135     1774186.041       -3109.671          43.000  
  21785797.812     1680611.025       -3028.504          52.000  
  40043428.576      262420.8682       -447.185          38.000  
  25277013.255     2024256.920       -3486.372          49.000  
  20490669.891     -157964.905         169.047          46.000  
  22213148.689    -1285284.7432       2153.189          34.000  
 18 10  1 20 38  7.0010000  0  7G28G30G 5S27G 7G13G15
  21598145.151      481503.137        -999.235          47.000  
  22573066.401     1777295.303       -3109.332          43.000  
  21786374.071     1683639.378       -3028.358          52.000  
  40043513.524      262867.6092       -447.325          38.000  
  25277676.041     2027742.861       -3485.528          49.000  
  20490637.434     -158134.237         169.318          46.000  
  22212739.141    -1287440.156        2154.402          35.000  
 18 10  1 20 38  8.0010000  0  7G28G30G 5S27G 7G13G15
  21598335.183      482502.282        -999.576          47.000  
  22573657.876     1780404.309       -3109.670          43.000  
  21786950.617     1686667.758       -3028.479          52.000  
  40043598.951      263313.9212       -447.922          38.000  
  25278339.751     2031228.349       -3485.392          49.000  
  20490605.055     -158303.608         169.366          46.000  
  22212329.375    -1289595.256        2154.933          35.000  
 18 10  1 20 38  9.0010000  0  7G28G30G 5S27G 7G13G15
  21598525.853      483502.692       -1000.976          47.000  
  22574249.229     1783514.143       -3110.537          43.000  
  21787527.120     1689697.255       -3030.279          52.000  
  40043683.759      263760.9982       -447.794          37.000  
  25279003.575     2034714.492       -3486.735          49.000  
  20490573.453     -158471.932         167.885          45.000  
  22211920.324    -1291749.437        2153.723          36.000  
 18 10  1 20 38 10.0010000  0  7G28G30G 5S27G 7G13G15
  21598716.776      484504.808       -1002.335          48.000  
  22574841.332     1786625.255       -3111.126          43.000  
  21788103.884     1692728.304       -3031.314          52.000  
  40043769.248      264209.1672       -448.970          37.000  
  25279666.971     2038201.741       -3487.149          49.000  
  20490541.353     -158638.773         166.887          45.000  
  22211510.907    -1293902.293        2152.273          36.000  
 18 10  1 20 38 11.0010000  0  7G28G30G 5S27G 7G13G15
  21598907.428      485507.197       -1002.472          48.000  
  22575433.104     1789736.230       -3110.811          43.000  
  21788680.902     1695759.497       -3031.297          52.000  
  40043854.204      264657.0552       -447.394          38.000  
  25280330.463     2041688.656       -3486.582          49.000  
  20490509.183     -158805.544         166.642          45.000  
  22211101.883    -1296055.214        2152.753          36.000  
 18 10  1 20 38 12.0010000  0  7G28G30G 5S27G 7G13G15
  21599098.177      486509.350       -1002.430          48.000  
  22576025.120     1792846.541       -3109.217          43.000  
  21789257.614     1698790.301       -3030.664          52.000  
  40043939.448      265104.0632       -446.459          38.000  
  25280993.790     2045174.723       -3485.601          49.000  
  20490477.529     -158972.757         167.249          46.000  
  22210692.370    -1298208.713        2153.161          36.000  
 18 10  1 20 38 13.0010000  0  8G28G30G 8G 5S27G 7G13G15
  21599289.780      487512.498       -1004.073          48.000  
  22576617.607     1795957.405       -3111.638          43.000  
  25945985.963       66711.5463      -1532.315          29.000  
  21789834.641     1701821.940       -3032.630          52.000  
  40044024.475      265551.3552       -447.620          38.000  
  25281656.584     2048661.169       -3487.162          48.000  
  20490445.743     -159139.206         165.507          46.000  
  22210283.555    -1300361.604        2151.518          36.000  
 18 10  1 20 38 14.0010000  0  7G28G30G 5S27G 7G13G15
  21599481.235      488517.317       -1005.602          48.000  
  22577210.339     1799069.520       -3112.796          44.000  
  21790411.868     1704855.105       -3033.748          52.000  
  40044110.138      265999.7582       -449.251          38.000  
  25282320.111     2052148.673       -3488.123          48.000  
  20490414.411     -159304.206         164.502          46.000  
  22209874.574    -1302513.150        2150.685          36.000  
 18 10  1 20 38 15.0010000  0  7G28G30G 5S27G 7G13G15
  21599672.856      489522.645       -1005.129          48.000  
  22577803.437     1802181.735       -3111.641          44.000  
  21790988.885     1707888.641       -3033.240          52.000  
  40044195.347      266448.0392       -447.567          38.000  
  25282983.752     2055636.096       -3486.884          48.000  
  20490383.324     -159468.904         164.810          46.000  
  22209465.872    -1304664.555        2150.941          37.000  
 18 10  1 20 38 16.0010000  0  7G28G30G 5S27G 7G13G15
  21599864.302      490527.729       -1004.609          48.000  
  22578396.448     1805293.281       -3111.204          44.000  
  21791566.208     1710921.776       -3032.904          52.000  
  40044280.208      266895.5052       -446.699          38.000  
  25283647.497     2059122.657       -3485.865          48.000  
  20490352.210     -159634.071         165.331          46.000  
  22209056.822    -1306816.529        2152.464          37.000  
 18 10  1 20 38 17.0010000  0  7G28G30G 5S27G 7G13G15
  21600055.880      491533.550       -1006.699          48.000  
  22578989.345     1808405.148       -3112.457          45.000  
  21792143.566     1713955.499       -3034.520          52.000  
  40044365.487      267343.1292       -448.674          38.000  
  25284310.832     2062609.341       -3487.235          48.000  
  20490321.096     -159798.712         163.834          46.000  
  22208647.902    -1308968.170        2151.498          37.000  
 18 10  1 20 38 18.0010000  0  7G28G30G 5S27G 7G13G15
  21600247.928      492540.537       -1008.346          48.000  
  22579582.513     1811517.745       -3113.186          45.000  
  21792720.785     1716990.247       -3035.707          52.000  
  40044451.159      267791.2072       -449.043          38.000  
  25284974.760     2066096.599       -3488.063          48.000  
  20490289.930     -159962.420         162.657          46.000  
  22208239.506    -1311118.955        2149.721          38.000  
 18 10  1 20 38 19.0010000  0  8G28G30G 8G 5S27G 7G13G15
  21600439.924      493548.288       -1008.022          48.000  
  22580175.628     1814630.686       -3112.939          45.000  
  25947737.049       75915.2743      -1536.305          29.000  
  21793298.500     1720025.614       -3035.269          52.000  
  40044536.813      268239.4382       -448.009          38.000  
  25285638.706     2069584.009       -3487.186          48.000  
  20490259.026     -160125.575         163.462          46.000  
  22207831.267    -1313269.355        2150.263          38.000  
 18 10  1 20 38 20.0010000  0  8G28G30G 8G 5S27G 7G13G15
  21600631.632      494556.117       -1008.223          48.000  
  22580768.909     1817743.280       -3112.488          46.000  
  25948030.902       77450.9583      -1535.821          29.000  
  21793876.460     1723060.909       -3035.501          52.000  
  40044621.700      268687.2072       -448.091          38.000  
  25286302.251     2073070.889       -3486.869          48.000  
  20490228.025     -160288.885         163.167          46.000  
  22207422.958    -1315420.012        2150.509          38.000  
 18 10  1 20 38 21.0010000  0  8G28G30G 8G 5S27G 7G13G15
  21600823.628      495564.433       -1008.655          48.000  
  22581361.894     1820855.946       -3113.155          46.000  
  25948324.816       78986.9993      -1535.913          29.000  
  21794454.141     1726096.546       -3036.322          52.000  
  40044706.778      269134.9192       -448.267          38.000  
  25286965.804     2076557.646       -3487.091          48.000  
  20490196.903     -160451.915         162.553          46.000  
  22207014.361    -1317570.523        2150.061          39.000  
 18 10  1 20 38 22.0010000  0  8G28G30G 8G 5S27G 7G13G15
  21601015.519      496573.983       -1009.958          48.000  
  22581955.455     1823969.409       -3113.713          46.000  
  25948614.926       80524.2423      -1537.476          29.000  
  21795031.987     1729133.250       -3037.106          52.000  
  40044791.761      269583.2212       -448.099          38.000  
  25287629.741     2080045.020       -3487.543          48.000  
  20490166.156     -160613.942         161.475          46.000  
  22206606.253    -1319720.173        2150.042          39.000  
 18 10  1 20 38 23.0010000  0  8G28G30G 8G 5S27G 7G13G15
  21601207.899      497584.270       -1009.915          49.000  
  22582549.111     1827083.181       -3113.451          46.000  
  25948908.334       82062.2473      -1537.420          29.000  
  21795609.956     1732170.547       -3036.679          52.000  
  40044876.892      270031.6462       -448.126          38.000  
  25288293.478     2083532.525       -3486.550          48.000  
  20490135.225     -160775.460         162.009          46.000  
  22206197.813    -1321869.459        2149.430          39.000  
 18 10  1 20 38 24.0010000  0  8G28G30G 8G 5S27G 7G13G15
  21601400.576      498594.426       -1010.127          49.000  
  22583142.497     1830196.415       -3112.763          47.000  
  25949202.579       83600.0563      -1537.364          30.000  
  21796188.195     1735207.573       -3036.876          53.000  
  40044961.874      270479.4052       -447.438          38.000  
  25288956.839     2087019.291       -3486.274          48.000  
  20490104.679     -160937.312         162.084          46.000  
  22205789.696    -1324019.196        2149.901          39.000  
 18 10  1 20 38 25.0010000  0  8G28G30G 8G 5S27G 7G13G15
  21601592.825      499605.020       -1011.367          49.000  
  22583735.961     1833309.656       -3113.306          47.000  
  25949494.443       85138.1473      -1538.639          30.000  
  21796766.085     1738244.886       -3037.872          53.000  
  40045046.918      270926.9972       -447.938          38.000  
  25289620.331     2090505.896       -3486.723          48.000  
  20490073.748     -161098.956         161.096          46.000  
  22205381.265    -1326168.863        2148.999          40.000  
 18 10  1 20 38 26.0010000  0  8G28G30G 8G 5S27G 7G13G15
  21601785.257      500616.966       -1012.078          49.000  
  22584329.173     1836423.817       -3113.507          47.000  
  25949787.432       86677.5843      -1539.866          30.000  
  21797344.420     1741283.393       -3038.509          53.000  
  40045132.389      271375.3332       -448.833          38.000  
  25290284.129     2093993.225       -3486.939          48.000  
  20490043.524     -161259.455         160.285          46.000  
  22204973.113    -1328317.524        2149.982          40.000  
 18 10  1 20 38 27.0010000  0  8G28G30G 8G 5S27G 7G13G15
  21601977.960      501629.719       -1012.510          49.000  
  22584923.466     1839538.350       -3114.393          48.000  
  25950081.564       88217.8013      -1539.809          30.000  
  21797922.703     1744322.555       -3039.179          53.000  
  40045217.232      271823.8312       -447.692          38.000  
  25290948.546     2097480.757       -3487.580          48.000  
  20490013.048     -161419.385         160.192          46.000  
  22204564.865    -1330465.729        2148.053          40.000  
 18 10  1 20 38 28.0010000  0  8G28G30G 8G 5S27G 7G13G15
  21602170.619      502642.281       -1012.956          49.000  
  22585516.861     1842652.301       -3113.733          48.000  
  25950375.539       89757.8153      -1540.120          30.000  
  21798501.047     1747361.396       -3038.755          53.000  
  40045302.441      272271.5362       -447.398          38.000  
  25291612.300     2100967.509       -3486.708          48.000  
  20489982.562     -161579.695         160.503          46.000  
  22204156.652    -1332614.446        2148.707          40.000  
 18 10  1 20 38 29.0010000  0  7G28G30G 5S27G 7G13G15
  21602363.470      503654.870       -1013.093          49.000  
  22586110.124     1845765.823       -3113.696          48.000  
  21799079.548     1750400.091       -3038.992          53.000  
  40045387.703      272718.6632       -447.296          38.000  
  25292276.045     2104453.666       -3485.859          48.000  
  20489952.260     -161740.225         160.595          46.000  
  22203747.977    -1334763.526        2148.914          40.000  
 18 10  1 20 38 30.0010000  0  7G28G30G 5S27G 7G13G15
  21602556.714      504668.980       -1014.882          49.000  
  22586703.641     1848880.449       -3115.169          49.000  
  21799658.197     1753440.155       -3040.857          53.000  
  40045473.183      273166.7352       -448.866          38.000  
  25292940.078     2107940.723       -3487.705          48.000  
  20489922.088     -161899.456         158.581          46.000  
  22203339.773    -1336911.433        2147.485          41.000  
 18 10  1 20 38 31.0010000  0  7G28G30G 5S27G 7G13G15
  21602750.036      505684.630       -1015.852          49.000  
  22587297.455     1851996.200       -3116.540          49.000  
  21800236.576     1756481.627       -3041.902          53.000  
  40045558.803      273615.7292       -449.659          38.000  
  25293604.155     2111428.744       -3488.556          48.000  
  20489892.161     -162057.345         157.144          46.000  
  22202931.743    -1339058.139        2146.258          41.000  
 18 10  1 20 38 32.0010000  0  7G28G30G 5S27G 7G13G15
  21602943.524      506700.339       -1015.486          49.000  
  22587891.303     1855111.591       -3114.902          49.000  
  21800815.199     1759523.013       -3040.988          53.000  
  40045644.003      274064.1082       -446.948          38.000  
  25294268.231     2114916.203       -3486.922          48.000  
  20489862.470     -162215.384         158.326          46.000  
  22202523.042    -1341205.136        2147.367          41.000  
 18 10  1 20 38 33.0010000  0  7G28G30G 5S27G 7G13G15
  21603136.942      507715.589       -1015.105          49.000  
  22588483.982     1858226.098       -3114.273          49.000  
  21801394.031     1762563.787       -3040.501          52.000  
  40045729.300      274511.4422       -447.369          38.000  
  25294931.846     2118402.589       -3485.930          48.000  
  20489832.429     -162374.122         158.992          46.000  
  22202114.584    -1343352.952        2147.907          41.000  
 18 10  1 20 38 34.0010000  0  7G28G30G 5S27G 7G13G15
  21603330.151      508732.099       -1017.570          49.000  
  22589077.421     1861341.430       -3116.375          49.000  
  21801972.646     1765605.676       -3043.108          52.000  
  40045814.134      274959.3972       -448.902          38.000  
  25295595.303     2121889.643       -3487.446          48.000  
  20489802.685     -162531.800         156.440          46.000  
  22201706.145    -1345499.848        2145.754          41.000  
 18 10  1 20 38 35.0010000  0  8G28G30G21G 5S27G 7G13G15
  21603523.665      509750.159       -1018.984          49.000  
  22589670.911     1864457.889       -3117.184          50.000  
  25851688.721       39793.7833       -897.551          29.000  
  21802551.853     1768648.975       -3043.918          52.000  
  40045899.701      275408.3512       -449.335          38.000  
  25296259.563     2125377.635       -3488.669          49.000  
  20489772.828     -162688.147         155.522          46.000  
  22201297.251    -1347645.536        2145.583          41.000  
 18 10  1 20 38 36.0010000  0  8G28G30G21G 5S27G 7G13G15
  21603717.563      510768.595       -1018.253          49.000  
  22590264.882     1867574.303       -3116.130          50.000  
  25851860.981       40690.9023       -896.460          29.000  
  21803130.921     1771692.477       -3043.529          52.000  
  40045984.980      275857.0762       -449.387          38.000  
  25296924.233     2128865.383       -3487.552          49.000  
  20489742.997     -162844.344         156.512          46.000  
  22200889.457    -1349791.245        2146.064          41.000  
 18 10  1 20 38 37.0010000  0  8G28G30G21G 5S27G 7G13G15
  21603911.505      511787.079       -1018.637          49.000  
  22590858.311     1870690.348       -3116.001          50.000  
  25852031.147       41587.8703       -897.577          29.000  
  21803710.234     1774735.906       -3043.294          52.000  
  40046070.199      276305.3162       -447.866          38.000  
  25297588.031     2132352.587       -3486.952          49.000  
  20489713.724     -163000.711         156.383          47.000  
  22200480.843    -1351937.233        2145.974          41.000  
 18 10  1 20 38 38.0010000  0  8G28G30G21G 5S27G 7G13G15
  21604105.621      512806.376       -1019.917          49.000  
  22591451.732     1873806.776       -3116.821          50.000  
  25852201.583       42485.4523       -898.220          29.000  
  21804289.014     1777779.982       -3044.515          52.000  
  40046155.460      276753.7812       -447.694          38.000  
  25298251.279     2135839.984       -3487.879          49.000  
  20489684.024     -163156.480         155.408          47.000  
  22200072.176    -1354082.768        2144.851          41.000  
 18 10  1 20 38 39.0010000  0  8G28G30G21G 5S27G 7G13G15
  21604299.807      513827.029       -1021.648          49.000  
  22592045.205     1876924.139       -3118.188          50.000  
  25852372.185       43384.2543       -899.478          29.000  
  21804868.919     1780825.282       -3046.313          52.000  
  40046241.507      277202.9592       -450.304          38.000  
  25298915.443     2139328.137       -3488.824          49.000  
  20489654.829     -163311.118         153.692          47.000  
  22199663.762    -1356227.270        2143.284          41.000  
 18 10  1 20 38 40.0010000  0  8G28G30G21G 5S27G 7G13G15
  21604493.601      514848.597       -1021.415          49.000  
  22592638.521     1880041.967       -3117.557          50.000  
  25852544.977       44283.8413       -900.300          29.000  
  21805448.389     1783871.306       -3046.026          52.000  
  40046327.092      277652.4062       -450.594          38.000  
  25299580.008     2142816.572       -3488.317          49.000  
  20489625.705     -163465.068         154.053          47.000  
  22199255.515    -1358371.222        2144.796          41.000  
 18 10  1 20 38 41.0010000  0  8G28G30G21G 5S27G 7G13G15
  21604687.935      515870.024       -1020.946          49.000  
  22593232.335     1883159.254       -3116.563          50.000  
  25852716.757       45183.1423       -898.500          29.000  
  21806028.015     1786917.063       -3045.382          52.000  
  40046412.520      278101.1022       -448.917          38.000  
  25300244.669     2146304.266       -3486.952          49.000  
  20489596.520     -163619.368         154.518          47.000  
  22198846.979    -1360515.695        2144.779          41.000  
 18 10  1 20 38 42.0010000  0  9G28G30G21G 8G 5S27G 7G13G15
  21604882.610      516891.813       -1022.391          48.000  
  22593825.660     1886276.447       -3117.958          50.000  
  25852888.013       46082.5193       -900.134          29.000  
  25954494.750      111385.8273      -1548.983          29.000  
  21806607.711     1789963.013       -3046.778          52.000  
  40046498.034      278549.5692       -449.388          38.000  
  25300908.031     2149791.702       -3488.205          49.000  
  20489567.892     -163773.535         153.274          47.000  
  22198438.713    -1362660.153        2144.096          41.000  
 18 10  1 20 38 43.0010000  0  9G28G30G21G 8G 5S27G 7G13G15
  21605076.778      517914.692       -1022.942          48.000  
  22594419.325     1889394.340       -3117.549          50.000  
  25853060.116       46982.9183       -902.063          29.000  
  25954788.883      112935.4243      -1549.462          29.000  
  21807187.608     1793009.936       -3046.782          52.000  
  40046583.409      278998.5092       -449.139          38.000  
  25301572.448     2153279.633       -3487.577          49.000  
  20489538.890     -163926.817         153.169          47.000  
  22198030.544    -1364803.820        2143.988          41.000  
 18 10  1 20 38 44.0010000  0  9G28G30G21G 8G 5S27G 7G13G15
  21605271.409      518938.395       -1023.997          48.000  
  22595012.885     1892512.606       -3118.080          50.000  
  25853231.530       47883.9323       -901.610          29.000  
  25955082.613      114485.7993      -1550.778          29.000  
  21807767.575     1796057.514       -3047.480          52.000  
  40046669.064      279447.7012       -450.290          38.000  
  25302236.140     2156767.768       -3487.668          49.000  
  20489510.132     -164079.497         152.721          47.000  
  22197622.602    -1366947.046        2143.154          40.000  
 18 10  1 20 38 45.0010000  0  9G28G30G21G 8G 5S27G 7G13G15
  21605466.250      519961.994       -1023.721          48.000  
  22595606.158     1895630.348       -3117.448          50.000  
  25853402.132       48784.6983       -901.608          29.000  
  25955376.283      116036.0393      -1550.734          29.000  
  21808347.385     1799104.834       -3047.280          52.000  
  40046754.265      279896.2212       -448.720          37.000  
  25302900.078     2160255.194       -3487.224          49.000  
  20489481.453     -164232.507         153.019          47.000  
  22197214.781    -1369090.730        2144.315          40.000  
 18 10  1 20 38 46.0010000  0  9G28G30G21G 8G 5S27G 7G13G15
  21605660.732      520985.506       -1024.112          48.000  
  22596199.413     1898747.573       -3117.473          50.000  
  25853575.246       49685.2073       -900.679          29.000  
  25955671.576      117586.0483      -1550.387          29.000  
  21808927.133     1802151.925       -3047.278          52.000  
  40046839.247      280344.0372       -447.974          37.000  
  25303563.945     2163741.925       -3486.684          50.000  
  20489452.738     -164385.813         153.152          47.000  
  22196805.958    -1371234.874        2143.306          40.000  
 18 10  1 20 38 47.0010000  0  9G28G30G21G 8G 5S27G 7G13G15
  21605855.808      522010.377       -1025.607          48.000  
  22596792.834     1901865.746       -3118.676          50.000  
  25853747.105       50586.8973       -902.082          30.000  
  25955968.325      119137.4003      -1552.235          29.000  
  21809507.126     1805200.225       -3048.984          52.000  
  40046924.605      280792.6232       -449.072          38.000  
  25304227.498     2167229.408       -3487.962          49.000  
  20489423.780     -164537.973         151.383          47.000  
  22196397.195    -1373378.006        2142.565          40.000  
 18 10  1 20 38 48.0010000  0  8G28G30G21G 5S27G 7G13G15
  21606051.251      523036.935       -1027.388          48.000  
  22597386.525     1904985.174       -3119.526          50.000  
  25853919.792       51490.1153       -904.323          30.000  
  21810087.765     1808250.061       -3050.334          52.000  
  40047010.739      281242.1402       -449.227          38.000  
  25304891.627     2170717.975       -3489.004          49.000  
  20489395.135     -164688.668         150.295          47.000  
  22195989.532    -1375519.753        2141.523          40.000  
 18 10  1 20 38 49.0010000  0  8G28G30G21G 5S27G 7G13G15
  21606246.929      524063.711       -1026.629          48.000  
  22597980.452     1908104.404       -3119.198          50.000  
  25854092.331       52393.4173       -904.497          29.000  
  21810667.897     1811299.981       -3049.683          52.000  
  40047096.132      281691.3152       -448.642          37.000  
  25305555.346     2174206.147       -3487.857          49.000  
  20489366.595     -164839.357         151.070          47.000  
  22195581.964    -1377661.677        2141.504          40.000  
 18 10  1 20 38 50.0010000  0  8G28G30G21G 5S27G 7G13G15
  21606441.926      525090.020       -1026.351          48.000  
  22598573.663     1911222.728       -3118.227          50.000  
  25854266.057       53296.1033       -902.814          29.000  
  21811248.073     1814349.267       -3049.218          52.000  
  40047181.289      282139.5132       -447.916          38.000  
  25306219.284     2177693.224       -3487.176          50.000  
  20489338.178     -164990.737         151.540          47.000  
  22195174.135    -1379804.395        2143.350          40.000  
 18 10  1 20 38 51.0010000  0  8G28G30G21G 5S27G 7G13G15
  21606637.753      526117.511       -1028.484          48.000  
  22599167.145     1914341.826       -3119.850          50.000  
  25854438.753       54199.7453       -904.288          29.000  
  21811828.529     1817399.601       -3051.121          52.000  
  40047266.681      282588.3452       -450.314          37.000  
  25306882.933     2181180.912       -3488.402          50.000  
  20489309.673     -165141.136         149.496          47.000  
  22194766.350    -1381946.268        2141.083          39.000  
 18 10  1 20 38 52.0010000  0  8G28G30G21G 5S27G 7G13G15
  21606833.666      527146.550       -1029.262          48.000  
  22599760.880     1917462.017       -3120.259          50.000  
  25854610.463       55104.7813       -905.080          30.000  
  21812409.097     1820451.312       -3052.085          52.000  
  40047352.100      283038.0472       -449.922          38.000  
  25307546.748     2184669.510       -3488.680          50.000  
  20489281.037     -165290.226         148.954          47.000  
  22194359.437    -1384086.999        2140.177          39.000  
 18 10  1 20 38 53.0010000  0  8G28G30G21G 5S27G 7G13G15
  21607029.702      528175.942       -1029.199          48.000  
  22600354.432     1920582.150       -3119.633          50.000  
  25854783.630       56010.0933       -904.221          30.000  
  21812990.120     1823503.238       -3051.798          52.000  
  40047437.554      283487.4632       -448.022          37.000  
  25308210.633     2188157.866       -3488.040          50.000  
  20489252.558     -165439.170         149.610          47.000  
  22193951.215    -1386227.684        2140.360          39.000  
 18 10  1 20 38 54.0010000  0  8G28G30G21G 5S27G 7G13G15
  21607225.555      529205.254       -1029.599          48.000  
  22600948.341     1923701.783       -3119.728          50.000  
  25854955.279       56915.0553       -904.677          30.000  
  21813570.776     1826554.936       -3052.002          52.000  
  40047522.973      283936.0662       -448.822          38.000  
  25308874.343     2191645.528       -3487.525          50.000  
  20489224.350     -165588.421         149.118          47.000  
  22193543.796    -1388368.805        2141.335          39.000  
 18 10  1 20 38 55.0010000  0  8G28G30G21G 5S27G 7G13G15
  21607421.904      530235.465       -1031.031          48.000  
  22601542.085     1926821.902       -3120.424          50.000  
  25855126.553       57820.7693       -906.273          30.000  
  21814151.528     1829607.395       -3053.152          52.000  
  40047608.479      284384.9912       -449.538          37.000  
  25309538.158     2195133.485       -3488.443          50.000  
  20489196.238     -165736.981         147.850          47.000  
  22193136.063    -1390509.374        2139.749          39.000  
 18 10  1 20 38 56.0010000  0  8G28G30G21G 5S27G 7G13G15
  21607617.809      531267.035       -1032.781          48.000  
  22602136.029     1929942.932       -3121.841          50.000  
  25855300.907       58727.8673       -907.458          30.000  
  21814732.123     1832661.049       -3054.251          52.000  
  40047694.020      284834.6992       -450.775          38.000  
  25310201.755     2198622.186       -3489.293          50.000  
  20489168.064     -165884.409         146.558          47.000  
  22192728.365    -1392648.954        2138.635          39.000  
 18 10  1 20 38 57.0010000  0  8G28G30G21G 5S27G 7G13G15
  21607814.203      532299.303       -1031.911          48.000  
  22602730.087     1933064.234       -3120.939          50.000  
  25855471.675       59635.3102       -905.830          30.000  
  21815313.372     1835715.252       -3053.789          52.000  
  40047779.255      285284.4772       -448.692          37.000  
  25310866.154     2202110.976       -3488.197          50.000  
  20489140.065     -166031.360         147.373          47.000  
  22192320.981    -1394788.156        2139.714          39.000  
 18 10  1 20 38 58.0010000  0  8G28G30G21G 5S27G 7G13G15
  21608010.919      533331.252       -1032.189          48.000  
  22603323.813     1936184.792       -3120.532          50.000  
  25855643.621       60542.2092       -907.649          29.000  
  21815894.482     1838768.986       -3053.648          52.000  
  40047865.180      285733.4952       -448.914          37.000  
  25311529.830     2205598.835       -3487.422          50.000  
  20489112.206     -166178.845         147.529          47.000  
  22191914.042    -1396928.042        2139.896          39.000  
 18 10  1 20 38 59.0010000  0  9G28G30G21G 5S27G 7G17G13G15
  21608207.086      534364.066       -1033.164          48.000  
  22603917.487     1939305.786       -3120.871          50.000  
  25855817.914       61449.9292       -907.605          29.000  
  21816475.609     1841823.434       -3054.378          52.000  
  40047951.158      286182.8542       -449.039          38.000  
  25312193.723     2209086.949       -3487.973          50.000  
  25809426.065      -77962.5233       2248.550          29.000  
  20489084.050     -166325.683         146.578          47.000  
  22191506.562    -1399067.403        2139.162          39.000  
 18 10  1 20 39  0.0010000  0  9G28G30G21G 5S27G 7G17G13G15
  21608404.090      535398.078       -1034.657          48.000  
  22604511.431     1942427.569       -3121.546          49.000  
  25855987.573       62358.6123       -907.161          29.000  
  21817057.076     1844878.927       -3056.207          52.000  
  40048036.690      286632.8302       -450.610          38.000  
  25312857.879     2212575.655       -3488.934          50.000  
  25809000.567      -80210.5093       2246.796          29.000  
  20489056.392     -166471.533         145.222          47.000  
  22191098.873    -1401205.912        2138.586          39.000  
 18 10  1 20 39  1.0010000  0  8G28G30G 5S27G 7G17G13G15
  21608600.867      536433.112       -1034.551          48.000  
  22605104.948     1945549.929       -3122.281          49.000  
  21817638.718     1847935.294       -3056.537          52.000  
  40048122.501      287083.0552       -449.788          37.000  
  25313521.868     2216064.777       -3488.710          50.000  
  25808573.307      -82457.9623       2247.888          29.000  
  20489028.663     -166616.580         144.913          47.000  
  22190691.707    -1403343.774        2138.282          39.000  
 18 10  1 20 39  2.0010000  0  8G28G30G 5S27G 7G17G13G15
  21608797.697      537467.684       -1034.369          48.000  
  22605698.989     1948671.421       -3121.252          49.000  
  21818220.011     1850991.055       -3055.863          52.000  
  40048207.597      287532.2762       -449.478          37.000  
  25314185.971     2219552.827       -3487.758          50.000  
  25808143.177      -84706.5463       2248.664          29.000  
  20489001.101     -166762.288         145.627          47.000  
  22190284.750    -1405482.436        2138.735          39.000  
 18 10  1 20 39  3.0010000  0  8G28G30G 5S27G 7G17G13G15
  21608994.527      538502.179       -1035.024          48.000  
  22606293.570     1951792.411       -3120.898          49.000  
  21818801.749     1854046.591       -3055.789          52.000  
  40048292.842      287980.8382       -449.440          38.000  
  25314849.498     2223040.197       -3487.502          50.000  
  25807714.949      -86955.9483       2249.036          29.000  
  20488973.364     -166908.296         145.537          47.000  
  22189877.200    -1407621.532        2138.524          39.000  
 18 10  1 20 39  4.0010000  0  8G28G30G 5S27G 7G17G13G15
  21609191.714      539538.188       -1036.221          48.000  
  22606887.209     1954914.478       -3122.138          49.000  
  21819383.574     1857103.493       -3057.332          52.000  
  40048378.566      288430.3502       -448.491          37.000  
  25315513.723     2226528.466       -3488.449          50.000  
  25807286.179      -89204.4623       2248.701          30.000  
  20488945.679     -167053.008         144.493          47.000  
  22189469.816    -1409759.429        2138.112          39.000  
 18 10  1 20 39  5.0010000  0  8G28G30G 5S27G 7G17G13G15
  21609388.753      540575.537       -1037.614          48.000  
  22607481.415     1958037.465       -3122.883          49.000  
  21819965.722     1860161.583       -3058.385          52.000  
  40048464.220      288880.5292       -450.789          37.000  
  25316177.346     2230017.478       -3488.728          50.000  
  25806858.553      -91452.2313       2247.470          29.000  
  20488918.264     -167196.600         143.229          47.000  
  22189062.284    -1411896.333        2137.227          38.000  
 18 10  1 20 39  6.0010000  0  9G28G30G21G 5S27G 7G17G13G15
  21609586.211      541612.956       -1036.779          48.000  
  22608074.687     1961160.088       -3122.229          49.000  
  25857026.097       67817.8633       -909.854          29.000  
  21820547.382     1863219.581       -3057.443          52.000  
  40048549.578      289330.0932       -448.023          37.000  
  25316840.647     2233505.939       -3487.587          50.000  
  25806431.407      -93700.4863       2248.933          30.000  
  20488891.033     -167340.331         144.215          47.000  
  22188655.354    -1414033.572        2137.792          38.000  
 18 10  1 20 39  7.0010000  0  9G28G30G21G 5S27G 7G17G13G15
  21609783.591      542649.946       -1036.644          48.000  
  22608668.972     1964281.871       -3121.262          48.000  
  25857199.194       68728.4063       -910.333          29.000  
  21821129.076     1866276.997       -3057.325          52.000  
  40048635.101      289778.6102       -447.012          38.000  
  25317504.287     2236993.377       -3486.783          50.000  
  25806006.721      -95949.6853       2250.527          30.000  
  20488863.349     -167484.693         144.874          47.000  
  22188247.908    -1416171.563        2138.322          38.000  
 18 10  1 20 39  8.0010000  0  9G28G30G21G 5S27G 7G17G13G15
  21609981.284      543687.927       -1038.823          48.000  
  22609263.178     1967404.217       -3123.003          48.000  
  25857372.623       69639.7313       -911.855          30.000  
  21821711.398     1869335.257       -3059.057          52.000  
  40048720.459      290227.5542       -449.712          37.000  
  25318167.334     2240481.167       -3488.369          50.000  
  25805582.270      -98198.7442       2249.319          31.000  
  20488835.882     -167628.296         142.738          47.000  
  22187841.231    -1418308.883        2136.482          38.000  
 18 10  1 20 39  9.0010000  0  9G28G30G21G 5S27G 7G17G13G15
  21610178.882      544727.555       -1040.892          48.000  
  22609857.454     1970527.793       -3124.297          48.000  
  25857546.663       70552.5703       -913.136          29.000  
  21822293.843     1872395.020       -3060.796          52.000  
  40048806.044      290677.5762       -450.087          37.000  
  25318831.106     2243970.028       -3489.759          49.000  
  25805150.822     -100446.7942       2247.331          30.000  
  20488808.869     -167770.456         141.059          47.000  
  22187434.650    -1420444.903        2135.354          38.000  
 18 10  1 20 39 10.0010000  0  9G28G30G21G 5S27G 7G17G13G15
  21610376.828      545767.944       -1040.467          48.000  
  22610451.424     1973651.665       -3123.664          48.000  
  25857720.912       71466.0603       -913.689          29.000  
  21822876.410     1875455.378       -3060.514          52.000  
  40048891.559      291127.7102       -449.578          37.000  
  25319494.772     2247459.018       -3489.022          49.000  
  25804727.088     -102694.7992       2247.335          30.000  
  20488781.926     -167912.085         141.328          47.000  
  22187027.990    -1422580.532        2136.084          38.000  
 18 10  1 20 39 11.0010000  0  9G28G30G21G 5S27G 7G17G13G15
  21610574.696      546808.133       -1040.339          48.000  
  22611045.613     1976774.938       -3123.328          47.000  
  25857894.865       72379.1713       -914.157          30.000  
  21823458.950     1878515.392       -3060.013          52.000  
  40048976.724      291577.1002       -447.633          37.000  
  25320158.579     2250947.212       -3488.131          49.000  
  25804297.987     -104943.5472       2250.145          29.000  
  20488754.878     -168054.123         142.281          47.000  
  22186621.478    -1424716.702        2136.775          38.000  
 18 10  1 20 39 12.0010000  0  9G28G30G21G 5S27G 7G17G13G15
  21610772.442      547849.096       -1042.146          48.000  
  22611640.247     1979898.574       -3124.346          47.000  
  25858069.096       73292.8403       -914.818          29.000  
  21824041.491     1881576.042       -3061.499          52.000  
  40049062.667      292026.6732       -450.866          37.000  
  25320821.826     2254435.572       -3488.950          49.000  
  25803870.413     -107192.1672       2249.037          29.000  
  20488727.752     -168195.592         140.628          47.000  
  22186215.054    -1426852.455        2135.839          38.000  
 18 10  1 20 39 13.0010000  0  9G28G30G21G 5S27G 7G17G13G15
  21610970.991      548891.377       -1043.002          48.000  
  22612233.964     1983023.089       -3124.604          47.000  
  25858243.319       74207.7033       -915.941          29.000  
  21824624.067     1884637.847       -3062.399          52.000  
  40049148.391      292476.9312       -450.922          37.000  
  25321485.127     2257924.637       -3489.543          49.000  
  25803442.743     -109440.1452       2248.595          29.000  
  20488701.166     -168335.974         139.867          47.000  
  22185808.665    -1428987.206        2134.545          38.000  
 18 10  1 20 39 14.0010000  0  9G28G30G21G 5S27G 7G17G13G15
  21611169.260      549934.436       -1042.692          48.000  
  22612827.594     1986147.941       -3124.212          47.000  
  25858417.551       75123.2483       -915.468          29.000  
  21825206.607     1887700.264       -3062.416          52.000  
  40049234.124      292927.3992       -450.481          37.000  
  25322148.724     2261413.867       -3488.734          49.000  
  25803014.689     -111688.0202       2247.698          29.000  
  20488674.415     -168475.795         139.883          47.000  
  22185402.738    -1431121.565        2134.524          38.000  
 18 10  1 20 39 15.0010000  0  9G28G30G21G 5S27G 7G17G13G15
  21611367.338      550977.461       -1042.627          48.000  
  22613421.644     1989272.347       -3123.671          46.000  
  25858591.879       76038.5113       -915.813          29.000  
  21825789.244     1890762.497       -3061.766          52.000  
  40049319.543      293377.1792       -449.333          38.000  
  25322812.190     2264902.455       -3487.883          49.000  
  25802586.417     -113936.5302       2247.852          29.000  
  20488647.167     -168615.874         140.352          47.000  
  22184996.479    -1433256.293        2135.250          38.000  
 18 10  1 20 39 16.0010000  0  8G28G30G 5S27G 7G17G13G15
  21611565.912      552020.826       -1043.515          48.000  
  22614016.303     1992396.657       -3124.416          46.000  
  21826372.195     1893824.921       -3062.600          52.000  
  40049405.145      293826.7862       -448.873          37.000  
  25323475.368     2268390.781       -3488.267          48.000  
  25802158.494     -116185.3283       2251.984          29.000  
  20488620.433     -168755.809         139.629          47.000  
  22184590.552    -1435391.054        2134.604          38.000  
 18 10  1 20 39 17.0010000  0  8G28G30G 5S27G 7G17G13G15
  21611764.775      553065.492       -1045.370          48.000  
  22614610.073     1995521.843       -3125.270          46.000  
  21826955.006     1896888.500       -3063.792          52.000  
  40049490.834      294277.0772       -450.167          37.000  
  25324138.895     2271879.796       -3488.990          48.000  
  25801730.824     -118433.4672       2249.623          29.000  
  20488594.214     -168894.664         138.800          47.000  
  22184184.896    -1437524.817        2132.312          38.000  
 18 10  1 20 39 18.0010000  0  8G28G30G 5S27G 7G17G13G15
  21611963.681      554110.978       -1045.877          48.000  
  22615203.634     1998647.417       -3125.618          46.000  
  21827538.218     1899952.728       -3064.315          52.000  
  40049576.837      294727.4952       -449.864          37.000  
  25324802.143     2275369.016       -3488.984          48.000  
  25801302.456     -120681.4292       2246.850          29.000  
  20488567.480     -169032.920         138.537          47.000  
  22183779.222    -1439658.145        2133.297          39.000  
 18 10  1 20 39 19.0010000  0  8G28G30G 5S27G 7G17G13G15
  21612162.492      555156.071       -1044.274          48.000  
  22615797.115     2001772.197       -3124.176          46.000  
  21828121.125     1903016.449       -3063.127          52.000  
  40049662.125      295176.9732       -448.324          37.000  
  25325465.617     2278857.253       -3487.139          48.000  
  25800874.490     -122930.3843       2249.652          29.000  
  20488541.017     -169171.772         139.747          47.000  
  22183373.426    -1441792.188        2134.670          39.000  
 18 10  1 20 39 20.0010000  0  8G28G30G 5S27G 7G17G13G15
  21612361.346      556200.783       -1045.244          48.000  
  22616391.121     2004896.157       -3124.596          45.000  
  21828704.181     1906079.613       -3063.338          52.000  
  40049747.588      295625.4552       -447.195          37.000  
  25326128.289     2282344.481       -3487.727          48.000  
  25800446.026     -125180.4083       2249.591          30.000  
  20488514.562     -169311.229         139.062          47.000  
  22182967.726    -1443926.973        2134.835          39.000  
 18 10  1 20 39 21.0010000  0  8G28G30G 5S27G 7G17G13G15
  21612559.851      557246.910       -1046.498          48.000  
  22616985.475     2008021.107       -3125.035          45.000  
  21829287.192     1909144.040       -3065.024          52.000  
  40049832.815      296074.8092       -450.753          38.000  
  25326791.485     2285832.521       -3488.540          47.000  
  25800018.391     -127429.6142       2249.354          30.000  
  20488487.925     -169449.484         137.793          47.000  
  22182562.174    -1446060.680        2132.922          39.000  
 18 10  1 20 39 22.0010000  0  8G28G30G 5S27G 7G17G13G15
  21612759.054      558294.697       -1048.614          48.000  
  22617579.036     2011147.284       -3126.784          45.000  
  21829870.937     1912209.982       -3066.178          52.000  
  40049918.905      296525.2482       -449.857          37.000  
  25327455.309     2289321.620       -3489.370          47.000  
  25799590.747     -129677.8143       2247.258          31.000  
  20488461.671     -169586.288         136.347          46.000  
  22182157.015    -1448193.097        2131.840          39.000  
 18 10  1 20 39 23.0010000  0  8G28G30G 5S27G 7G17G13G15
  21612958.256      559342.736       -1048.151          48.000  
  22618172.692     2014273.299       -3125.774          44.000  
  21830453.940     1915276.015       -3066.211          52.000  
  40050004.690      296975.3132       -449.718          38.000  
  25328119.106     2292810.351       -3488.688          47.000  
  25799162.580     -131926.4052       2248.070          31.000  
  20488435.591     -169723.057         136.741          46.000  
  22181751.070    -1450325.627        2132.696          39.000  
 18 10  1 20 39 24.0010000  0  8G28G30G 5S27G 7G17G13G15
  21613157.660      560390.415       -1047.652          48.000  
  22618766.104     2017398.497       -3124.668          44.000  
  21831037.371     1918341.532       -3065.486          52.000  
  40050090.109      297424.4042       -448.094          37.000  
  25328782.136     2296298.100       -3487.615          47.000  
  25798734.753     -134175.9952       2250.309          32.000  
  20488409.015     -169860.410         137.245          46.000  
  22181345.353    -1452458.810        2133.779          39.000  
 18 10  1 20 39 25.0010000  0  8G28G30G 5S27G 7G17G13G15
  21613356.854      561439.184       -1049.807          48.000  
  22619360.188     2020524.383       -3126.856          44.000  
  21831620.705     1921408.002       -3067.444          52.000  
  40050175.694      297873.9282       -450.301          37.000  
  25329445.698     2299786.365       -3488.926          47.000  
  25798306.411     -136425.1612       2249.315          32.000  
  20488382.857     -169996.868         135.652          46.000  
  22180939.766    -1454591.273        2131.656          40.000  
 18 10  1 20 39 26.0010000  0  8G28G30G 5S27G 7G17G13G15
  21613557.052      562489.416       -1050.875          48.000  
  22619953.775     2023651.290       -3127.518          44.000  
  21832204.633     1924475.772       -3068.354          52.000  
  40050261.313      298324.4152       -450.778          38.000  
  25330109.286     2303275.457       -3489.299          47.000  
  25797878.505     -138673.4852       2247.755          32.000  
  20488357.179     -170132.093         134.161          46.000  
  22180534.214    -1456722.625        2131.050          40.000  
 18 10  1 20 39 27.0010000  0  8G28G30G 5S27G 7G17G13G15
  21613756.927      563540.211       -1050.852          48.000  
  22620547.833     2026778.366       -3127.123          43.000  
  21832788.491     1927543.966       -3067.826          52.000  
  40050346.636      298774.8772       -449.298          38.000  
  25330772.848     2306764.513       -3488.644          47.000  
  25797450.670     -140921.8532       2250.846          32.000  
  20488331.545     -170266.946         135.130          46.000  
  22180129.544    -1458853.750        2131.954          40.000  
 18 10  1 20 39 28.0010000  0  8G28G30G 5S27G 7G17G13G15
  21613957.194      564590.980       -1051.027          48.000  
  22621141.829     2029904.977       -3126.183          43.000  
  21833372.262     1930611.966       -3068.282          52.000  
  40050432.919      299224.5962       -450.556          38.000  
  25331436.166     2310252.929       -3488.323          46.000  
  25797022.249     -143170.9322       2249.013          33.000  
  20488305.640     -170402.048         134.994          46.000  
  22179724.262    -1460985.267        2131.990          40.000  
 18 10  1 20 39 29.0010000  0  8G28G30G 5S27G 7G17G13G15
  21614157.374      565642.462       -1052.639          48.000  
  22621735.739     2033031.872       -3128.163          43.000  
  21833956.181     1933680.537       -3069.275          52.000  
  40050518.215      299674.4512       -449.135          38.000  
  25332099.789     2313741.451       -3489.082          46.000  
  25796593.969     -145419.8832       2248.857          32.000  
  20488280.040     -170536.664         133.835          46.000  
  22179319.007    -1463116.392        2129.864          40.000  
 18 10  1 20 39 30.0010000  0  8G28G30G 5S27G 7G17G13G15
  21614357.598      566695.062       -1053.659          48.000  
  22622330.041     2036159.461       -3128.490          42.000  
  21834540.231     1936750.076       -3069.900          52.000  
  40050604.018      300124.7902       -449.917          38.000  
  25332763.517     2317230.502       -3489.086          46.000  
  25796165.531     -147668.4152       2248.237          32.000  
  20488254.764     -170670.366         133.670          46.000  
  22178913.508    -1465246.758        2130.468          40.000  
 18 10  1 20 39 31.0010000  0  8G28G30G 5S27G 7G17G13G15
  21614557.761      567748.274       -1052.663          48.000  
  22622924.823     2039287.229       -3127.161          42.000  
  21835124.098     1939820.057       -3069.856          52.000  
  40050689.725      300575.1742       -450.069          38.000  
  25333427.236     2320719.528       -3488.302          46.000  
  25795737.207     -149917.427        2249.795          33.000  
  20488229.531     -170803.697         133.631          46.000  
  22178508.035    -1467376.871        2130.858          40.000  
 18 10  1 20 39 32.0010000  0  8G28G30G 5S27G 7G17G13G15
  21614758.177      568801.400       -1053.111          48.000  
  22623518.863     2042414.510       -3126.523          42.000  
  21835708.375     1942889.817       -3069.409          52.000  
  40050774.995      301024.8432       -449.518          38.000  
  25334091.391     2324207.864       -3487.945          46.000  
  25795308.865     -152166.666        2250.893          32.000  
  20488203.957     -170937.296         133.839          46.000  
  22178102.893    -1469507.433        2131.221          40.000  
 18 10  1 20 39 33.0010000  0  8G28G30G 5S27G 7G17G13G15
  21614958.741      569854.560       -1053.972          48.000  
  22624113.558     2045541.345       -3126.908          42.000  
  21836292.390     1945959.447       -3070.302          52.000  
  40050860.606      301473.9232       -449.075          38.000  
  25334755.119     2327695.640       -3488.299          46.000  
  25794880.244     -154416.534        2249.815          33.000  
  20488178.515     -171071.093         133.008          46.000  
  22177697.620    -1471638.284        2130.053          40.000  
 18 10  1 20 39 34.0010000  0  8G28G30G 5S27G 7G17G13G15
  21615159.235      570908.776       -1054.887          48.000  
  22624708.069     2048668.827       -3127.930          42.000  
  21836876.650     1949029.969       -3070.995          52.000  
  40050946.173      301923.5252       -449.642          38.000  
  25335419.134     2331183.846       -3488.287          46.000  
  25794451.797     -156665.962        2251.176          33.000  
  20488152.898     -171204.057         132.468          46.000  
  22177293.054    -1473768.430        2130.141          40.000  
 18 10  1 20 39 35.0010000  0  8G28G30G 5S27G 7G17G13G15
  21615359.729      571964.123       -1054.959          48.000  
  22625302.677     2051797.016       -3127.738          42.000  
  21837460.778     1952101.488       -3071.404          52.000  
  40051032.159      302373.6402       -449.570          38.000  
  25336082.749     2334672.579       -3488.329          46.000  
  25794023.630     -158914.939        2247.719          33.000  
  20488128.023     -171336.095         132.366          46.000  
  22176888.297    -1475897.784        2129.859          40.000  
 18 10  1 20 39 36.0010000  0  8G28G30G 5S27G 7G17G13G15
  21615560.354      573019.317       -1055.490          48.000  
  22625897.258     2054924.638       -3127.343          41.000  
  21838045.300     1955172.693       -3071.140          52.000  
  40051117.692      302822.9542       -448.386          38.000  
  25336746.354     2338160.549       -3487.817          46.000  
  25793595.882     -161164.674        2250.605          33.000  
  20488103.592     -171468.511         132.492          46.000  
  22176483.347    -1478027.661        2129.567          41.000  
 18 10  1 20 39 37.0010000  0  8G28G30G 5S27G 7G17G13G15
  21615761.372      574074.520       -1055.622          48.000  
  22626492.214     2058051.841       -3126.167          41.000  
  21838629.498     1958243.761       -3071.080          52.000  
  40051202.901      303271.5572       -448.083          38.000  
  25337409.332     2341647.930       -3487.293          46.000  
  25793167.496     -163415.001        2251.025          32.000  
  20488078.002     -171601.118         132.332          46.000  
  22176078.659    -1480157.866        2129.973          41.000  
 18 10  1 20 39 38.0010000  0  8G28G30G 5S27G 7G17G13G15
  21615962.495      575130.914       -1057.582          48.000  
  22627087.319     2061179.813       -3128.005          41.000  
  21839213.941     1961315.865       -3072.222          52.000  
  40051288.494      303720.7962       -449.131          38.000  
  25338073.199     2345135.885       -3487.981          46.000  
  25792739.364     -165664.841        2247.871          33.000  
  20488052.943     -171732.769         131.351          46.000  
  22175674.119    -1482287.226        2129.171          41.000  
 18 10  1 20 39 39.0010000  0  8G28G30G 5S27G 7G17G13G15
  21616163.425      576188.622       -1057.201          48.000  
  22627683.070     2064308.639       -3128.744          42.000  
  21839798.785     1964389.132       -3073.666          52.000  
  40051374.070      304170.8682       -450.602          38.000  
  25338737.075     2348624.542       -3488.453          46.000  
  25792311.083     -167913.948        2248.864          33.000  
  20488028.024     -171863.303         130.368          46.000  
  22175269.449    -1484415.615        2128.524          41.000  
 18 10  1 20 39 40.0010000  0  8G28G30G 5S27G 7G17G13G15
  21616364.574      577246.673       -1057.725          48.000  
  22628278.724     2067437.420       -3128.474          42.000  
  21840383.576     1967462.589       -3073.104          52.000  
  40051459.690      304620.6542       -448.303          38.000  
  25339400.977     2352112.931       -3487.926          46.000  
  25791882.497     -170163.356        2250.522          33.000  
  20488003.227     -171993.699         130.792          46.000  
  22174864.420    -1486544.001        2129.281          42.000  
 18 10  1 20 39 41.0010000  0  8G28G30G 5S27G 7G17G13G15
  21616565.932      578304.375       -1057.607          48.000  
  22628873.986     2070565.398       -3127.786          42.000  
  21840968.612     1970535.529       -3073.239          52.000  
  40051544.794      305069.4812       -448.619          38.000  
  25340064.391     2355600.362       -3487.222          46.000  
  25791453.623     -172413.767        2250.251          32.000  
  20487977.898     -172124.689         130.467          46.000  
  22174459.872    -1488673.090        2128.983          42.000  
 18 10  1 20 39 42.0010000  0  8G28G30G 5S27G 7G17G13G15
  21616767.360      579362.925       -1058.934          48.000  
  22629469.684     2073693.809       -3128.777          42.000  
  21841553.526     1973609.164       -3074.570          52.000  
  40051630.466      305518.5472       -448.696          38.000  
  25340727.787     2359088.025       -3487.623          46.000  
  25791024.679     -174663.954        2249.040          32.000  
  20487952.857     -172255.009         130.080          46.000  
  22174055.402    -1490801.702        2128.163          42.000  
 18 10  1 20 39 43.0010000  0  8G28G30G 5S27G 7G17G13G15
  21616968.936      580422.993       -1061.207          48.000  
  22630065.679     2076823.317       -3129.949          42.000  
  21842138.876     1976684.186       -3075.873          52.000  
  40051716.269      305968.4762       -450.851          38.000  
  25341391.480     2362576.615       -3488.847          46.000  
  25790596.215     -176913.270        2251.254          32.000  
  20487927.904     -172384.040         128.542          46.000  
  22173651.176    -1492929.094        2126.280          42.000  
 18 10  1 20 39 44.0010000  0  9G28G30G21G 5S27G 7G17G13G15
  21617171.027      581483.831       -1060.911          48.000  
  22630661.848     2079953.149       -3129.244          42.000  
  25863679.341      102749.0763       -928.727          28.000  
  21842724.383     1979759.807       -3075.240          53.000  
  40051802.045      306418.6172       -449.735          38.000  
  25342055.243     2366065.352       -3488.161          46.000  
  25790167.821     -179162.441        2249.350          32.000  
  20487903.281     -172512.528         128.194          46.000  
  22173246.436    -1495056.091        2127.005          42.000  
 18 10  1 20 39 45.0010000  0  8G28G30G 5S27G 7G17G13G15
  21617373.223      582544.708       -1061.288          48.000  
  22631257.720     2083082.624       -3129.053          42.000  
  21843309.864     1982835.336       -3075.533          53.000  
  40051887.525      306868.2642       -448.996          38.000  
  25342718.909     2369553.516       -3488.141          46.000  
  25789739.706     -181412.215        2250.198          32.000  
  20487878.650     -172641.166         128.339          46.000  
  22172841.661    -1497183.379        2127.084          42.000  
 18 10  1 20 39 46.0010000  0  8G28G30G 5S27G 7G17G13G15
  21617575.331      583606.219       -1062.174          48.000  
  22631853.523     2086212.308       -3130.209          42.000  
  21843895.468     1985911.337       -3076.362          53.000  
  40051972.822      307317.8692       -449.662          38.000  
  25343382.785     2373041.698       -3488.114          46.000  
  25789311.757     -183661.969        2249.686          32.000  
  20487854.011     -172769.389         127.353          46.000  
  22172437.165    -1499310.376        2126.949          42.000  
 18 10  1 20 39 47.0010000  0  8G28G30G 5S27G 7G17G13G15
  21617777.466      584668.855       -1063.207          48.000  
  22632449.701     2089342.675       -3130.595          43.000  
  21844480.826     1988988.310       -3077.055          53.000  
  40052058.581      307768.0002       -448.912          38.000  
  25344046.504     2376530.401       -3488.721          46.000  
  25788884.078     -185911.251        2250.871          32.000  
  20487829.563     -172896.703         127.209          46.000  
  22172032.390    -1501436.602        2125.963          43.000  
 18 10  1 20 39 48.0010000  0  8G28G30G 5S27G 7G17G13G15
  21617980.019      585732.280       -1063.001          48.000  
  22633046.490     2092473.418       -3130.363          43.000  
  21845066.587     1992065.924       -3077.217          53.000  
  40052144.218      308218.3672       -449.469          38.000  
  25344710.258     2380019.307       -3487.881          46.000  
  25788456.313     -188160.356        2252.992          31.000  
  20487805.726     -173023.430         127.326          46.000  
  22171627.946    -1503562.364        2126.462          43.000  
 18 10  1 20 39 49.0010000  0  8G28G30G 5S27G 7G17G13G15
  21618182.756      586795.643       -1063.188          48.000  
  22633643.191     2095603.636       -3129.906          43.000  
  21845652.382     1995143.320       -3077.066          53.000  
  40052229.576      308668.0842       -449.012          38.000  
  25345373.611     2383507.496       -3487.449          46.000  
  25788028.058     -190410.238        2248.836          31.000  
  20487781.226     -173150.457         127.039          46.000  
  22171223.197    -1505688.572        2126.360          43.000  
 18 10  1 20 39 50.0010000  0  8G28G30G 5S27G 7G17G13G15
  21618385.257      587858.887       -1063.970          48.000  
  22634238.924     2098733.349       -3129.981          43.000  
  21846238.561     1998220.445       -3077.516          53.000  
  40052315.169      309117.1522       -449.698          38.000  
  25346036.998     2386994.993       -3487.474          46.000  
  25787600.057     -192660.2893       2250.465          30.000  
  20487757.118     -173277.803         126.691          46.000  
  22170818.718    -1507815.173        2126.494          43.000  
 18 10  1 20 39 51.0010000  0  7G28G30G 5S27G 7G13G15
  21618587.557      588923.481       -1065.096          48.000  
  22634835.521     2101863.964       -3130.897          43.000  
  21846823.797     2001298.763       -3078.603          53.000  
  40052400.501      309566.9692       -449.223          38.000  
  25346700.587     2390483.204       -3488.259          46.000  
  20487732.906     -173404.014         125.736          46.000  
  22170414.493    -1509940.824        2125.756          43.000  
 18 10  1 20 39 52.0010000  0  7G28G30G 5S27G 7G13G15
  21618790.015      589989.147       -1065.502          48.000  
  22635432.231     2104995.236       -3131.064          44.000  
  21847410.142     2004377.997       -3079.231          53.000  
  40052486.478      310017.1382       -450.083          38.000  
  25347364.550     2393971.880       -3488.878          46.000  
  20487709.156     -173529.372         125.510          46.000  
  22170010.005    -1512065.743        2125.577          43.000  
 18 10  1 20 39 53.0010000  0  8G28G30G 5S27G 7G17G13G15
  21618992.882      591054.732       -1065.377          48.000  
  22636028.566     2108125.986       -3131.174          44.000  
  21847995.920     2007457.004       -3078.812          53.000  
  40052571.644      310466.6072       -448.943          38.000  
  25348028.505     2397459.891       -3487.529          46.000  
  25786317.125     -199409.8112       2248.722          30.000  
  20487685.232     -173655.008         125.872          46.000  
  22169605.466    -1514191.081        2125.493          43.000  
 18 10  1 20 39 54.0010000  0  7G28G30G 5S27G 7G13G15
  21619195.427      592120.302       -1065.606          48.000  
  22636624.771     2111256.298       -3130.341          44.000  
  21848582.116     2010535.834       -3078.923          53.000  
  40052657.080      310915.4872       -449.064          38.000  
  25348692.311     2400947.245       -3487.099          46.000  
  20487661.395     -173780.899         125.739          46.000  
  22169200.507    -1516316.786        2125.438          43.000  
 18 10  1 20 39 55.0010000  0  7G28G30G 5S27G 7G13G15
  21619398.582      593187.032       -1067.320          48.000  
  22637221.341     2114387.360       -3131.638          44.000  
  21849168.147     2013615.677       -3080.445          53.000  
  40052742.342      311364.9432       -450.633          38.000  
  25349356.283     2404435.176       -3487.891          46.000  
  20487637.384     -173905.831         124.132          46.000  
  22168796.081    -1518441.667        2124.586          43.000  
 18 10  1 20 39 56.0010000  0  7G28G30G 5S27G 7G13G15
  21619601.982      594255.342       -1068.779          48.000  
  22637817.964     2117519.567       -3132.795          44.000  
  21849754.308     2016696.958       -3081.812          53.000  
  40052828.554      311815.4682       -450.876          38.000  
  25350020.246     2407924.061       -3489.041          46.000  
  20487614.323     -174029.395         123.027          46.000  
  22168391.812    -1520565.324        2123.525          43.000  
 18 10  1 20 39 57.0010000  0  8G28G30G 5S27G 7G17G13G15
  21619805.486      595324.037       -1068.580          48.000  
  22638414.718     2120651.721       -3131.784          44.000  
  21850340.514     2019778.455       -3081.146          53.000  
  40052914.628      312265.8332       -448.773          38.000  
  25350684.340     2411412.738       -3488.080          46.000  
  25784604.840     -208409.7892       2247.561          30.000  
  20487590.992     -174152.775         123.921          46.000  
  22167987.691    -1522688.931        2123.997          43.000  
 18 10  1 20 39 58.0010000  0  8G28G30G 5S27G 7G17G13G15
  21620009.069      596392.575       -1068.554          48.000  
  22639010.756     2123783.313       -3131.553          45.000  
  21850926.754     2022859.645       -3081.240          53.000  
  40053000.204      312715.4762       -448.840          38.000  
  25351348.199     2414900.644       -3487.398          46.000  
  25784176.594     -210660.1012       2251.199          30.000  
  20487567.400     -174276.532         123.571          46.000  
  22167583.081    -1524813.048        2124.017          42.000  
 18 10  1 20 39 59.0010000  0  8G28G30G 5S27G 7G17G13G15
  21620212.905      597461.885       -1070.389          48.000  
  22639607.048     2126915.227       -3132.860          45.000  
  21851513.369     2025941.453       -3082.759          53.000  
  40053085.832      313165.1192       -449.977          38.000  
  25352011.534     2418388.715       -3488.743          45.000  
  25783748.279     -212910.3352       2249.290          31.000  
  20487544.261     -174399.731         122.561          46.000  
  22167178.873    -1526936.716        2122.662          43.000  
 18 10  1 20 40  0.0010000  0  8G28G30G 5S27G 7G17G13G15
  21620416.802      598532.694       -1071.361          48.000  
  22640204.656     2130048.213       -3133.375          45.000  
  21852100.159     2029024.601       -3083.760          53.000  
  40053171.530      313615.5312       -450.785          38.000  
  25352675.716     2421877.680       -3489.194          45.000  
  25783319.998     -215159.7552       2246.346          32.000  
  20487520.860     -174521.651         121.368          46.000  
  22166774.377    -1529059.232        2122.823          43.000  
 18 10  1 20 40  1.0010000  0  8G28G30G 5S27G 7G17G13G15
  21620620.438      599603.865       -1070.592          48.000  
  22640801.847     2133181.152       -3132.001          45.000  
  21852686.687     2032107.971       -3082.980          53.000  
  40053257.158      314065.6562       -450.037          38.000  
  25353339.548     2425366.386       -3488.284          45.000  
  25782891.665     -217409.3552       2249.220          32.000  
  20487498.026     -174643.411         121.983          46.000  
  22166370.492    -1531181.731        2122.956          42.000  
 18 10  1 20 40  2.0010000  0  8G28G30G 5S27G 7G17G13G15
  21620824.492      600675.065       -1071.460          48.000  
  22641398.295     2136313.693       -3132.661          46.000  
  21853273.503     2035191.229       -3083.219          53.000  
  40053342.524      314515.2202       -449.126          38.000  
  25354003.320     2428854.540       -3488.054          45.000  
  25782463.219     -219659.5522       2251.387          32.000  
  20487474.739     -174765.345         121.812          46.000  
  22165966.746    -1533304.538        2122.702          43.000  
 18 10  1 20 40  3.0010000  0  8G28G30G 5S27G 7G17G13G15
  21621028.598      601746.981       -1072.414          48.000  
  22641994.726     2139446.525       -3133.165          46.000  
  21853860.336     2038275.021       -3084.297          53.000  
  40053427.908      314964.8982       -449.423          38.000  
  25354667.667     2432342.782       -3488.208          45.000  
  25782034.929     -221909.7392       2251.608          32.000  
  20487451.713     -174886.792         120.950          46.000  
  22165562.399    -1535426.990        2121.965          42.000  
 18 10  1 20 40  4.0010000  0  8G28G30G 5S27G 7G17G13G15
  21621232.731      602819.875       -1072.700          48.000  
  22642591.253     2142579.895       -3133.356          46.000  
  21854447.387     2041359.643       -3084.886          53.000  
  40053513.816      315415.0652       -450.237          38.000  
  25355331.901     2435831.390       -3488.849          45.000  
  25781606.413     -224159.5292       2248.854          32.000  
  20487429.237     -175007.481         120.404          46.000  
  22165158.077    -1537548.787        2121.709          42.000  
 18 10  1 20 40  5.0010000  0  8G28G30G 5S27G 7G17G13G15
  21621437.029      603893.407       -1073.523          48.000  
  22643188.190     2145713.480       -3133.607          46.000  
  21855034.709     2044444.748       -3085.541          53.000  
  40053599.959      315865.4022       -449.186          38.000  
  25355995.812     2439320.042       -3488.612          45.000  
  25781177.905     -226409.3832       2251.604          32.000  
  20487406.238     -175127.732         120.260          46.000  
  22164754.427    -1539670.307        2121.260          42.000  
 18 10  1 20 40  6.0010000  0  8G28G30G 5S27G 7G17G13G15
  21621641.956      604967.355       -1073.993          49.000  
  22643785.162     2148847.043       -3133.208          46.000  
  21855621.569     2047530.105       -3085.256          53.000  
  40053685.526      316315.5382       -449.892          38.000  
  25356659.644     2442808.479       -3488.342          45.000  
  25780749.607     -228659.4062       2249.950          32.000  
  20487383.553     -175247.789         120.119          46.000  
  22164350.298    -1541791.757        2121.770          42.000  
 18 10  1 20 40  7.0010000  0  8G28G30G 5S27G 7G17G13G15
  21621846.630      606041.412       -1075.060          48.000  
  22644381.392     2151980.307       -3133.630          46.000  
  21856208.978     2050615.432       -3086.094          53.000  
  40053770.988      316765.1492       -449.038          38.000  
  25357322.796     2446296.419       -3488.441          45.000  
  25780321.100     -230910.416        2250.738          32.000  
  20487361.016     -175367.944         119.621          46.000  
  22163946.971    -1543913.424        2120.666          42.000  
 18 10  1 20 40  8.0010000  0  8G28G30G 5S27G 7G17G13G15
  21622050.989      607116.657       -1075.982          48.000  
  22644977.614     2155114.318       -3134.358          46.000  
  21856796.431     2053701.795       -3086.729          53.000  
  40053856.774      317215.3002       -450.341          38.000  
  25357986.698     2449784.954       -3488.487          45.000  
  25779892.322     -233160.375        2249.756          32.000  
  20487338.322     -175487.112         118.608          46.000  
  22163543.068    -1546034.244        2119.996          42.000  
 18 10  1 20 40  9.0010000  0  8G28G30G 5S27G 7G17G13G15
  21622255.654      608192.470       -1075.517          48.000  
  22645574.464     2158248.464       -3133.255          47.000  
  21857383.875     2056788.550       -3086.553          53.000  
  40053942.568      317665.5172       -449.750          38.000  
  25358650.688     2453273.446       -3487.852          45.000  
  25779464.172     -235410.439        2249.786          32.000  
  20487316.369     -175605.943         119.673          47.000  
  22163139.096    -1548154.855        2120.842          42.000  
 18 10  1 20 40 10.0010000  0  8G28G30G 5S27G 7G17G13G15
  21622460.275      609268.226       -1075.649          48.000  
  22646171.209     2161382.134       -3133.480          47.000  
  21857971.363     2059875.115       -3086.210          53.000  
  40054028.004      318115.0452       -449.440          38.000  
  25359314.258     2456761.273       -3487.404          45.000  
  25779035.551     -237661.206        2250.076          32.000  
  20487293.989     -175725.027         119.311          47.000  
  22162735.629    -1550275.842        2120.957          42.000  
 18 10  1 20 40 11.0010000  0  8G28G30G 5S27G 7G17G13G15
  21622665.054      610344.204       -1076.561          48.000  
  22646767.692     2164515.595       -3133.674          47.000  
  21858558.868     2062961.727       -3086.730          53.000  
  40054113.039      318564.1802       -449.635          38.000  
  25359977.925     2460248.704       -3487.319          45.000  
  25778607.087     -239912.402        2251.817          33.000  
  20487271.505     -175844.104         118.776          47.000  
  22162331.377    -1552396.967        2120.725          42.000  
 18 10  1 20 40 12.0010000  0  8G28G30G 5S27G 7G17G13G15
  21622870.216      611421.388       -1077.987          48.000  
  22647364.280     2167649.841       -3134.700          47.000  
  21859146.469     2066049.398       -3088.241          54.000  
  40054198.344      319013.9042       -449.616          38.000  
  25360641.461     2463736.747       -3488.320          45.000  
  25778179.094     -242162.924        2250.102          32.000  
  20487248.924     -175962.179         118.052          47.000  
  22161927.562    -1554517.238        2119.512          42.000  
 18 10  1 20 40 13.0010000  0  8G28G30G 5S27G 7G17G13G15
  21623075.509      612499.750       -1078.783          49.000  
  22647961.252     2170784.842       -3135.410          47.000  
  21859734.323     2069138.087       -3088.937          54.000  
  40054283.894      319464.1312       -450.458          38.000  
  25361305.651     2467225.356       -3488.687          45.000  
  25777751.337     -244413.012        2249.837          33.000  
  20487226.544     -176079.301         117.060          47.000  
  22161524.366    -1556636.648        2118.795          42.000  
 18 10  1 20 40 14.0010000  0  8G28G30G 5S27G 7G17G13G15
  21623280.584      613578.216       -1078.626          49.000  
  22648558.102     2173919.514       -3134.755          47.000  
  21860322.230     2072226.721       -3088.624          54.000  
  40054369.758      319913.9192       -449.203          38.000  
  25361969.641     2470713.456       -3487.836          45.000  
  25777323.955     -246663.574        2250.552          32.000  
  20487204.636     -176196.520         117.153          47.000  
  22161120.873    -1558756.305        2119.988          42.000  
 18 10  1 20 40 15.0010000  0  8G28G30G 5S27G 7G17G13G15
  21623485.955      614656.842       -1079.029          48.000  
  22649154.428     2177053.924       -3134.711          47.000  
  21860909.761     2075315.360       -3088.761          54.000  
  40054455.194      320363.3022       -449.417          38.000  
  25362633.316     2474201.118       -3487.614          45.000  
  25776896.285     -248914.649        2250.898          31.000  
  20487182.343     -176313.797         117.179          47.000  
  22160717.154    -1560876.145        2120.034          41.000  
 18 10  1 20 40 16.0010000  0  8G28G30G 5S27G 7G17G13G15
  21623691.344      615736.347       -1080.812          48.000  
  22649751.077     2180188.773       -3135.318          47.000  
  21861498.104     2078404.711       -3089.944          54.000  
  40054541.049      320812.9632       -449.728          38.000  
  25363296.983     2477689.024       -3488.452          45.000  
  25776468.711     -251165.495        2250.746          31.000  
  20487160.129     -176430.413         115.832          47.000  
  22160313.295    -1562995.463        2119.197          41.000  
 18 10  1 20 40 17.0010000  0  7G28G30G 5S27G 7G13G15
  21623897.135      616816.985       -1081.525          48.000  
  22650347.517     2183324.363       -3136.362          47.000  
  21862086.220     2081495.088       -3090.942          54.000  
  40054626.887      321263.1192       -449.504          38.000  
  25363960.894     2481177.496       -3488.507          45.000  
  20487138.168     -176546.074         114.991          47.000  
  22159909.680    -1565113.959        2117.990          41.000  
 18 10  1 20 40 18.0010000  0  7G28G30G 5S27G 7G13G15
  21624102.707      617898.277       -1081.167          49.000  
  22650944.550     2186460.129       -3135.752          47.000  
  21862674.231     2084585.915       -3090.642          54.000  
  40054712.384      321713.2792       -449.093          38.000  
  25364624.674     2484665.981       -3488.105          45.000  
  20487115.910     -176661.321         115.623          47.000  
  22159505.978    -1567232.186        2118.444          41.000  
 18 10  1 20 40 19.0010000  0  7G28G30G 5S27G 7G13G15
  21624308.271      618979.431       -1081.567          48.000  
  22651540.519     2189595.378       -3135.168          47.000  
  21863262.443     2087676.489       -3090.695          54.000  
  40054798.021      322162.8002       -450.069          38.000  
  25365288.497     2488153.753       -3487.578          45.000  
  20487093.862     -176776.899         115.307          47.000  
  22159102.878    -1569350.827        2118.000          40.000  
 18 10  1 20 40 20.0010000  0  7G28G30G 5S27G 7G13G15
  21624514.340      620061.422       -1082.547          49.000  
  22652136.950     2192731.011       -3136.108          47.000  
  21863850.812     2090767.710       -3092.070          54.000  
  40054883.571      322612.4732       -450.176          38.000  
  25365952.993     2491641.712       -3488.284          46.000  
  20487071.813     -176891.865         114.326          47.000  
  22158700.013    -1571469.043        2117.508          41.000  
 18 10  1 20 40 21.0010000  0  7G28G30G 5S27G 7G13G15
  21624720.157      621144.574       -1083.684          49.000  
  22652733.843     2195867.379       -3136.485          47.000  
  21864439.242     2093859.952       -3092.790          54.000  
  40054969.530      323062.7102       -450.952          38.000  
  25366617.593     2495130.228       -3489.009          46.000  
  20487050.559     -177005.884         113.688          47.000  
  22158297.079    -1573586.399        2117.144          40.000  
 18 10  1 20 40 22.0010000  0  7G28G30G 5S27G 7G13G15
  21624925.947      622228.284       -1084.117          48.000  
  22653331.077     2199003.887       -3136.680          47.000  
  21865027.926     2096952.623       -3092.632          54.000  
  40055055.220      323512.8772       -449.311          38.000  
  25367282.124     2498618.714       -3488.444          46.000  
  20487028.624     -177119.548         113.431          47.000  
  22157894.049    -1575703.536        2116.962          40.000  
 18 10  1 20 40 23.0010000  0  7G28G30G 5S27G 7G13G15
  21625132.305      623312.504       -1083.660          48.000  
  22653927.857     2202140.461       -3136.192          47.000  
  21865616.565     2100045.605       -3093.065          54.000  
  40055140.455      323962.8602       -450.416          38.000  
  25367946.209     2502107.084       -3488.049          46.000  
  20487006.750     -177232.915         113.535          47.000  
  22157491.053    -1577820.542        2116.772          40.000  
 18 10  1 20 40 24.0010000  0  7G28G30G 5S27G 7G13G15
  21625338.741      624397.242       -1084.797          48.000  
  22654525.125     2205277.129       -3136.713          47.000  
  21866205.536     2103138.968       -3093.436          54.000  
  40055226.450      324412.8422       -448.725          38.000  
  25368610.242     2505595.372       -3488.075          46.000  
  20486985.356     -177345.975         113.261          47.000  
  22157088.110    -1579937.352        2116.497          40.000  
 18 10  1 20 40 25.0010000  0  7G28G30G 5S27G 7G13G15
  21625545.552      625482.776       -1086.173          48.000  
  22655122.394     2208414.181       -3137.499          48.000  
  21866794.228     2106232.998       -3094.168          53.000  
  40055312.410      324863.0682       -449.537          38.000  
  25369274.677     2509083.841       -3488.759          46.000  
  20486963.587     -177458.444         112.213          46.000  
  22156685.551    -1582053.696        2116.122          40.000  
 18 10  1 20 40 26.0010000  0  7G28G30G 5S27G 7G13G15
  21625752.215      626569.108       -1085.734          48.000  
  22655719.654     2211551.580       -3136.562          48.000  
  21867382.867     2109327.640       -3094.038          53.000  
  40055398.230      325313.4642       -450.307          38.000  
  25369939.129     2512572.490       -3487.963          46.000  
  20486942.333     -177570.342         112.516          46.000  
  22156283.010    -1584169.592        2116.957          40.000  
 18 10  1 20 40 27.0010000  0  7G28G30G 5S27G 7G13G15
  21625958.704      627655.182       -1086.340          48.000  
  22656316.835     2214688.301       -3136.583          48.000  
  21867971.821     2112421.900       -3094.108          53.000  
  40055483.370      325763.1952       -449.343          38.000  
  25370603.179     2516060.293       -3487.386          46.000  
  20486920.468     -177682.693         112.679          46.000  
  22155880.800    -1586286.075        2116.691          40.000  
 18 10  1 20 40 28.0010000  0  7G28G30G 5S27G 7G13G15
  21626165.087      628741.572       -1086.659          48.000  
  22656914.078     2217824.921       -3136.996          48.000  
  21868560.207     2115516.292       -3095.140          53.000  
  40055568.980      326212.6002       -450.375          38.000  
  25371266.811     2519547.798       -3487.830          46.000  
  20486898.986     -177794.936         111.665          46.000  
  22155478.101    -1588402.610        2116.286          40.000  
 18 10  1 20 40 29.0010000  0  7G28G30G 5S27G 7G13G15
  21626372.317      629829.297       -1088.503          48.000  
  22657511.346     2220962.425       -3137.981          48.000  
  21869149.405     2118611.871       -3095.999          53.000  
  40055654.731      326662.7052       -450.638          38.000  
  25371930.949     2523036.029       -3488.602          46.000  
  20486877.811     -177906.055         110.788          46.000  
  22155075.969    -1590518.144        2114.448          40.000  
 18 10  1 20 40 30.0010000  0  7G28G30G 5S27G 7G13G15
  21626579.251      630917.875       -1088.736          48.000  
  22658109.069     2224100.373       -3137.947          48.000  
  21869738.498     2121708.157       -3096.167          53.000  
  40055740.411      327113.0132       -449.255          38.000  
  25372595.104     2526524.495       -3488.029          47.000  
  20486856.879     -178016.531         110.517          46.000  
  22154674.004    -1592633.158        2115.237          40.000  
 18 10  1 20 40 31.0010000  0  7G28G30G 5S27G 7G13G15
  21626786.638      632006.533       -1089.076          48.000  
  22658706.355     2227237.992       -3137.648          48.000  
  21870327.958     2124804.382       -3096.353          53.000  
  40055825.638      327562.7462       -448.663          38.000  
  25373259.434     2530012.458       -3488.087          46.000  
  20486835.825     -178127.122         110.455          46.000  
  22154271.924    -1594748.442        2114.939          40.000  
 18 10  1 20 40 32.0010000  0  7G28G30G 5S27G 7G13G15
  21626994.348      633095.469       -1089.452          48.000  
  22659303.492     2230375.442       -3137.763          48.000  
  21870917.060     2127900.720       -3096.381          53.000  
  40055911.162      328012.1552       -449.713          38.000  
  25373922.979     2533500.078       -3487.570          46.000  
  20486814.815     -178237.655         110.187          46.000  
  22153869.645    -1596863.752        2115.228          41.000  
 18 10  1 20 40 33.0010000  0  7G28G30G 5S27G 7G13G15
  21627201.892      634185.726       -1091.148          48.000  
  22659900.621     2233513.783       -3138.807          48.000  
  21871506.275     2130998.215       -3097.898          53.000  
  40055996.929      328462.2532       -452.038          38.000  
  25374586.741     2536988.409       -3488.666          46.000  
  20486794.006     -178347.079         108.637          46.000  
  22153467.827    -1598978.114        2113.448          41.000  
 18 10  1 20 40 34.0010000  0  7G28G30G 5S27G 7G13G15
  21627409.672      635277.199       -1091.084          48.000  
  22660497.750     2236652.895       -3139.230          48.000  
  21872095.683     2134096.752       -3098.842          53.000  
  40056082.627      328912.9992       -450.824          38.000  
  25375251.054     2540477.333       -3488.620          46.000  
  20486773.179     -178455.519         108.194          46.000  
  22153065.983    -1601091.613        2113.610          41.000  
 18 10  1 20 40 35.0010000  0  7G28G30G 5S27G 7G13G15
  21627617.591      636368.756       -1092.549          49.000  
  22661094.967     2239791.687       -3138.864          48.000  
  21872685.308     2137195.261       -3098.428          53.000  
  40056168.195      329363.2622       -449.597          38.000  
  25375914.825     2543965.759       -3488.428          46.000  
  20486752.998     -178564.032         108.788          46.000  
  22152663.581    -1603205.354        2113.577          41.000  
 18 10  1 20 40 36.0010000  0  7G28G30G 5S27G 7G13G15
  21627825.214      637460.563       -1091.812          49.000  
  22661692.322     2242930.276       -3138.450          48.000  
  21873274.933     2140293.811       -3098.934          53.000  
  40056253.989      329813.1722       -449.602          38.000  
  25376578.980     2547453.798       -3487.640          46.000  
  20486732.250     -178672.557         108.462          46.000  
  22152262.087    -1605319.185        2113.395          41.000  
 18 10  1 20 40 37.0010000  0  7G28G30G 5S27G 7G13G15
  21628033.159      638553.412       -1093.359          49.000  
  22662289.451     2246069.505       -3139.227          47.000  
  21873864.184     2143393.286       -3099.754          53.000  
  40056339.268      330263.6082       -452.098          38.000  
  25377242.769     2550942.291       -3488.576          46.000  
  20486711.728     -178780.242         107.258          46.000  
  22151860.470    -1607432.313        2112.971          42.000  
 18 10  1 20 40 38.0010000  0  7G28G30G 5S27G 7G13G15
  21628241.550      639647.147       -1094.080          49.000  
  22662886.615     2249209.167       -3139.631          47.000  
  21874454.271     2146493.449       -3100.373          53.000  
  40056425.167      330714.2522       -451.277          38.000  
  25377906.689     2554431.032       -3488.421          46.000  
  20486691.303     -178887.251         107.010          46.000  
  22151458.853    -1609544.934        2112.524          42.000  
 18 10  1 20 40 39.0010000  0  7G28G30G 5S27G 7G13G15
  21628449.548      640741.061       -1093.842          48.000  
  22663483.744     2252348.586       -3139.777          47.000  
  21875044.185     2149593.651       -3100.290          53.000  
  40056510.629      331164.4812       -450.248          38.000  
  25378570.705     2557919.342       -3488.452          46.000  
  20486670.816     -178994.304         106.808          46.000  
  22151057.402    -1611657.700        2113.051          42.000  
 18 10  1 20 40 40.0010000  0  7G28G30G 5S27G 7G13G15
  21628657.607      641835.057       -1094.176          48.000  
  22664081.004     2255487.664       -3139.177          47.000  
  21875634.403     2152693.790       -3100.401          53.000  
  40056596.283      331614.1742       -450.099          38.000  
  25379234.153     2561407.155       -3488.071          46.000  
  20486650.295     -179101.480         106.659          46.000  
  22150655.890    -1613770.692        2113.740          42.000  
 18 10  1 20 40 41.0010000  0  7G28G30G 5S27G 7G13G15
  21628865.561      642930.067       -1095.841          48.000  
  22664678.526     2258627.326       -3140.129          47.000  
  21876224.169     2155794.777       -3101.354          53.000  
  40056682.287      332064.2672       -449.192          38.000  
  25379897.322     2564895.362       -3488.792          46.000  
  20486629.572     -179207.845         105.959          46.000  
  22150254.335    -1615883.041        2111.768          42.000  
 18 10  1 20 40 42.0010000  0  7G28G30G 5S27G 7G13G15
  21629074.187      644026.250       -1096.829          48.000  
  22665275.533     2261767.737       -3140.753          47.000  
  21876814.570     2158896.788       -3102.448          53.000  
  40056767.828      332514.8832       -450.425          38.000  
  25380561.408     2568384.127       -3489.175          46.000  
  20486609.993     -179313.242         105.033          46.000  
  22149853.233    -1617994.551        2110.666          42.000  
 18 10  1 20 40 43.0010000  0  7G28G30G 5S27G 7G13G15
  21629282.473      645122.909       -1097.446          48.000  
  22665872.862     2264908.189       -3140.490          47.000  
  21877404.693     2161999.113       -3102.294          53.000  
  40056853.552      332965.3412       -450.531          38.000  
  25381225.659     2571872.762       -3488.447          46.000  
  20486589.725     -179418.387         105.211          46.000  
  22149451.485    -1620105.917        2112.043          42.000  
 18 10  1 20 40 44.0010000  0  7G28G30G 5S27G 7G13G15
  21629491.012      646219.432       -1096.958          48.000  
  22666470.209     2268048.099       -3139.491          47.000  
  21877994.912     2165101.179       -3101.857          53.000  
  40056938.840      333415.1532       -449.687          38.000  
  25381889.020     2575360.676       -3487.418          46.000  
  20486569.465     -179523.853         105.702          46.000  
  22149049.772    -1622217.754        2111.745          42.000  
 18 10  1 20 40 45.0010000  0  7G28G30G 5S27G 7G13G15
  21629699.646      647316.867       -1098.159          48.000  
  22667067.382     2271188.462       -3141.475          46.000  
  21878585.270     2168203.956       -3103.507          53.000  
  40057024.669      333865.2462       -449.733          38.000  
  25382552.809     2578848.862       -3488.688          46.000  
  20486548.987     -179628.647         103.957          46.000  
  22148648.784    -1624329.034        2110.344          43.000  
 18 10  1 20 40 46.0010000  0  7G28G30G 5S27G 7G13G15
  21629908.892      648415.457       -1099.379          48.000  
  22667664.633     2274329.603       -3141.215          46.000  
  21879175.943     2171307.786       -3104.220          53.000  
  40057110.437      334316.0072       -451.149          38.000  
  25383216.293     2582337.644       -3489.146          45.000  
  20486529.338     -179732.447         103.638          46.000  
  22148247.324    -1626439.449        2109.931          42.000  
 18 10  1 20 40 47.0010000  0  7G28G30G 5S27G 7G13G15
  21630117.579      649514.512       -1099.596          48.000  
  22668261.658     2277470.753       -3140.677          46.000  
  21879766.545     2174411.917       -3103.946          53.000  
  40057196.475      334766.6632       -450.722          38.000  
  25383880.073     2585826.276       -3488.285          45.000  
  20486509.349     -179836.000         103.602          46.000  
  22147845.768    -1628549.778        2110.436          43.000  
 18 10  1 20 40 48.0010000  0  7G28G30G 5S27G 7G13G15
  21630326.476      650613.493       -1100.239          48.000  
  22668858.795     2280611.383       -3141.010          46.000  
  21880357.383     2177515.791       -3103.979          53.000  
  40057281.798      335216.6302       -450.504          38.000  
  25384543.312     2589314.199       -3487.856          45.000  
  20486489.421     -179939.858         103.607          46.000  
  22147444.736    -1630660.515        2110.495          43.000  
 18 10  1 20 40 49.0010000  0  7G28G30G 5S27G 7G13G15
  21630535.878      651713.356       -1100.602          48.000  
  22669455.497     2283752.466       -3141.492          45.000  
  21880947.855     2180620.367       -3105.500          53.000  
  40057367.827      335666.9192       -450.339          38.000  
  25385207.153     2592802.385       -3488.672          45.000  
  20486469.720     -180043.068         102.059          46.000  
  22147043.556    -1632770.724        2109.592          43.000  
 18 10  1 20 40 50.0010000  0  7G28G30G 5S27G 7G13G15
  21630745.822      652814.350       -1101.461          48.000  
  22670052.940     2286894.293       -3141.722          45.000  
  21881538.693     2183725.965       -3105.849          53.000  
  40057453.560      336117.7342       -450.315          38.000  
  25385870.855     2596291.106       -3488.975          45.000  
  20486450.333     -180145.301         102.092          46.000  
  22146642.567    -1634880.113        2108.943          43.000  
 18 10  1 20 40 51.0010000  0  7G28G30G 5S27G 7G13G15
  21630955.635      653915.650       -1101.433          49.000  
  22670650.278     2290035.961       -3141.031          45.000  
  21882129.671     2186831.679       -3105.596          53.000  
  40057539.354      336568.2142       -450.514          38.000  
  25386534.530     2599779.518       -3487.990          45.000  
  20486430.989     -180247.457         102.489          46.000  
  22146241.116    -1636989.551        2109.302          43.000  
 18 10  1 20 40 52.0010000  0  7G28G30G 5S27G 7G13G15
  21631165.421      655017.012       -1101.563          49.000  
  22671247.050     2293177.280       -3140.845          45.000  
  21882720.605     2189937.322       -3105.665          53.000  
  40057625.061      337018.1002       -449.147          38.000  
  25387197.673     2603267.419       -3487.397          45.000  
  20486411.680     -180349.751         102.452          46.000  
  22145839.700    -1639099.247        2109.870          43.000  
 18 10  1 20 40 53.0010000  0  7G28G30G 5S27G 7G13G15
  21631374.963      656118.911       -1102.499          49.000  
  22671844.065     2296318.697       -3141.740          44.000  
  21883311.557     2193043.311       -3106.354          53.000  
  40057710.375      337467.8072       -450.483          38.000  
  25387860.546     2606755.209       -3488.144          45.000  
  20486391.953     -180451.745         101.474          46.000  
  22145438.528    -1641208.790        2109.271          43.000  
 18 10  1 20 40 54.0010000  0  8G28G30G 5S27G 7G17G13G15
  21631584.767      657222.118       -1103.367          49.000  
  22672441.447     2299460.998       -3143.020          44.000  
  21883902.936     2196150.452       -3107.695          53.000  
  40057795.977      337918.2032       -451.143          37.000  
  25388524.126     2610243.702       -3489.014          45.000  
  25760152.565     -336699.8053       2251.245          30.000  
  20486373.107     -180552.634         100.765          46.000  
  22145037.383    -1643317.342        2107.882          43.000  
 18 10  1 20 40 55.0010000  0  8G28G30G 5S27G 7G17G13G15
  21631794.545      658325.987       -1103.707          49.000  
  22673038.777     2302603.546       -3142.433          44.000  
  21884493.678     2199258.127       -3107.424          53.000  
  40057881.518      338368.6822       -449.771          38.000  
  25389188.194     2613732.272       -3488.049          45.000  
  25759725.306     -338950.7013       2251.435          30.000  
  20486353.719     -180653.063         100.539          46.000  
  22144636.150    -1645425.536        2108.158          43.000  
 18 10  1 20 40 56.0010000  0  8G28G30G 5S27G 7G17G13G15
  21632004.855      659430.234       -1103.831          49.000  
  22673636.002     2305746.012       -3142.297          43.000  
  21885085.031     2202366.009       -3107.878          53.000  
  40057967.347      338819.0072       -450.311          38.000  
  25389852.017     2617220.591       -3487.925          45.000  
  25759297.365     -341201.9143       2251.029          30.000  
  20486334.655     -180753.316         100.806          46.000  
  22144234.865    -1647533.740        2108.421          44.000  
 18 10  1 20 40 57.0010000  0  8G28G30G 5S27G 7G17G13G15
  21632215.191      660535.118       -1105.054          48.000  
  22674232.459     2308888.714       -3142.996          43.000  
  21885676.672     2205474.368       -3108.211          53.000  
  40058052.993      339269.3742       -450.891          38.000  
  25390515.283     2620708.938       -3487.900          45.000  
  25758868.587     -343453.1483       2251.207          30.000  
  20486315.617     -180853.159         100.460          46.000  
  22143834.260    -1649641.615        2107.662          44.000  
 18 10  1 20 40 58.0010000  0  8G28G30G 5S27G 7G17G13G15
  21632425.440      661640.787       -1106.375          48.000  
  22674829.492     2312031.774       -3143.957          42.000  
  21886268.235     2208583.369       -3109.243          53.000  
  40058138.970      339720.0042       -451.355          38.000  
  25391179.054     2624197.477       -3488.766          45.000  
  25758440.141     -345704.2023       2250.681          30.000  
  20486296.797     -180952.422          98.772          46.000  
  22143433.777    -1651749.031        2106.866          44.000  
 18 10  1 20 40 59.0010000  0  8G28G30G 5S27G 7G17G13G15
  21632635.994      662747.285       -1106.362          48.000  
  22675426.691     2315175.210       -3142.843          42.000  
  21886859.910     2211693.016       -3109.329          53.000  
  40058224.860      340170.8462       -450.958          38.000  
  25391843.105     2627686.226       -3488.199          45.000  
  25758005.866     -347954.9953       2250.080          30.000  
  20486278.247     -181051.063          99.361          46.000  
  22143033.304    -1653855.984        2107.427          44.000  
 18 10  1 20 41  0.0010000  0  8G28G30G 5S27G 7G17G13G15
  21632846.409      663853.564       -1106.335          48.000  
  22676024.614     2318318.007       -3142.397          42.000  
  21887451.639     2214802.285       -3109.008          53.000  
  40058310.392      340620.8752       -449.291          38.000  
  25392506.414     2631174.148       -3487.470          45.000  
  25757569.096     -350206.6662       2253.167          30.000  
  20486259.471     -181150.143          99.326          46.000  
  22142632.429    -1655963.497        2107.452          44.000  
 18 10  1 20 41  1.0010000  0  8G28G30G 5S27G 7G17G13G15
  21633057.138      664960.198       -1107.201          49.000  
  22676621.847     2321460.712       -3142.938          42.000  
  21888043.454     2217911.729       -3109.877          53.000  
  40058396.212      341070.5292       -449.746          38.000  
  25393169.871     2634661.797       -3487.572          44.000  
  25757128.041     -352458.6082       2249.230          30.000  
  20486240.947     -181249.089          98.585          46.000  
  22142231.353    -1658070.998        2107.198          44.000  
 18 10  1 20 41  2.0010000  0  8G28G30G 5S27G 7G17G13G15
  21633267.509      666068.005       -1108.395          49.000  
  22677219.622     2324604.213       -3143.446          42.000  
  21888635.426     2221022.247       -3110.587          53.000  
  40058482.006      341520.7732       -450.244          38.000  
  25393832.988     2638150.042       -3488.304          44.000  
  25756688.174     -354709.9882       2251.089          30.000  
  20486221.866     -181347.023          97.049          46.000  
  22141830.565    -1660177.624        2106.721          45.000  
 18 10  1 20 41  3.0010000  0  8G28G30G 5S27G 7G17G13G15
  21633478.770      667176.871       -1108.907          48.000  
  22677817.528     2327748.314       -3144.402          42.000  
  21889227.364     2224133.648       -3111.540          53.000  
  40058567.914      341971.4762       -450.456          38.000  
  25394497.169     2641638.718       -3488.724          44.000  
  25756249.283     -356960.9492       2252.612          30.000  
  20486203.517     -181444.118          96.998          46.000  
  22141430.047    -1662283.557        2105.980          45.000  
 18 10  1 20 41  4.0010000  0  8G28G30G 5S27G 7G17G13G15
  21633689.551      668285.943       -1109.293          49.000  
  22678415.739     2330892.197       -3144.283          42.000  
  21889819.197     2227245.103       -3111.524          53.000  
  40058653.821      342421.7892       -449.312          38.000  
  25395161.063     2645127.003       -3488.247          44.000  
  25755817.992     -359212.3362       2250.134          31.000  
  20486184.670     -181541.201          97.048          46.000  
  22141029.521    -1664389.620        2106.059          45.000  
 18 10  1 20 41  5.0010000  0  8G28G30G 5S27G 7G17G13G15
  21633900.917      669395.423       -1110.081          49.000  
  22679013.766     2334036.076       -3143.583          42.000  
  21890411.230     2230356.822       -3112.056          52.000  
  40058739.589      342872.0782       -450.180          38.000  
  25395824.747     2648615.100       -3488.483          44.000  
  25755386.204     -361463.9732       2252.110          31.000  
  20486166.644     -181638.085          96.221          46.000  
  22140628.952    -1666495.595        2106.068          45.000  
 18 10  1 20 41  6.0010000  0  8G28G30G 5S27G 7G17G13G15
  21634112.039      670506.010       -1111.563          49.000  
  22679611.515     2337180.645       -3144.738          42.000  
  21891003.473     2233469.493       -3113.595          52.000  
  40058825.278      343322.9222       -452.255          38.000  
  25396488.614     2652103.684       -3489.349          45.000  
  25754957.348     -363715.0532       2248.842          31.000  
  20486148.252     -181734.065          95.279          46.000  
  22140228.530    -1668600.815        2104.223          45.000  
 18 10  1 20 41  7.0010000  0  8G28G30G 5S27G 7G17G13G15
  21634322.846      671617.453       -1111.341          49.000  
  22680209.377     2340325.612       -3144.832          42.000  
  21891595.969     2236582.843       -3113.066          52.000  
  40058911.116      343773.9692       -450.268          38.000  
  25397152.333     2655592.510       -3488.287          44.000  
  25754528.596     -365966.480        2251.943          31.000  
  20486130.496     -181829.420          95.312          46.000  
  22139827.576    -1670705.504        2105.009          45.000  
 18 10  1 20 41  8.0010000  0  8G28G30G 5S27G 7G17G13G15
  21634534.124      672728.910       -1111.683          48.000  
  22680807.701     2343470.146       -3144.371          42.000  
  21892188.544     2239696.015       -3113.144          53.000  
  40058996.779      344224.3412       -450.535          38.000  
  25397815.956     2659080.694       -3487.966          44.000  
  25754100.106     -368218.015        2251.460          30.000  
  20486112.235     -181924.982          95.374          46.000  
  22139427.146    -1672810.556        2104.671          45.000  
 18 10  1 20 41  9.0010000  0  8G28G30G 5S27G 7G17G13G15
  21634745.865      673840.390       -1111.964          49.000  
  22681405.711     2346614.328       -3143.916          42.000  
  21892780.446     2242809.134       -3112.920          53.000  
  40059082.076      344674.2772       -449.728          38.000  
  25398479.230     2662568.380       -3487.628          45.000  
  25753671.171     -370470.112        2251.810          30.000  
  20486094.165     -182020.675          95.223          46.000  
  22139026.769    -1674915.857        2105.280          45.000  
 18 10  1 20 41 10.0010000  0  8G28G30G 5S27G 7G17G13G15
  21634957.589      674952.945       -1113.382          48.000  
  22682004.132     2349759.150       -3144.709          42.000  
  21893372.733     2245923.126       -3114.702          53.000  
  40059167.555      345124.7402       -450.807          38.000  
  25399143.011     2666056.492       -3488.761          44.000  
  25753242.166     -372721.724        2252.482          30.000  
  20486075.956     -182115.525          94.109          46.000  
  22138626.321    -1677020.453        2103.624          45.000  
 18 10  1 20 41 11.0010000  0  8G28G30G 5S27G 7G17G13G15
  21635169.784      676066.600       -1113.530          48.000  
  22682602.569     2352904.634       -3144.911          42.000  
  21893965.622     2249038.065       -3114.588          52.000  
  40059253.419      345575.6822       -449.965          38.000  
  25399807.131     2669545.094       -3488.444          45.000  
  25752813.466     -374972.891        2251.511          30.000  
  20486058.139     -182209.487          94.128          46.000  
  22138225.934    -1679124.297        2104.072          45.000  
 18 10  1 20 41 12.0010000  0  8G28G30G 5S27G 7G17G13G15
  21635381.472      677180.413       -1113.774          48.000  
  22683200.990     2356049.828       -3145.077          42.000  
  21894558.484     2252153.001       -3114.963          52.000  
  40059339.423      346026.0802       -450.349          38.000  
  25400471.208     2673033.247       -3487.579          44.000  
  25752385.159     -377224.565        2250.754          30.000  
  20486040.514     -182303.508          93.961          46.000  
  22137825.321    -1681228.318        2104.110          45.000  
 18 10  1 20 41 13.0010000  0  8G28G30G 5S27G 7G17G13G15
  21635593.972      678294.434       -1114.419          48.000  
  22683799.837     2359194.821       -3145.028          42.000  
  21895151.041     2255267.983       -3115.419          52.000  
  40059424.868      346476.0932       -450.691          38.000  
  25401134.883     2676521.003       -3487.855          44.000  
  25751957.106     -379476.1223       2251.421          30.000  
  20486022.776     -182397.523          93.810          47.000  
  22137424.359    -1683332.463        2103.732          45.000  
 18 10  1 20 41 14.0010000  0  8G28G30G 5S27G 7G17G13G15
  21635805.931      679409.649       -1115.552          48.000  
  22684398.781     2362340.558       -3146.674          42.000  
  21895744.034     2258383.997       -3116.870          52.000  
  40059510.880      346926.6462       -450.133          38.000  
  25401799.012     2680009.340       -3489.121          44.000  
  25751528.650     -381727.6402       2250.921          30.000  
  20486005.404     -182490.564          92.174          47.000  
  22137023.475    -1685435.755        2102.916          45.000  
 18 10  1 20 41 15.0010000  0  8G28G30G 5S27G 7G17G13G15
  21636018.021      680525.775       -1115.767          48.000  
  22684997.873     2365486.803       -3145.428          42.000  
  21896337.115     2261500.783       -3116.564          52.000  
  40059596.665      347377.4832       -450.753          38.000  
  25402462.897     2683497.993       -3487.695          44.000  
  25751100.448     -383978.8822       2250.734          30.000  
  20485987.492     -182582.879          92.798          47.000  
  22136622.809    -1687538.456        2103.315          45.000  
 18 10  1 20 41 16.0010000  0  8G28G30G 5S27G 7G17G13G15
  21636230.713      681642.026       -1117.061          49.000  
  22685596.835     2368632.734       -3146.150          43.000  
  21896929.951     2264617.515       -3117.215          52.000  
  40059682.250      347827.7342       -450.113          38.000  
  25403126.084     2686986.138       -3487.910          44.000  
  25750671.906     -386230.5173       2250.860          30.000  
  20485970.225     -182675.291          92.262          47.000  
  22136222.414    -1689641.393        2102.390          45.000  
 18 10  1 20 41 17.0010000  0  8G28G30G 5S27G 7G17G13G15
  21636443.257      682758.548       -1116.995          49.000  
  22686195.517     2371778.523       -3145.468          43.000  
  21897522.892     2267734.379       -3117.222          52.000  
  40059767.913      348277.7252       -449.488          38.000  
  25403789.637     2690473.967       -3488.082          44.000  
  25750243.669     -388482.6022       2247.955          29.000  
  20485952.190     -182767.633          91.898          47.000  
  22135821.268    -1691744.370        2102.700          44.000  
 18 10  1 20 41 18.0010000  0  8G28G30G 5S27G 7G17G13G15
  21636655.539      683876.102       -1117.518          49.000  
  22686794.199     2374924.864       -3146.747          43.000  
  21898116.008     2270852.094       -3118.729          52.000  
  40059853.576      348728.1472       -450.427          38.000  
  25404453.025     2693962.203       -3488.684          44.000  
  25749815.423     -390734.2922       2250.426          29.000  
  20485934.862     -182859.158          90.745          47.000  
  22135421.397    -1693846.671        2101.783          44.000  
 18 10  1 20 41 19.0010000  0  8G28G30G 5S27G 7G17G13G15
  21636868.335      684994.755       -1119.448          48.000  
  22687393.239     2378071.929       -3147.092          43.000  
  21898709.167     2273970.786       -3119.032          52.000  
  40059939.745      349179.1992       -451.104          38.000  
  25405116.962     2697450.953       -3489.066          44.000  
  25749387.770     -392985.3723       2251.178          30.000  
  20485917.124     -182949.772          90.414          47.000  
  22135021.385    -1695948.183        2101.073          44.000  
 18 10  1 20 41 20.0010000  0  8G28G30G 5S27G 7G17G13G15
  21637080.835      686113.481       -1118.538          48.000  
  22687992.331     2381218.634       -3145.930          43.000  
  21899302.727     2277089.377       -3118.226          52.000  
  40060025.190      349629.7422       -449.765          38.000  
  25405781.178     2700939.189       -3487.052          44.000  
  25748959.839     -395237.1172       2251.420          30.000  
  20485900.459     -183040.520          91.114          47.000  
  22134621.295    -1698049.957        2102.710          44.000  
 18 10  1 20 41 21.0010000  0  8G28G30G 5S27G 7G17G13G15
  21637293.789      687232.394       -1119.517          48.000  
  22688591.362     2384365.075       -3146.831          43.000  
  21899896.052     2280207.978       -3118.594          52.000  
  40060110.993      350079.8212       -450.453          38.000  
  25406444.461     2704426.940       -3488.067          44.000  
  25748532.038     -397489.2332       2255.864          30.000  
  20485882.773     -183131.321          90.748          47.000  
  22134220.935    -1700151.917        2101.911          44.000  
 18 10  1 20 41 22.0010000  0  8G28G30G 5S27G 7G17G13G15
  21637506.621      688352.388       -1120.757          48.000  
  22689190.236     2387512.180       -3148.188          43.000  
  21900489.551     2283327.530       -3120.271          52.000  
  40060196.316      350530.3342       -451.776          38.000  
  25407107.683     2707915.217       -3489.062          44.000  
  25748104.883     -399740.9783       2251.236          30.000  
  20485865.960     -183221.219          89.465          47.000  
  22133820.941    -1702253.119        2099.978          44.000  
 18 10  1 20 41 23.0010000  0  8G28G30G 5S27G 7G17G13G15
  21637719.993      689473.523       -1121.349          48.000  
  22689789.660     2390659.994       -3147.629          43.000  
  21901083.548     2286448.052       -3120.663          52.000  
  40060282.162      350981.4222       -450.547          38.000  
  25407771.681     2711403.988       -3488.562          44.000  
  25747677.824     -401992.1892       2250.274          31.000  
  20485849.077     -183310.199          88.898          47.000  
  22133420.991    -1704353.510        2100.072          44.000  
 18 10  1 20 41 24.0010000  0  8G28G30G 5S27G 7G17G13G15
  21637933.479      690594.880       -1120.763          48.000  
  22690388.673     2393807.581       -3147.231          43.000  
  21901677.222     2289568.615       -3121.060          52.000  
  40060367.930      351432.1372       -450.974          38.000  
  25408435.653     2714892.371       -3487.927          44.000  
  25747250.538     -404243.7172       2250.524          31.000  
  20485832.604     -183399.175          89.265          47.000  
  22133021.041    -1706454.022        2100.793          44.000  
 18 10  1 20 41 25.0010000  0  8G28G30G 5S27G 7G17G13G15
  21638146.337      691716.120       -1121.630          48.000  
  22690988.132     2396954.675       -3147.516          43.000  
  21902271.411     2292688.959       -3120.670          52.000  
  40060453.392      351882.2142       -450.245          38.000  
  25409099.669     2718380.076       -3487.750          44.000  
  25746823.260     -406496.0192       2254.054          31.000  
  20485815.712     -183488.452          88.795          47.000  
  22132621.134    -1708554.964        2100.892          44.000  
 18 10  1 20 41 26.0010000  0  8G28G30G 5S27G 7G17G13G15
  21638360.652      692838.299       -1122.811          48.000  
  22691587.346     2400102.255       -3147.271          44.000  
  21902865.241     2295810.063       -3121.517          52.000  
  40060539.343      352332.6392       -450.099          38.000  
  25409763.283     2721868.087       -3487.916          44.000  
  25746396.472     -408748.0002       2251.179          31.000  
  20485798.776     -183577.001          87.938          47.000  
  22132221.166    -1710655.310        2100.274          44.000  
 18 10  1 20 41 27.0010000  0  8G28G30G 5S27G 7G17G13G15
  21638573.736      693961.555       -1124.002          48.000  
  22692187.101     2403250.467       -3148.780          44.000  
  21903459.526     2298932.067       -3122.609          53.000  
  40060625.050      352783.5382       -449.994          38.000  
  25410427.246     2725356.547       -3489.090          44.000  
  25745969.543     -410999.5682       2251.583          32.000  
  20485782.478     -183664.688          87.344          47.000  
  22131821.739    -1712754.928        2098.925          44.000  
 18 10  1 20 41 28.0010000  0  8G28G30G 5S27G 7G17G13G15
  21638787.475      695085.344       -1123.733          48.000  
  22692786.298     2406398.796       -3148.396          44.000  
  21904053.374     2302054.446       -3122.399          52.000  
  40060711.193      353234.3372       -450.296          38.000  
  25411091.183     2728844.945       -3488.096          44.000  
  25745542.606     -413251.1722       2253.126          32.000  
  20485765.560     -183752.053          87.269          47.000  
  22131422.086    -1714854.334        2099.773          44.000  
 18 10  1 20 41 29.0010000  0  8G28G30G 5S27G 7G17G13G15
  21639001.293      696209.004       -1123.820          48.000  
  22693385.382     2409546.576       -3146.916          44.000  
  21904647.964     2305176.550       -3121.939          52.000  
  40060796.987      353684.4162       -448.616          38.000  
  25411754.946     2732332.612       -3487.448          44.000  
  25745115.852     -415503.5582       2250.436          32.000  
  20485749.087     -183839.737          87.845          47.000  
  22131022.502    -1716954.204        2100.021          44.000  
 18 10  1 20 41 30.0010000  0  8G28G30G 5S27G 7G17G13G15
  21639215.800      697333.546       -1125.148          49.000  
  22693985.050     2412694.796       -3148.519          44.000  
  21905242.284     2308299.369       -3123.327          52.000  
  40060882.633      354134.8502       -450.156          38.000  
  25412419.119     2735820.555       -3488.253          44.000  
  25744688.880     -417755.6702       2251.133          32.000  
  20485732.308     -183926.765          86.222          47.000  
  22130622.744    -1719053.522        2099.246          44.000  
 18 10  1 20 41 31.0010000  0  8G28G30G 5S27G 7G17G13G15
  21639429.774      698459.424       -1126.570          48.000  
  22694584.770     2415843.942       -3150.002          44.000  
  21905836.935     2311423.380       -3124.675          53.000  
  40060968.401      354585.9662       -452.595          38.000  
  25413083.021     2739309.227       -3489.532          44.000  
  25744262.371     -420007.586        2251.296          32.000  
  20485716.158     -184012.653          85.025          47.000  
  22130223.361    -1721151.843        2097.636          44.000  
 18 10  1 20 41 32.0010000  0  8G28G30G 5S27G 7G17G13G15
  21639644.168      699585.915       -1126.312          48.000  
  22695184.150     2418993.260       -3149.314          44.000  
  21906431.560     2314547.820       -3124.320          53.000  
  40061054.465      355037.1302       -451.035          38.000  
  25413746.845     2742797.891       -3488.875          45.000  
  25743836.272     -422258.4833       2253.445          31.000  
  20485699.973     -184098.144          85.765          47.000  
  22129823.838    -1723249.907        2097.967          44.000  
 18 10  1 20 41 33.0010000  0  8G28G30G 5S27G 7G17G13G15
  21639858.805      700712.288       -1126.619          48.000  
  22695784.054     2422142.042       -3148.793          44.000  
  21907026.124     2317672.021       -3124.376          53.000  
  40061140.660      355487.5932       -449.875          38.000  
  25414410.791     2746285.858       -3488.064          44.000  
  25743409.553     -424510.6332       2252.017          31.000  
  20485683.806     -184183.925          85.760          47.000  
  22129424.751    -1725348.383        2098.399          44.000  
 18 10  1 20 41 34.0010000  0  8G28G30G 5S27G 7G17G13G15
  21640073.190      701839.159       -1127.709          48.000  
  22696383.477     2425290.855       -3149.702          44.000  
  21907620.592     2320796.505       -3125.435          53.000  
  40061226.515      355937.8432       -451.195          38.000  
  25415074.728     2749773.674       -3488.685          44.000  
  25742983.514     -426762.9402       2250.527          30.000  
  20485667.935     -184269.456          84.753          47.000  
  22129025.054    -1727446.739        2097.785          44.000  
 18 10  1 20 41 35.0010000  0  7G28G30G 5S27G 7G13G15
  21640287.706      702967.174       -1129.079          48.000  
  22696983.582     2428440.423       -3149.704          45.000  
  21908215.766     2323922.010       -3126.464          53.000  
  40061312.170      356388.6852       -452.204          38.000  
  25415738.499     2753262.045       -3489.318          44.000  
  20485651.470     -184354.039          83.791          47.000  
  22128625.558    -1729544.274        2097.222          43.000  
 18 10  1 20 41 36.0010000  0  7G28G30G 5S27G 7G13G15
  21640502.797      704095.641       -1128.440          48.000  
  22697583.477     2431589.987       -3149.573          45.000  
  21908810.888     2327047.785       -3125.679          53.000  
  40061397.772      356839.3272       -450.192          38.000  
  25416402.201     2756750.239       -3487.933          44.000  
  20485635.512     -184438.376          84.688          47.000  
  22128225.790    -1731641.706        2097.730          43.000  
 18 10  1 20 41 37.0010000  0  7G28G30G 5S27G 7G13G15
  21640717.836      705224.271       -1129.482          48.000  
  22698183.258     2434739.303       -3149.688          45.000  
  21909405.557     2330173.601       -3126.021          53.000  
  40061483.374      357289.4912       -449.628          38.000  
  25417065.990     2760238.028       -3487.710          44.000  
  20485619.118     -184522.731          84.273          47.000  
  22127826.634    -1733739.274        2097.131          43.000  
 18 10  1 20 41 38.0010000  0  7G28G30G 5S27G 7G13G15
  21640932.971      706353.794       -1130.091          49.000  
  22698783.641     2437889.062       -3149.817          45.000  
  21910000.609     2333300.113       -3127.032          53.000  
  40061569.543      357739.9092       -450.643          38.000  
  25417729.962     2763726.070       -3488.355          44.000  
  20485603.325     -184606.446          83.131          47.000  
  22127427.059    -1735836.314        2096.886          43.000  
 18 10  1 20 41 39.0010000  0  8G28G30G 5S27G 7G17G13G15
  21641148.281      707484.389       -1131.436          49.000  
  22699384.112     2441039.473       -3151.373          45.000  
  21910595.871     2336427.555       -3127.687          53.000  
  40061655.136      358190.8062       -451.103          38.000  
  25418394.187     2767214.591       -3488.684          44.000  
  25740853.645     -438022.7272       2251.872          30.000  
  20485587.376     -184689.269          82.675          47.000  
  22127027.929    -1737932.618        2096.017          43.000  
 18 10  1 20 41 40.0010000  0  7G28G30G 5S27G 7G13G15
  21641363.555      708615.596       -1131.260          49.000  
  22699984.138     2444190.083       -3150.673          46.000  
  21911191.124     2339555.442       -3127.558          53.000  
  40061740.555      358641.6882       -449.722          38.000  
  25419058.988     2770703.115       -3488.247          45.000  
  20485571.601     -184771.684          82.460          47.000  
  22126628.843    -1740028.630        2096.752          43.000  
 18 10  1 20 41 41.0010000  0  7G28G30G 5S27G 7G13G15
  21641579.083      709747.145       -1132.094          49.000  
  22700584.085     2447340.569       -3149.572          46.000  
  21911786.552     2342683.494       -3127.765          53.000  
  40061826.498      359092.3462       -450.124          38.000  
  25419723.501     2774191.352       -3487.854          45.000  
  20485555.616     -184853.989          82.486          46.000  
  22126229.896    -1742124.628        2096.025          43.000  
 18 10  1 20 41 42.0010000  0  7G28G30G 5S27G 7G13G15
  21641795.186      710879.133       -1132.808          49.000  
  22701183.709     2450491.080       -3150.652          46.000  
  21912382.163     2345811.826       -3129.156          53.000  
  40061912.196      359542.9072       -449.565          38.000  
  25420387.630     2777679.432       -3489.125          45.000  
  20485539.597     -184936.042          81.446          46.000  
  22125830.896    -1744220.527        2095.177          43.000  
 18 10  1 20 41 43.0010000  0  7G28G30G 5S27G 7G13G15
  21642011.011      712012.281       -1132.864          49.000  
  22701783.840     2453642.341       -3150.473          46.000  
  21912977.433     2348941.169       -3129.653          53.000  
  40061997.920      359994.0452       -451.968          38.000  
  25421052.047     2781168.076       -3488.489          45.000  
  20485524.555     -185017.165          80.949          46.000  
  22125431.836    -1746315.567        2095.188          43.000  
 18 10  1 20 41 44.0010000  0  7G28G30G 5S27G 7G13G15
  21642226.817      713146.001       -1133.213          49.000  
  22702384.066     2456793.724       -3150.494          46.000  
  21913573.105     2352070.932       -3129.328          53.000  
  40062083.653      360445.2182       -451.031          38.000  
  25421716.272     2784656.686       -3488.100          45.000  
  20485509.330     -185097.897          81.049          46.000  
  22125033.151    -1748410.396        2095.500          42.000  
 18 10  1 20 41 45.0010000  0  7G28G30G 5S27G 7G13G15
  21642442.711      714279.705       -1133.780          49.000  
  22702984.048     2459944.661       -3150.170          46.000  
  21914168.637     2355200.514       -3129.814          53.000  
  40062169.263      360895.6122       -450.083          38.000  
  25422380.270     2788144.657       -3487.682          45.000  
  20485494.349     -185178.856          81.152          46.000  
  22124634.379    -1750505.558        2094.911          42.000  
 18 10  1 20 41 46.0010000  0  7G28G30G 5S27G 7G13G15
  21642658.501      715413.816       -1134.814          49.000  
  22703584.362     2463095.586       -3151.046          47.000  
  21914764.336     2358330.345       -3130.441          53.000  
  40062254.935      361345.7692       -450.218          38.000  
  25423044.277     2791632.429       -3488.160          45.000  
  20485478.975     -185259.606          80.294          46.000  
  22124235.345    -1752600.637        2095.061          42.000  
 18 10  1 20 41 47.0010000  0  7G28G30G 5S27G 7G13G15
  21642874.962      716549.150       -1136.111          49.000  
  22704184.431     2466247.312       -3151.221          46.000  
  21915359.850     2361461.243       -3131.225          53.000  
  40062340.982      361796.6562       -450.212          38.000  
  25423708.179     2795120.824       -3488.333          45.000  
  20485463.174     -185339.348          79.331          46.000  
  22123836.659    -1754694.856        2093.485          42.000  
 18 10  1 20 41 48.0010000  0  7G28G30G 5S27G 7G13G15
  21643091.048      717685.313       -1134.845          49.000  
  22704784.937     2469399.406       -3151.383          47.000  
  21915955.374     2364592.781       -3131.725          53.000  
  40062426.427      362247.9162       -450.501          38.000  
  25424372.082     2798609.402       -3488.390          45.000  
  20485448.385     -185418.487          79.401          46.000  
  22123438.323    -1756788.576        2093.792          42.000  
 18 10  1 20 41 49.0010000  0  7G28G30G 5S27G 7G13G15
  21643307.352      718821.411       -1136.781          49.000  
  22705384.928     2472551.051       -3151.428          47.000  
  21916551.534     2367724.164       -3131.416          52.000  
  40062512.466      362698.6102       -450.731          38.000  
  25425035.923     2802097.370       -3487.564          45.000  
  20485433.090     -185497.836          79.477          46.000  
  22123039.682    -1758882.659        2094.345          42.000  
 18 10  1 20 41 50.0010000  0  7G28G30G 5S27G 7G13G15
  21643523.648      719957.954       -1136.194          49.000  
  22705985.660     2475702.684       -3151.542          47.000  
  21917147.538     2370855.774       -3131.941          52.000  
  40062598.129      363149.1252       -449.872          38.000  
  25425699.310     2805585.128       -3488.016          44.000  
  20485418.117     -185577.006          78.977          46.000  
  22122641.145    -1760976.674        2094.418          42.000  
 18 10  1 20 41 51.0010000  0  7G28G30G 5S27G 7G13G15
  21643740.083      721095.649       -1137.564          49.000  
  22706586.061     2478855.033       -3153.128          47.000  
  21917743.341     2373988.402       -3132.957          52.000  
  40062683.905      363600.2462       -451.581          38.000  
  25426362.741     2809073.459       -3488.157          44.000  
  20485403.450     -185655.200          77.730          46.000  
  22122242.469    -1763069.855        2093.134          42.000  
 18 10  1 20 41 52.0010000  0  7G28G30G 5S27G 7G13G15
  21643957.129      722234.221       -1138.879          49.000  
  22707186.707     2482007.834       -3152.318          47.000  
  21918339.274     2377121.723       -3133.228          52.000  
  40062769.499      364051.6482       -450.559          38.000  
  25427026.295     2812562.024       -3488.192          44.000  
  20485387.911     -185732.727          77.260          46.000  
  22121843.967    -1765162.509        2092.891          42.000  
 18 10  1 20 41 53.0010000  0  7G28G30G 5S27G 7G13G15
  21644173.974      723372.992       -1138.941          50.000  
  22707787.003     2485160.440       -3152.089          47.000  
  21918935.321     2380255.130       -3133.329          52.000  
  40062855.755      364502.5952       -450.483          38.000  
  25427689.194     2816050.212       -3487.850          44.000  
  20485373.148     -185810.235          77.652          46.000  
  22121446.093    -1767255.269        2093.173          43.000  
