     2.11           OBSERVATION DATA    M (MIXED)           RINEX VERSION / TYPE
RTKCONV 2.4.2       Liu.TY              20180927 203735 UTC PGM / RUN BY / DATE 
log: C:\Users\«Ó®ð¬h¤¸\Desktop\PVT  Project\DataFile\COM5_  COMMENT             
format: u-blox                                              COMMENT             
Antenna in CA548                                            COMMENT             
LIU                                                         MARKER NAME         
                                                            MARKER NUMBER       
Liu.TY              Liu.TY                                  OBSERVER / AGENCY   
u-blox              AEK-4T                                  REC # / TYPE / VERS 
                                                            ANT # / TYPE        
        0.0000        0.0000        0.0000                  APPROX POSITION XYZ 
        0.0000        0.0000        0.0000                  ANTENNA: DELTA H/E/N
     1     1                                                WAVELENGTH FACT L1/2
     4    C1    L1    D1    S1                              # / TYPES OF OBSERV 
  2018     9    27    19    51   27.0000000     GPS         TIME OF FIRST OBS   
  2018     9    27    20    35    8.0000000     GPS         TIME OF LAST OBS    
                                                            END OF HEADER       
 18  9 27 19 51 27.0000000  0  6G30G28G 8G 7G21G13
  20891919.941     3607478.435       -2184.354          52.000  
  21916034.795    -3309073.071        1056.464          39.000  
  25827284.439     -233636.106         399.172          42.000  
  23031311.645     6762022.897       -3401.323          51.000  
  26057448.082    -1651231.089         679.991          37.000  
  21285184.732    -1972058.9153       1184.306          30.000  
 18  9 27 19 51 28.0000000  0  6G30G28G 8G 7G21G13
  20892335.920     3609663.014       -2184.896          52.000  
  21915833.577    -3310128.699        1055.357          39.000  
  25827209.194     -234034.573         398.774          42.000  
  23031959.328     6765424.299       -3401.526          51.000  
  26057319.038    -1651910.811         679.062          37.000  
  21284957.774    -1973242.9853       1183.908          30.000  
 18  9 27 19 51 29.0000000  0  6G30G28G 8G 7G21G13
  20892751.723     3611847.974       -2184.992          52.000  
  21915633.074    -3311183.841        1054.303          39.000  
  25827133.809     -234432.581         397.867          42.000  
  23032607.219     6768825.823       -3401.566          52.000  
  26057189.662    -1652590.140         678.593          37.000  
  21284731.515    -1974426.8463       1183.948          30.000  
 18  9 27 19 51 30.0000000  0  6G30G28G 8G 7G21G13
  20893167.457     3614033.383       -2185.965          52.000  
  21915433.042    -3312238.432        1054.202          39.000  
  25827057.534     -234830.076         397.036          43.000  
  23033254.954     6772227.540       -3401.872          52.000  
  26057061.141    -1653269.023         678.782          36.000  
  21284506.320    -1975610.4263       1183.898          29.000  
 18  9 27 19 51 31.0000000  0  6G30G28G 8G 7G21G13
  20893583.628     3616219.311       -2186.128          52.000  
  21915233.045    -3313292.412        1053.860          39.000  
  25826982.149     -235226.973         396.388          43.000  
  23033902.375     6775629.518       -3402.054          52.000  
  26056932.411    -1653947.357         678.359          37.000  
  21284283.480    -1976793.6533       1183.414          29.000  
 18  9 27 19 51 32.0000000  0  7G30G28G 8G 7G 5G21G13
  20893999.030     3618405.721       -2186.838          52.000  
  21915033.222    -3314345.800        1053.421          40.000  
  25826906.032     -235623.288         395.635          43.000  
  23034550.004     6779031.740       -3402.353          52.000  
  20555087.044      892264.2393      -1070.520          29.000  
  26056803.611    -1654625.180         677.761          37.000  
  21284059.018    -1977976.5093       1182.934          29.000  
 18  9 27 19 51 33.0000000  0  7G30G28G 8G 7G 5G21G13
  20894415.479     3620592.556       -2187.236          52.000  
  21914833.487    -3315398.640        1052.861          40.000  
  25826830.367     -236019.101         395.578          43.000  
  23035197.146     6782434.142       -3402.564          51.000  
  20555292.659      893335.2463      -1070.522          29.000  
  26056675.038    -1655302.561         676.855          37.000  
  21283833.125    -1979159.1153       1182.866          29.000  
 18  9 27 19 51 34.0000000  0  6G30G28G 8G 7G 5G21
  20894830.725     3622779.800       -2187.685          52.000  
  21914633.473    -3316450.997        1051.967          40.000  
  25826754.895     -236414.416         394.963          43.000  
  23035845.072     6785836.703       -3402.837          51.000  
  20555498.345      894406.8453      -1072.337          29.000  
  26056547.093    -1655979.502         676.394          37.000  
 18  9 27 19 51 35.0000000  0  7G30G28G 8G 7G 5G21G13
  20895246.843     3624967.402       -2187.947          51.000  
  21914433.598    -3317502.891        1050.805          40.000  
  25826680.069     -236809.315         394.568          43.000  
  23036492.912     6789239.367       -3402.667          51.000  
  20555702.844      895479.0073      -1073.335          29.000  
  26056419.305    -1656656.087         676.767          37.000  
  21283383.293    -1981523.6573       1181.692          28.000  
 18  9 27 19 51 36.0000000  0  7G30G28G 8G 7G 5G21G13
  20895663.746     3627155.505       -2188.313          51.000  
  21914234.159    -3318554.136        1051.209          40.000  
  25826605.294     -237203.603         394.309          43.000  
  23037140.786     6792642.288       -3402.850          52.000  
  20555908.460      896551.9453      -1072.973          29.000  
  26056292.128    -1657332.137         676.729          38.000  
  21283159.233    -1982705.4733       1181.772          29.000  
 18  9 27 19 51 37.0000000  0  7G30G28G 8G 7G 5G21G13
  20896079.410     3629344.003       -2188.624          51.000  
  21914034.791    -3319604.896        1050.641          40.000  
  25826531.044     -237597.436         393.865          44.000  
  23037788.329     6796045.358       -3403.209          51.000  
  20556115.193      897625.4503      -1073.644          29.000  
  26056164.392    -1658007.797         676.048          38.000  
  21282934.945    -1983887.0633       1181.228          29.000  
 18  9 27 19 51 38.0000000  0  7G30G28G 8G 7G 5G21G13
  20896495.633     3631532.878       -2188.955          51.000  
  21913834.689    -3320655.182        1049.855          40.000  
  25826455.990     -237990.809         393.314          44.000  
  23038435.976     6799448.558       -3403.255          51.000  
  20556320.669      898699.5633      -1074.792          29.000  
  26056035.906    -1658683.040         674.463          37.000  
  21282711.617    -1985068.4403       1181.410          29.000  
 18  9 27 19 51 39.0000000  0  7G30G28G 8G 7G 5G21G13
  20896912.152     3633722.393       -2189.599          51.000  
  21913635.530    -3321704.708        1048.895          40.000  
  25826380.954     -238383.441         392.853          44.000  
  23039083.292     6802852.167       -3403.656          51.000  
  20556524.034      899774.5523      -1074.728          29.000  
  26055907.298    -1659357.616         674.859          37.000  
  21282489.389    -1986249.3213       1180.639          29.000  
 18  9 27 19 51 40.0000000  0  7G30G28G 8G 7G 5G21G13
  20897328.514     3635912.360       -2190.161          50.000  
  21913437.121    -3322753.704        1047.920          41.000  
  25826306.564     -238775.587         391.990          44.000  
  23039730.590     6806255.966       -3403.857          50.000  
  20556728.673      900850.1223      -1076.640          28.000  
  26055779.213    -1660031.767         674.892          37.000  
  21282264.124    -1987429.9353       1180.763          29.000  
 18  9 27 19 51 41.0000000  0  7G30G28G 8G 7G 5G21G13
  20897744.458     3638102.689       -2190.473          51.000  
  21913238.328    -3323802.222        1048.416          41.000  
  25826231.790     -239167.254         391.317          44.000  
  23040377.714     6809659.885       -3403.948          51.000  
  20556935.388      901926.3033      -1077.716          29.000  
  26055650.780    -1660705.526         674.022          37.000  
  21282040.674    -1988610.3673       1179.829          30.000  
 18  9 27 19 51 42.0000000  0  7G30G28G 8G 7G 5G21G13
  20898161.745     3640293.243       -2191.360          50.000  
  21913039.169    -3324850.404        1046.961          41.000  
  25826157.853     -239558.604         390.884          44.000  
  23041024.943     6813063.793       -3404.232          50.000  
  20557138.195      903003.0293      -1077.410          28.000  
  26055522.521    -1661379.032         672.072          37.000  
  21281817.067    -1989790.8953       1180.507          30.000  
 18  9 27 19 51 43.0000000  0  7G30G28G 8G 7G 5G21G13
  20898578.177     3642484.159       -2191.040          50.000  
  21912840.637    -3325898.145        1047.250          41.000  
  25826083.201     -239949.518         390.437          45.000  
  23041672.730     6816467.799       -3404.368          50.000  
  20557339.675      904080.2823      -1076.744          28.000  
  26055394.715    -1662052.149         672.980          37.000  
  21281589.394    -1990970.9732       1181.859          30.000  
 18  9 27 19 51 44.0000000  0  7G30G28G 8G 7G 5G21G13
  20898995.254     3644675.557       -2191.664          50.000  
  21912641.827    -3326945.284        1046.964          41.000  
  25826008.637     -240339.868         389.803          45.000  
  23042320.639     6819872.057       -3404.214          50.000  
  20557540.841      905158.2333      -1078.088          28.000  
  26055266.858    -1662724.766         672.793          37.000  
  21281366.397    -1992150.8022       1179.164          30.000  
 18  9 27 19 51 45.0000000  0  6G30G28G 8G 7G21G13
  20899412.140     3646867.326       -2191.778          51.000  
  21912442.947    -3327991.951        1046.411          42.000  
  25825934.438     -240729.773         389.762          45.000  
  23042968.199     6823276.441       -3404.023          50.000  
  26055138.511    -1663396.985         672.987          37.000  
  21281145.669    -1993330.3572       1178.418          30.000  
 18  9 27 19 51 46.0000000  0  7G30G28G 8G 7G 5G21G13
  20899828.520     3649059.492       -2192.619          50.000  
  21912244.241    -3329038.123        1046.055          42.000  
  25825860.729     -241119.204         388.908          45.000  
  23043616.283     6826680.957       -3404.940          50.000  
  20557944.447      907315.8543      -1078.766          27.000  
  26055009.938    -1664068.808         671.592          37.000  
  21280918.851    -1994509.6922       1180.412          30.000  
 18  9 27 19 51 47.0000000  0  6G30G28G 8G 7G21G13
  20900246.068     3651252.201       -2193.198          50.000  
  21912045.553    -3330083.633        1045.296          42.000  
  25825786.792     -241508.004         388.146          45.000  
  23044264.750     6830085.781       -3405.090          50.000  
  26054882.377    -1664740.077         669.858          37.000  
  21280690.376    -1995688.6532       1178.776          30.000  
 18  9 27 19 51 48.0000000  0  6G30G28G 8G 7G21G13
  20900662.605     3653445.363       -2193.323          50.000  
  21911846.202    -3331128.596        1045.012          42.000  
  25825712.751     -241896.283         388.050          45.000  
  23044913.130     6833490.811       -3405.229          51.000  
  26054754.380    -1665410.848         670.635          37.000  
  21280468.723    -1996867.3152       1177.689          31.000  
 18  9 27 19 51 49.0000000  0  6G30G28G 8G 7G21G13
  20901080.067     3655639.063       -2193.969          50.000  
  21911647.025    -3332172.925        1043.841          42.000  
  25825639.006     -242283.952         387.184          45.000  
  23045561.685     6836896.124       -3405.614          51.000  
  26054626.958    -1666081.052         669.824          37.000  
  21280244.540    -1998046.171        1177.944          31.000  
 18  9 27 19 51 50.0000000  0  6G30G28G 8G 7G21G13
  20901497.650     3657833.341       -2194.764          50.000  
  21911448.651    -3333216.577        1043.002          42.000  
  25825564.860     -242670.935         386.440          45.000  
  23046209.943     6840301.764       -3405.662          51.000  
  26054498.874    -1666750.677         669.591          37.000  
  21280020.567    -1999224.010        1174.962          31.000  
 18  9 27 19 51 51.0000000  0  6G30G28G 8G 7G21G13
  20901914.833     3660027.838       -2195.017          50.000  
  21911249.841    -3334259.895        1042.895          42.000  
  25825491.447     -243057.599         386.325          45.000  
  23046858.114     6843707.370       -3405.889          51.000  
  26054370.754    -1667420.071         668.571          37.000  
  21279796.104    -2000401.766        1176.981          31.000  
 18  9 27 19 51 52.0000000  0  6G30G28G 8G 7G21G13
  20902332.312     3662222.593       -2194.705          50.000  
  21911051.484    -3335302.862        1043.538          42.000  
  25825417.249     -243443.956         386.461          45.000  
  23047505.901     6847112.975       -3405.298          51.000  
  26054243.402    -1668089.198         669.498          37.000  
  21279573.178    -2001579.470        1178.674          31.000  
 18  9 27 19 51 53.0000000  0  7G30G28G 8G 7G 5G21G13
  20902750.297     3664417.896       -2195.752          50.000  
  21910853.860    -3336345.172        1041.848          42.000  
  25825343.975     -243829.689         385.489          45.000  
  23048153.392     6850518.897       -3406.170          51.000  
  20559390.337      914888.8753      -1083.132          28.000  
  26054116.051    -1668757.740         667.527          37.000  
  21279349.292    -2002756.853        1175.744          31.000  
 18  9 27 19 51 54.0000000  0  7G30G28G 8G 7G 5G21G13
  20903167.898     3666613.742       -2195.943          50.000  
  21910656.254    -3337386.828        1041.592          43.000  
  25825270.946     -244214.779         384.848          45.000  
  23048801.772     6853925.125       -3406.187          51.000  
  20559596.703      915973.3973      -1084.673          28.000  
  26053988.315    -1669425.695         669.240          37.000  
  21279125.789    -2003933.774        1177.077          31.000  
 18  9 27 19 51 55.0000000  0  7G30G28G 8G 7G 5G21G13
  20903586.267     3668809.932       -2196.623          50.000  
  21910458.159    -3338428.030        1041.096          43.000  
  25825198.493     -244599.435         384.414          45.000  
  23049449.611     6857331.446       -3406.298          51.000  
  20559806.420      917058.5083      -1085.249          29.000  
  26053861.836    -1670093.326         667.611          37.000  
  21278902.426    -2005110.493        1176.851          31.000  
 18  9 27 19 51 56.0000000  0  7G30G28G 8G 7G 5G21G13
  20904004.252     3671006.437       -2196.575          50.000  
  21910260.204    -3339468.813        1041.011          43.000  
  25825125.848     -244983.677         384.491          45.000  
  23050097.904     6860737.831       -3406.441          51.000  
  20560013.606      918144.1363      -1086.180          29.000  
  26053735.793    -1670760.589         667.309          37.000  
  21278678.819    -2006287.135        1176.720          32.000  
 18  9 27 19 51 57.0000000  0  7G30G28G 8G 7G 5G21G13
  20904421.138     3673203.504       -2197.128          49.000  
  21910062.545    -3340508.945        1039.661          43.000  
  25825052.783     -245367.299         383.436          44.000  
  23050746.407     6864144.525       -3406.568          50.000  
  20560220.898      919230.5553      -1086.614          29.000  
  26053609.035    -1671427.269         667.458          37.000  
  21278454.951    -2007463.295        1176.671          32.000  
 18  9 27 19 51 58.0000000  0  7G30G28G 8G 7G 5G21G13
  20904839.280     3675401.010       -2197.858          49.000  
  21909865.044    -3341548.545        1039.087          43.000  
  25824980.365     -245750.417         382.415          45.000  
  23051395.572     6867551.409       -3406.981          51.000  
  20560428.590      920317.5653      -1087.698          29.000  
  26053481.700    -1672093.538         666.955          36.000  
  21278231.553    -2008639.221        1177.338          32.000  
 18  9 27 19 51 59.0000000  0  7G30G28G 8G 7G 5G21G13
  20905257.108     3677599.060       -2198.236          49.000  
  21909667.472    -3342587.475        1038.487          43.000  
  25824907.807     -246132.867         382.542          44.000  
  23052044.267     6870958.590       -3407.331          51.000  
  20560633.822      921405.4193      -1088.393          29.000  
  26053354.523    -1672759.182         666.532          36.000  
  21278009.028    -2009814.755        1176.582          32.000  
 18  9 27 19 52  0.0000000  0  7G30G28G 8G 7G 5G21G13
  20905675.320     3679797.362       -2198.202          49.000  
  21909470.355    -3343626.037        1038.981          44.000  
  25824833.923     -246515.012         381.939          44.000  
  23052692.717     6874365.784       -3407.341          51.000  
  20560841.253      922493.7123      -1088.228          29.000  
  26053227.608    -1673424.598         664.526          36.000  
  21277785.962    -2010990.190        1175.970          32.000  
 18  9 27 19 52  1.0000000  0  7G30G28G 8G 7G 5G21G13
  20906093.567     3681996.122       -2198.699          49.000  
  21909272.696    -3344664.054        1038.329          44.000  
  25824761.662     -246896.586         381.156          44.000  
  23053341.271     6877773.185       -3407.649          51.000  
  20561047.619      923582.6683      -1088.944          29.000  
  26053100.902    -1674089.525         665.312          36.000  
  21277562.442    -2012165.312        1175.707          32.000  
 18  9 27 19 52  2.0000000  0  7G30G28G 8G 7G 5G21G13
  20906511.587     3684195.464       -2199.379          49.000  
  21909075.125    -3345701.377        1037.287          44.000  
  25824689.714     -247277.492         380.708          44.000  
  23053988.797     6881180.913       -3407.595          51.000  
  20561253.148      924672.4493      -1089.878          28.000  
  26052974.073    -1674753.850         664.643          35.000  
  21277338.852    -2013340.037        1172.814          32.000  
 18  9 27 19 52  3.0000000  0  7G30G28G 8G 7G 5G21G13
  20906929.676     3686395.211       -2199.888          49.000  
  21908878.723    -3346738.195        1036.325          44.000  
  25824617.488     -247657.927         380.073          43.000  
  23054637.037     6884588.805       -3407.838          51.000  
  20561459.532      925762.8723      -1089.701          28.000  
  26052847.996    -1675417.755         662.554          36.000  
  21277115.559    -2014514.461        1175.187          32.000  
 18  9 27 19 52  4.0000000  0  7G30G28G 8G 7G 5G21G13
  20907347.975     3688595.072       -2199.724          49.000  
  21908681.692    -3347774.780        1036.784          44.000  
  25824545.314     -248038.175         380.449          43.000  
  23055285.453     6887996.551       -3407.340          51.000  
  20561669.772      926853.5643      -1091.192          28.000  
  26052721.394    -1676081.512         664.745          36.000  
  21276892.231    -2015688.968        1176.071          33.000  
 18  9 27 19 52  5.0000000  0  6G30G28G 8G 7G21G13
  20907766.571     3690795.225       -2200.535          49.000  
  21908484.540    -3348810.975        1035.775          44.000  
  25824472.738     -248418.024         379.643          43.000  
  23055934.164     6891404.355       -3407.978          51.000  
  26052595.439    -1676744.968         663.175          35.000  
  21276669.113    -2016863.339        1174.639          33.000  
 18  9 27 19 52  6.0000000  0  6G30G28G 8G 7G21G13
  20908184.731     3692995.930       -2201.001          49.000  
  21908288.033    -3349846.497        1035.653          44.000  
  25824400.355     -248797.220         378.838          41.000  
  23056582.178     6894812.465       -3407.877          51.000  
  26052468.453    -1677407.834         662.881          35.000  
  21276446.727    -2018037.328        1170.670          32.000  
 18  9 27 19 52  7.0000000  0  6G30G28G 8G 7G21G13
  20908603.571     3695197.127       -2201.591          49.000  
  21908090.810    -3350881.428        1034.442          44.000  
  25824327.867     -249175.862         378.277          41.000  
  23057230.628     6898220.811       -3408.690          51.000  
  26052343.353    -1678070.207         660.675          35.000  
  21276223.417    -2019210.948        1173.599          32.000  
 18  9 27 19 52  8.0000000  0  7G30G28G 8G 7G 5G21G13
  20909021.713     3697398.715       -2201.906          49.000  
  21907893.815    -3351915.864        1034.214          44.000  
  25824254.785     -249554.045         377.711          41.000  
  23057878.537     6901629.307       -3408.347          51.000  
  20562501.170      931222.8563      -1093.628          28.000  
  26052217.816    -1678732.145         662.113          36.000  
  21276000.228    -2020384.355        1174.252          32.000  
 18  9 27 19 52  9.0000000  0  7G30G28G 8G 7G 5G21G13
  20909440.989     3699600.641       -2202.070          49.000  
  21907697.116    -3352949.863        1034.225          45.000  
  25824182.908     -249931.795         377.579          42.000  
  23058527.005     6905037.879       -3408.474          51.000  
  20562707.222      932316.7433      -1094.002          28.000  
  26052092.419    -1679393.728         661.052          36.000  
  21275776.709    -2021557.589        1174.838          31.000  
 18  9 27 19 52 10.0000000  0  8G30G28G15G 8G 7G 5G21G13
  20909860.371     3701802.891       -2202.738          49.000  
  21907500.888    -3353983.416        1033.192          45.000  
  24217464.701    -4068270.8493       2528.528          30.000  
  25824111.728     -250309.127         377.097          42.000  
  23059175.909     6908446.542       -3408.728          50.000  
  20562915.508      933411.1203      -1096.107          28.000  
  26051966.707    -1680054.955         661.689          36.000  
  21275553.119    -2022730.607        1173.803          31.000  
 18  9 27 19 52 11.0000000  0  8G30G28G15G 8G 7G 5G21G13
  20910279.804     3704005.580       -2202.778          49.000  
  21907304.416    -3355016.436        1032.572          45.000  
  24216982.220    -4070798.8143       2529.114          31.000  
  25824040.514     -250685.949         375.831          42.000  
  23059825.005     6911855.387       -3409.078          51.000  
  20563122.677      934506.1833      -1094.648          28.000  
  26051840.682    -1680715.745         661.306          36.000  
  21275329.390    -2023903.361        1171.014          31.000  
 18  9 27 19 52 12.0000000  0  8G30G28G15G 8G 7G 5G21G13
  20910698.923     3706208.623       -2203.438          49.000  
  21907107.578    -3356048.965        1032.239          45.000  
  24216505.446    -4073326.7522       2528.636          32.000  
  25823969.282     -251062.291         376.795          43.000  
  23060473.559     6915264.360       -3408.982          51.000  
  20563330.509      935601.8543      -1095.215          28.000  
  26051715.250    -1681376.153         660.670          36.000  
  21275105.329    -2025075.913        1174.218          31.000  
 18  9 27 19 52 13.0000000  0  8G30G28G15G 8G 7G 5G21G13
  20911118.182     3708412.184       -2203.812          49.000  
  21906911.228    -3357080.903        1032.219          45.000  
  24216018.707    -4075854.5882       2526.507          31.000  
  25823898.295     -251438.064         375.714          43.000  
  23061122.533     6918673.577       -3409.338          51.000  
  20563538.917      936698.2423      -1096.756          28.000  
  26051589.556    -1682036.007         660.152          36.000  
  21274881.704    -2026248.176        1171.230          31.000  
 18  9 27 19 52 14.0000000  0  8G30G28G15G 8G 7G 5G21G13
  20911538.087     3710616.223       -2204.302          49.000  
  21906715.018    -3358112.247        1031.095          45.000  
  24215535.946    -4078382.2862       2526.057          31.000  
  25823827.464     -251813.254         375.500          43.000  
  23061771.576     6922083.037       -3409.664          51.000  
  20563747.639      937795.2803      -1098.293          29.000  
  26051463.879    -1682695.364         659.250          36.000  
  21274658.219    -2027419.5373       1170.174          31.000  
 18  9 27 19 52 15.0000000  0  8G30G28G15G 8G 7G 5G21G13
  20911957.224     3712820.929       -2205.440          49.000  
  21906518.633    -3359142.820        1030.109          45.000  
  24215053.099    -4080909.6413       2527.522          31.000  
  25823755.866     -252187.722         374.248          42.000  
  23062420.061     6925492.907       -3409.993          51.000  
  20563957.164      938893.2343      -1098.584          29.000  
  26051338.377    -1683354.021         658.818          36.000  
  21274435.310    -2028590.8982       1170.063          30.000  
 18  9 27 19 52 16.0000000  0  8G30G28G15G 8G 7G 5G21G13
  20912377.495     3715026.169       -2205.309          50.000  
  21906322.562    -3360172.729        1029.992          45.000  
  24214573.375    -4083436.8072       2527.907          31.000  
  25823684.198     -252561.567         373.375          42.000  
  23063068.442     6928903.066       -3410.108          51.000  
  20564164.123      939991.9943      -1099.341          29.000  
  26051213.347    -1684012.167         659.769          36.000  
  21274211.721    -2029761.9362       1172.854          30.000  
 18  9 27 19 52 17.0000000  0  8G30G28G15G 8G 7G 5G21G13
  20912797.260     3717231.534       -2205.239          50.000  
  21906126.230    -3361202.425        1029.551          45.000  
  24214092.482    -4085964.2332       2525.609          31.000  
  25823612.495     -252935.188         373.542          41.000  
  23063716.961     6932313.100       -3410.105          50.000  
  20564374.137      941091.0663      -1098.805          29.000  
  26051088.612    -1684670.140         657.737          36.000  
  21273988.864    -2030932.8802       1169.667          30.000  
 18  9 27 19 52 18.0000000  0  8G30G28G15G 8G 7G 5G21G13
  20913217.496     3719437.241       -2205.778          49.000  
  21905930.438    -3362231.664        1028.975          45.000  
  24213611.310    -4088491.5993       2527.592          30.000  
  25823541.420     -253308.370         373.105          41.000  
  23064365.708     6935723.244       -3410.229          50.000  
  20564582.963      942190.6853      -1099.277          29.000  
  26050963.582    -1685327.743         658.934          35.000  
  21273765.798    -2032103.8373       1166.224          30.000  
 18  9 27 19 52 19.0000000  0  8G30G28G15G 8G 7G 5G21G13
  20913637.470     3721643.287       -2205.910          49.000  
  21905734.385    -3363260.450        1028.722          45.000  
  24213130.486    -4091019.0033       2528.912          30.000  
  25823470.415     -253681.151         372.810          41.000  
  23065014.176     6939133.476       -3409.976          50.000  
  20564793.256      943290.8703      -1100.488          28.000  
  26050839.144    -1685984.953         657.393          36.000  
  21273543.412    -2033274.4172       1170.546          30.000  
 18  9 27 19 52 20.0000000  0  8G30G28G15G 8G 7G 5G21G13
  20914057.340     3723849.643       -2206.681          50.000  
  21905538.873    -3364288.816        1028.248          45.000  
  24212649.785    -4093546.4973       2524.917          30.000  
  25823399.847     -254053.542         372.438          42.000  
  23065663.655     6942543.774       -3410.148          50.000  
  20565003.444      944391.6233      -1101.981          28.000  
  26050714.707    -1686641.877         655.418          36.000  
  21273320.154    -2034444.9063       1171.163          30.000  
 18  9 27 19 52 21.0000000  0  8G30G28G15G 8G 7G 5G21G13
  20914477.471     3726056.548       -2207.330          50.000  
  21905342.924    -3365316.545        1026.914          45.000  
  24212169.084    -4096073.7343       2527.096          30.000  
  25823329.225     -254425.306         371.467          42.000  
  23066312.612     6945954.362       -3410.577          50.000  
  20565214.469      945493.1143      -1101.619          28.000  
  26050589.955    -1687298.188         655.679          36.000  
  21273097.193    -2035615.0952       1170.342          31.000  
 18  9 27 19 52 22.0000000  0  8G30G28G15G 8G 7G 5G21G13
  20914897.498     3728263.714       -2207.542          50.000  
  21905147.028    -3366343.873        1026.912          44.000  
  24211687.179    -4098601.0563       2528.975          29.000  
  25823258.430     -254796.718         371.185          42.000  
  23066961.428     6949364.971       -3411.138          50.000  
  20565426.141      946595.0733      -1101.999          28.000  
  26050465.465    -1687954.204         655.533          36.000  
  21272874.720    -2036785.0342       1169.177          31.000  
 18  9 27 19 52 23.0000000  0  8G30G28G15G 8G 7G 5G21G13
  20915317.560     3730471.534       -2207.858          49.000  
  21904951.027    -3367370.457        1026.129          44.000  
  24211205.186    -4101128.0553       2528.093          29.000  
  25823187.425     -255167.371         370.215          42.000  
  23067610.524     6952775.984       -3410.940          49.000  
  20565635.212      947697.9423      -1103.447          28.000  
  26050341.028    -1688609.588         656.778          35.000  
  21272651.811    -2037954.5752       1168.732          31.000  
 18  9 27 19 52 24.0000000  0  8G30G28G15G 8G 7G 5G21G13
  20915736.958     3732679.569       -2207.992          49.000  
  21904754.974    -3368396.720        1026.357          44.000  
  24210723.107    -4103655.2313       2527.829          29.000  
  25823117.450     -255537.706         370.396          42.000  
  23068259.934     6956186.962       -3410.604          49.000  
  20565847.214      948801.1933      -1103.270          28.000  
  26050216.032    -1689264.757         654.400          36.000  
  21272429.425    -2039123.9942       1168.783          31.000  
 18  9 27 19 52 25.0000000  0  8G30G28G15G 8G 7G 5G21G13
  20916157.386     3734887.980       -2208.770          49.000  
  21904559.968    -3369422.494        1025.349          44.000  
  24210241.044    -4106182.4203       2524.132          29.000  
  25823047.073     -255907.618         369.332          43.000  
  23068908.227     6959598.074       -3411.219          49.000  
  20566058.798      949905.0983      -1105.347          29.000  
  26050091.123    -1689919.488         655.380          35.000  
  21272207.441    -2040293.2722       1169.688          31.000  
 18  9 27 19 52 26.0000000  0  8G30G28G15G 8G 7G 5G21G13
  20916577.605     3737096.654       -2208.842          49.000  
  21904364.700    -3370447.920        1024.436          44.000  
  24209759.959    -4108709.6113       2527.623          29.000  
  25822977.673     -256277.158         368.775          44.000  
  23069556.851     6963009.188       -3411.133          49.000  
  20566266.491      951009.4233      -1105.398          29.000  
  26049966.354    -1690573.958         654.588          35.000  
  21271984.933    -2041462.3792       1167.918          31.000  
 18  9 27 19 52 27.0000000  0  8G30G28G15G 8G 7G 5G21G13
  20916996.846     3739305.875       -2209.632          49.000  
  21904169.188    -3371472.658        1024.519          44.000  
  24209278.333    -4111236.6043       2527.905          29.000  
  25822907.227     -256646.035         368.294          45.000  
  23070205.301     6966420.627       -3411.691          49.000  
  20566479.191      952114.5803      -1105.555          29.000  
  26049841.777    -1691227.822         654.500          36.000  
  21271761.885    -2042631.1042       1166.320          31.000  
 18  9 27 19 52 28.0000000  0  8G30G28G15G 8G 7G 5G21G13
  20917417.205     3741515.393       -2209.667          49.000  
  21903973.815    -3372497.007        1024.017          44.000  
  24208797.300    -4113763.6263       2532.568          28.000  
  25822837.670     -257014.571         368.138          45.000  
  23070853.577     6969832.102       -3411.681          48.000  
  20566701.385      953220.2803      -1104.763          31.000  
  26049717.374    -1691881.389         653.608          36.000  
  21271539.377    -2043799.7042       1168.166          31.000  
 18  9 27 19 52 29.0000000  0  8G30G28G15G 8G 7G 5G21G13
  20917837.668     3743725.187       -2210.150          49.000  
  21903778.931    -3373520.955        1023.372          44.000  
  24208316.634    -4116290.7713       2524.362          29.000  
  25822767.573     -257382.710         367.988          45.000  
  23071502.289     6973243.621       -3411.730          48.000  
  20566913.004      954326.4602      -1105.201          31.000  
  26049593.478    -1692534.648         652.714          36.000  
  21271316.904    -2044968.1522       1167.892          31.000  
 18  9 27 19 52 30.0000000  0  8G30G28G15G 8G 7G 5G21G13
  20918257.834     3745935.520       -2210.591          49.000  
  21903584.047    -3374544.261        1022.925          43.000  
  24207835.113    -4118817.7273       2529.014          28.000  
  25822697.789     -257750.260         366.829          45.000  
  23072151.210     6976655.420       -3411.663          47.000  
  20567119.178      955433.3012      -1106.936          31.000  
  26049469.232    -1693187.341         652.471          35.000  
  21271094.327    -2046136.2032       1165.843          30.000  
 18  9 27 19 52 31.0000000  0  8G30G28G15G 8G 7G 5G21G13
  20918678.489     3748146.320       -2211.052          49.000  
  21903389.530    -3375566.973        1022.973          43.000  
  24207354.220    -4121344.6073       2528.055          28.000  
  25822627.901     -258117.234         367.533          46.000  
  23072800.009     6980067.452       -3411.638          47.000  
  20567333.624      956540.8922      -1105.892          32.000  
  26049345.597    -1693839.531         653.089          36.000  
  21270872.534    -2047304.0323       1168.730          30.000  
 18  9 27 19 52 32.0000000  0  8G30G28G15G 8G 7G 5G21G13
  20919099.545     3750357.416       -2211.199          49.000  
  21903194.332    -3376589.323        1021.591          43.000  
  24206873.484    -4123871.4403       2527.781          28.000  
  25822557.647     -258483.834         366.296          46.000  
  23073449.227     6983479.510       -3412.295          48.000  
  20567545.906      957648.9512      -1108.792          32.000  
  26049222.189    -1694491.443         651.095          36.000  
  21270650.916    -2048471.6512       1167.068          30.000  
 18  9 27 19 52 33.0000000  0  8G30G28G15G 8G 7G 5G21G13
  20919520.218     3752569.027       -2211.750          49.000  
  21902999.081    -3377611.014        1021.876          43.000  
  24206392.573    -4126398.1453       2527.612          28.000  
  25822487.200     -258849.819         365.980          46.000  
  23074100.469     6986891.851       -3412.452          48.000  
  20567755.099      958757.7752      -1108.513          32.000  
  26049098.537    -1695142.764         651.107          36.000  
  21270428.688    -2049638.9102       1165.912          31.000  
 18  9 27 19 52 34.0000000  0  8G30G28G15G 8G 7G 5G21G13
  20919941.483     3754781.233       -2212.453          49.000  
  21902804.214    -3378632.007        1020.414          43.000  
  24205910.965    -4128924.6803       2525.565          28.000  
  25822417.068     -259215.115         365.231          46.000  
  23074751.467     6990304.525       -3412.987          49.000  
  20567967.939      959867.4212      -1109.069          32.000  
  26048975.094    -1695793.475         650.470          37.000  
  21270206.756    -2050805.7452       1167.104          31.000  
 18  9 27 19 52 35.0000000  0  8G30G28G15G 8G 7G 5G21G13
  20920362.662     3756994.012       -2212.867          49.000  
  21902609.610    -3379652.311        1020.524          43.000  
  24205428.449    -4131450.8183       2526.266          28.000  
  25822347.843     -259579.745         364.783          46.000  
  23075401.557     6993717.530       -3412.654          49.000  
  20568179.593      960977.8492      -1110.349          32.000  
  26048852.454    -1696443.604         650.118          37.000  
  21269984.632    -2051972.1273       1168.810          31.000  
 18  9 27 19 52 36.0000000  0  8G30G28G15G 8G 7G 5G21G13
  20920784.120     3759207.087       -2213.594          49.000  
  21902415.075    -3380672.205        1019.681          42.000  
  24204946.683    -4133977.0813       2525.853          28.000  
  25822278.461     -259943.996         363.755          46.000  
  23076051.281     6997130.577       -3413.231          49.000  
  20568390.444      962088.8182      -1112.088          31.000  
  26048728.994    -1697093.402         648.593          37.000  
  21269761.810    -2053138.4133       1166.158          31.000  
 18  9 27 19 52 37.0000000  0  8G30G28G15G 8G 7G 5G21G13
  20921206.066     3761420.367       -2213.562          49.000  
  21902220.016    -3381691.810        1019.092          42.000  
  24204467.099    -4136503.5153       2527.128          29.000  
  25822208.974     -260307.969         363.833          46.000  
  23076700.936     7000543.571       -3413.312          49.000  
  20568601.871      963199.632       -1112.502          30.000  
  26048605.918    -1697742.977         648.150          37.000  
  21269539.425    -2054304.5683       1165.396          31.000  
 18  9 27 19 52 38.0000000  0  8G30G28G15G 8G 7G 5G21G13
  20921627.471     3763634.104       -2214.185          50.000  
  21902025.708    -3382710.803        1018.926          42.000  
  24203987.776    -4139029.8433       2527.201          29.000  
  25822140.028     -260671.394         362.719          46.000  
  23077349.351     7003956.811       -3413.050          49.000  
  20568812.844      964311.675       -1112.797          29.000  
  26048482.789    -1698392.041         648.340          36.000  
  21269317.231    -2055470.5292       1166.186          32.000  
 18  9 27 19 52 39.0000000  0  8G30G28G15G 8G 7G 5G21G13
  20922049.557     3765848.314       -2214.441          50.000  
  21901830.929    -3383729.237        1018.074          41.000  
  24203508.087    -4141556.0293       2525.717          29.000  
  25822071.204     -261034.257         362.529          46.000  
  23077998.778     7007370.261       -3413.623          49.000  
  20569023.747      965424.8983      -1111.083          29.000  
  26048359.765    -1699040.639         648.656          36.000  
  21269095.823    -2056636.1192       1164.794          32.000  
 18  9 27 19 52 40.0000000  0  8G30G28G15G 8G 7G 5G21G13
  20922471.224     3768063.000       -2214.571          50.000  
  21901635.853    -3384747.091        1017.246          41.000  
  24203027.473    -4144082.0833       2525.601          29.000  
  25822002.695     -261396.533         361.983          45.000  
  23078648.223     7010783.942       -3413.748          49.000  
  20569234.633      966538.2813      -1117.791          29.000  
  26048236.270    -1699688.739         647.946          36.000  
  21268875.392    -2057801.3972       1164.725          32.000  
 18  9 27 19 52 41.0000000  0  8G30G28G15G 8G 7G 5G21G13
  20922893.258     3770277.911       -2214.872          50.000  
  21901442.050    -3385764.597        1017.282          41.000  
  24202548.081    -4146608.2943       2524.748          30.000  
  25821933.889     -261758.518         361.701          45.000  
  23079298.017     7014197.610       -3413.391          49.000  
  20569444.908      967652.2823      -1111.110          29.000  
  26048112.356    -1700336.575         647.191          35.000  
  21268654.263    -2058966.6172       1165.467          32.000  
 18  9 27 19 52 42.0000000  0  8G30G28G15G 8G 7G 5G21G13
  20923315.448     3772493.270       -2215.358          50.000  
  21901248.091    -3386781.569        1017.581          41.000  
  24202072.824    -4149134.4113       2526.441          30.000  
  25821865.065     -262119.956         361.066          45.000  
  23079948.927     7017611.458       -3413.660          49.000  
  20569655.654      968766.7672      -1113.355          29.000  
  26047988.668    -1700983.978         645.642          35.000  
  21268432.941    -2060131.5042       1165.123          32.000  
 18  9 27 19 52 43.0000000  0  8G30G28G15G 8G 7G 5G21G13
  20923736.993     3774708.561       -2215.357          50.000  
  21901054.307    -3387798.475        1016.414          40.000  
  24201588.336    -4151660.8803       2525.683          30.000  
  25821795.665     -262481.338         360.816          44.000  
  23080599.820     7021025.006       -3413.347          49.000  
  20569866.593      969881.4943      -1115.023          29.000  
  26047865.487    -1701631.344         646.518          35.000  
  21268211.027    -2061296.6572       1164.680          32.000  
 18  9 27 19 52 44.0000000  0  8G30G28G15G 8G 7G 5G21G13
  20924158.939     3776924.330       -2215.874          50.000  
  21900860.278    -3388814.786        1015.888          40.000  
  24201100.969    -4154187.3302       2522.708          29.000  
  25821727.051     -262842.168         360.364          44.000  
  23081249.771     7024438.773       -3413.753          49.000  
  20570078.212      970996.9043      -1115.020          29.000  
  26047741.608    -1702278.245         649.108          34.000  
  21267989.758    -2062461.4482       1162.686          32.000  
 18  9 27 19 52 45.0000000  0  8G30G28G15G 8G 7G 5G21G13
  20924580.763     3779140.462       -2216.497          51.000  
  21900665.969    -3389830.628        1015.547          40.000  
  24200615.993    -4156713.5523       2526.180          29.000  
  25821658.803     -263202.557         359.579          44.000  
  23081900.036     7027852.654       -3413.807          50.000  
  20570289.935      972112.8892      -1114.630          29.000  
  26047617.816    -1702924.800         647.837          34.000  
  21267767.844    -2063626.0392       1163.763          31.000  
 18  9 27 19 52 46.0000000  0  8G30G28G15G 8G 7G 5G21G13
  20925002.588     3781357.017       -2216.763          51.000  
  21900473.127    -3390845.941        1015.582          40.000  
  24200132.622    -4159240.0043       2525.742          29.000  
  25821590.067     -263562.396         360.010          44.000  
  23082550.144     7031266.710       -3414.294          50.000  
  20570501.920      973229.4962      -1119.748          29.000  
  26047494.618    -1703570.875         645.992          33.000  
  21267545.720    -2064790.3602       1163.788          31.000  
 18  9 27 19 52 47.0000000  0  8G30G28G15G 8G 7G 5G21G13
  20925424.673     3783574.402       -2217.480          50.000  
  21900280.285    -3391860.314        1013.418          40.000  
  24199652.828    -4161765.7813       2525.870          29.000  
  25821522.133     -263921.348         358.119          43.000  
  23083200.095     7034681.349       -3414.819          50.000  
  20570713.731      974347.1832      -1120.315          30.000  
  26047371.751    -1704216.078         644.190          33.000  
  21267323.160    -2065954.0482       1163.605          31.000  
 18  9 27 19 52 48.0000000  0  8G30G28G15G 8G 7G 5G21G13
  20925847.091     3785792.012       -2218.104          51.000  
  21900087.024    -3392874.337        1013.805          40.000  
  24199172.720    -4164291.6783       2526.046          28.000  
  25821454.514     -264279.984         357.880          43.000  
  23083850.133     7038095.972       -3414.542          50.000  
  20570925.542      975465.3483      -1118.527          30.000  
  26047248.692    -1704861.105         642.868          34.000  
  21267100.687    -2067117.5722       1164.096          30.000  
 18  9 27 19 52 49.0000000  0  8G30G28G15G 8G 7G 5G21G13
  20926268.845     3788010.160       -2218.949          50.000  
  21899894.007    -3393887.701        1013.439          40.000  
  24198692.333    -4166817.3333       2526.345          28.000  
  25821386.214     -264637.986         358.209          42.000  
  23084500.171     7041510.891       -3415.027          50.000  
  20571137.475      976584.2242      -1118.802          30.000  
  26047125.999    -1705505.427         644.921          34.000  
  21266879.296    -2068280.8023       1160.024          30.000  
 18  9 27 19 52 50.0000000  0  8G30G28G15G 8G 7G 5G21G13
  20926691.367     3790228.637       -2218.375          51.000  
  21899700.798    -3394900.670        1013.388          40.000  
  24198211.318    -4169343.3163       2525.870          28.000  
  25821318.559     -264995.596         357.668          42.000  
  23085150.034     7044925.862       -3414.968          50.000  
  20571349.495      977703.6433      -1121.566          30.000  
  26047003.063    -1706149.522         643.471          33.000  
  21266657.382    -2069443.8122       1161.343          30.000  
 18  9 27 19 52 51.0000000  0  7G30G28G 8G 7G 5G21G13
  20927114.134     3792447.405       -2219.031          51.000  
  21899508.025    -3395913.186        1011.967          40.000  
  25821249.543     -265352.783         357.168          41.000  
  23085799.409     7048340.910       -3415.041          50.000  
  20571562.457      978823.6162      -1121.934          30.000  
  26046879.847    -1706793.304         642.738          34.000  
  21266435.275    -2070606.6313       1163.479          30.000  
 18  9 27 19 52 52.0000000  0  7G30G28G 8G 7G 5G21G13
  20927536.028     3794666.636       -2218.896          51.000  
  21899315.009    -3396925.138        1012.417          40.000  
  25821180.737     -265709.435         357.131          41.000  
  23086449.552     7051756.154       -3415.018          50.000  
  20571775.629      979944.2473      -1120.112          30.000  
  26046757.259    -1707436.546         642.873          34.000  
  21266213.658    -2071769.1983       1164.952          29.000  
 18  9 27 19 52 53.0000000  0  7G30G28G 8G 7G 5G21G13
  20927957.852     3796886.277       -2219.467          51.000  
  21899122.096    -3397936.582        1011.211          40.000  
  25821112.402     -266065.589         356.315          41.000  
  23087098.753     7055171.559       -3415.202          50.000  
  20571989.569      981065.4972      -1119.862          30.000  
  26046635.038    -1708079.364         642.605          34.000  
  21265991.813    -2072931.5243       1166.156          29.000  
 18  9 27 19 52 54.0000000  0  7G30G28G 8G 7G 5G21G13
  20928380.496     3799106.204       -2220.395          51.000  
  21898929.498    -3398947.623        1010.491          40.000  
  25821045.166     -266421.373         355.088          41.000  
  23087748.389     7058587.017       -3415.520          50.000  
  20572202.915      982187.1992      -1124.184          31.000  
  26046512.624    -1708721.8533        641.836          34.000  
  21265769.689    -2074093.6483       1161.973          29.000  
 18  9 27 19 52 55.0000000  0  7G30G28G 8G 7G 5G21G13
  20928803.524     3801326.727       -2220.719          51.000  
  21898737.162    -3399957.953        1010.089          40.000  
  25820978.611     -266776.454         354.635          41.000  
  23088397.694     7062002.820       -3416.082          50.000  
  20572416.959      983309.8463      -1121.527          31.000  
  26046390.263    -1709363.7262        640.165          34.000  
  21265547.688    -2075255.3403       1161.772          28.000  
 18  9 27 19 52 56.0000000  0  7G30G28G 8G 7G 5G21G13
  20929226.326     3803547.607       -2221.120          51.000  
  21898545.349    -3400967.805        1010.185          40.000  
  25820911.725     -267131.131         354.284          41.000  
  23089047.698     7065418.739       -3416.039          50.000  
  20572630.480      984433.0112      -1121.644          32.000  
  26046268.688    -1710005.2032        641.354          35.000  
  21265325.948    -2076416.9453       1160.918          28.000  
 18  9 27 19 52 57.0000000  0  7G30G28G 8G 7G 5G21G13
  20929648.830     3805768.731       -2221.096          51.000  
  21898353.187    -3401977.304        1009.613          40.000  
  25820844.995     -267485.421         354.069          41.000  
  23089698.224     7068834.655       -3415.917          50.000  
  20572844.996      985556.6662      -1123.153          32.000  
  26046146.746    -1710646.4222        641.033          35.000  
  21265104.400    -2077578.3703       1160.361          28.000  
 18  9 27 19 52 58.0000000  0  7G30G28G 8G 7G 5G21G13
  20930071.579     3807990.179       -2221.830          51.000  
  21898161.392    -3402986.362        1008.839          40.000  
  25820777.236     -267839.334         353.284          41.000  
  23090348.384     7072250.642       -3415.957          50.000  
  20573059.162      986680.8482      -1123.100          32.000  
  26046025.397    -1711287.2792        640.308          35.000  
  21264884.021    -2078739.6003       1155.779          28.000  
 18  9 27 19 52 59.0000000  0  8G30G28G15G 8G 7G 5G21G13
  20930494.607     3810212.165       -2221.957          51.000  
  21897970.173    -3403994.773        1008.407          40.000  
  24193886.089    -4192072.9743       2525.621          28.000  
  25820709.895     -268192.611         353.698          41.000  
  23090998.318     7075666.916       -3416.143          50.000  
  20573274.271      987805.7452      -1125.921          32.000  
  26045903.943    -1711927.5852        639.623          36.000  
  21264662.735    -2079900.4233       1161.635          28.000  
 18  9 27 19 53  0.0000000  0  7G30G28G15G 8G 7G 5G21
  20930918.124     3812434.543       -2222.710          51.000  
  21897778.953    -3405002.682        1007.074          40.000  
  24193404.743    -4194598.2923       2524.030          29.000  
  25820642.590     -268545.404         352.550          41.000  
  23091648.077     7079083.337       -3416.503          49.000  
  20573489.764      988931.3232      -1126.197          32.000  
  26045783.118    -1712567.4512        640.610          36.000  
 18  9 27 19 53  1.0000000  0  7G30G28G15G 8G 7G 5G21
  20931341.571     3814657.345       -2223.043          51.000  
  21897587.856    -3406010.037        1007.119          40.000  
  24192932.156    -4197123.6503       2527.611          31.000  
  25820575.058     -268897.678         351.879          41.000  
  23092297.888     7082499.944       -3416.757          49.000  
  20573705.100      990057.4822      -1126.575          31.000  
  26045661.874    -1713206.868         639.785          36.000  
 18  9 27 19 53  2.0000000  0  8G30G28G15G 8G 7G 5G21G13
  20931764.721     3816880.477       -2223.147          51.000  
  21897397.090    -3407016.964        1006.590          40.000  
  24192459.063    -4199648.8942       2526.709          32.000  
  25820508.572     -269249.531         351.635          42.000  
  23092948.257     7085916.627       -3416.506          49.000  
  20573920.383      991184.2602      -1124.408          31.000  
  26045540.804    -1713845.934         639.693          35.000  
  21263997.637    -2083381.5273       1159.567          28.000  
 18  9 27 19 53  3.0000000  0  8G30G28G15G 8G 7G 5G21G13
  20932188.151     3819104.051       -2223.818          51.000  
  21897206.324    -3408023.329        1005.542          41.000  
  24191977.402    -4202174.0092       2523.768          32.000  
  25820442.680     -269600.851         350.979          42.000  
  23093598.662     7089333.507       -3416.908          50.000  
  20574135.317      992311.6302      -1128.515          30.000  
  26045418.845    -1714484.542         637.847          35.000  
  21263776.543    -2084541.4243       1159.249          28.000  
 18  9 27 19 53  4.0000000  0  8G30G28G15G 8G 7G 5G21G13
  20932611.546     3821328.208       -2224.608          51.000  
  21897014.913    -3409028.980        1004.745          41.000  
  24191498.202    -4204698.8453       2523.527          33.000  
  25820376.143     -269951.502         350.424          42.000  
  23094249.660     7092750.716       -3417.487          50.000  
  20574350.077      993439.7953      -1129.485          30.000  
  26045297.880    -1715122.533         636.856          35.000  
  21263555.798    -2085700.8473       1159.547          28.000  
 18  9 27 19 53  5.0000000  0  7G30G28G15G 8G 7G 5G21
  20933035.132     3823552.798       -2224.650          52.000  
  21896824.217    -3410034.080        1005.395          41.000  
  24191016.436    -4207223.6082       2524.904          33.000  
  25820309.587     -270301.607         349.990          42.000  
  23094900.588     7096168.118       -3417.364          50.000  
  20574564.331      994568.6892      -1130.343          30.000  
  26045176.479    -1715760.075         637.697          35.000  
 18  9 27 19 53  6.0000000  0  7G30G28G15G 8G 7G 5G21
  20933458.614     3825777.636       -2225.001          52.000  
  21896633.102    -3411038.813        1005.069          41.000  
  24190533.885    -4209748.5152       2524.460          33.000  
  25820242.509     -270651.356         349.733          41.000  
  23095550.591     7099585.530       -3417.093          50.000  
  20574778.794      995698.1202      -1127.444          29.000  
  26045055.880    -1716397.307         637.631          35.000  
 18  9 27 19 53  7.0000000  0  7G30G28G15G 8G 7G 5G21
  20933882.445     3828002.665       -2225.257          52.000  
  21896442.057    -3412043.264        1004.193          41.000  
  24190055.069    -4212273.5192       2525.502          33.000  
  25820175.901     -271000.858         349.126          41.000  
  23096200.786     7103002.859       -3417.353          50.000  
  20574993.292      996827.8622      -1128.785          29.000  
  26044934.671    -1717034.314         636.487          35.000  
 18  9 27 19 53  8.0000000  0  8G30G28G15G 8G 7G 5G21G13
  20934306.415     3830228.252       -2225.855          52.000  
  21896251.693    -3413047.039        1003.656          41.000  
  24189574.716    -4214798.3432       2525.849          33.000  
  25820109.276     -271349.701         348.153          42.000  
  23096850.685     7106420.497       -3418.096          49.000  
  20575208.576      997958.4043      -1130.715          29.000  
  26044812.415    -1717670.762         638.094          35.000  
  21262674.474    -2090336.7463       1154.087          29.000  
 18  9 27 19 53  9.0000000  0  8G30G28G15G 8G 7G 5G21G13
  20934730.473     3832454.335       -2226.431          52.000  
  21896061.311    -3414050.199        1002.017          42.000  
  24189094.835    -4217322.9782       2526.502          33.000  
  25820043.158     -271697.922         348.537          42.000  
  23097500.060     7109838.410       -3418.116          49.000  
  20575423.335      999089.5983      -1130.109          29.000  
  26044690.542    -1718306.711         634.170          33.000  
  21262455.160    -2091494.9643       1158.637          29.000  
 18  9 27 19 53 10.0000000  0  8G30G28G15G 8G 7G 5G21G13
  20935154.007     3834680.837       -2226.752          52.000  
  21895871.278    -3415052.824        1002.598          42.000  
  24188614.134    -4219847.5872       2525.018          33.000  
  25819977.597     -272045.668         347.892          41.000  
  23098150.150     7113256.486       -3418.097          48.000  
  20575638.182     1000221.4862      -1130.052          29.000  
  26044569.316    -1718942.150         635.359          34.000  
  21262235.165    -2092652.9503       1158.443          29.000  
 18  9 27 19 53 11.0000000  0  8G30G28G15G 8G 7G 5G21G13
  20935577.472     3836907.507       -2226.742          51.000  
  21895681.228    -3416055.169        1002.240          42.000  
  24188133.328    -4222372.3792       2524.279          33.000  
  25819911.845     -272393.159         346.526          41.000  
  23098800.083     7116674.489       -3418.461          48.000  
  20575853.204     1001353.7833      -1132.001          29.000  
  26044447.583    -1719577.434         636.399          33.000  
  21262014.996    -2093810.9243       1159.142          29.000  
 18  9 27 19 53 12.0000000  0  8G30G28G15G 8G 7G 5G21G13
  20936001.565     3839134.734       -2227.172          52.000  
  21895490.863    -3417056.839        1000.951          42.000  
  24187653.011    -4224896.9332       2524.590          32.000  
  25819846.441     -272739.994         346.735          41.000  
  23099450.191     7120092.804       -3418.206          48.000  
  20576069.325     1002486.8172      -1133.485          29.000  
  26044326.793    -1720212.146         632.703          33.000  
  21261795.228    -2094968.5072       1156.996          30.000  
 18  9 27 19 53 13.0000000  0  8G30G28G15G 8G 7G 5G21G13
  20936424.924     3841362.357       -2228.261          52.000  
  21895300.795    -3418058.002        1001.036          42.000  
  24187172.397    -4227421.919        2525.181          32.000  
  25819780.427     -273086.316         346.545          40.000  
  23100100.857     7123511.262       -3419.075          48.000  
  20576285.533     1003620.4933      -1131.326          30.000  
  26044206.194    -1720846.360         634.222          32.000  
  21261575.774    -2096125.8182       1157.179          30.000  
 18  9 27 19 53 14.0000000  0  8G30G28G15G 8G 7G 5G21G13
  20936848.371     3843590.442       -2228.244          52.000  
  21895110.553    -3419058.592        1000.232          43.000  
  24186691.609    -4229946.304        2523.756          32.000  
  25819714.081     -273432.096         345.751          40.000  
  23100751.192     7126929.943       -3418.642          48.000  
  20576501.497     1004754.7873      -1135.125          30.000  
  26044084.985    -1721480.1713        632.323          32.000  
  21261356.163    -2097282.8462       1155.332          30.000  
 18  9 27 19 53 15.0000000  0  8G30G28G15G 8G 7G 5G21G13
  20937271.993     3845818.876       -2228.594          52.000  
  21894920.695    -3420058.706        1000.063          43.000  
  24186210.611    -4232470.645        2524.131          32.000  
  25819647.771     -273777.454         345.412          39.000  
  23101402.364     7130348.710       -3418.860          48.000  
  20576717.653     1005889.7592      -1135.020          30.000  
  26043964.177    -1722113.5572        634.763          30.000  
  21261137.372    -2098439.7002       1155.880          30.000  
 18  9 27 19 53 16.0000000  0  8G30G28G15G 8G 7G 5G21G13
  20937695.946     3848047.839       -2229.639          52.000  
  21894730.557    -3421058.184         999.012          43.000  
  24185729.753    -4234994.858        2523.658          32.000  
  25819581.669     -274122.165         344.168          40.000  
  23102052.542     7133767.760       -3419.849          48.000  
  20576932.919     1007025.3812      -1136.760          30.000  
  26043843.107    -1722746.4733        629.766          30.000  
  21260917.918    -2099596.1002       1156.906          30.000  
 18  9 27 19 53 17.0000000  0  8G30G28G15G 8G 7G 5G21G13
  20938120.073     3850277.312       -2229.410          52.000  
  21894541.205    -3422057.042         998.877          43.000  
  24185248.005    -4237518.895        2525.376          31.000  
  25819516.266     -274466.266         344.418          40.000  
  23102702.493     7137187.078       -3418.938          48.000  
  20577148.534     1008161.8022      -1136.601          31.000  
  26043722.544    -1723378.7732        630.672          31.000  
  21260699.354    -2100752.2553       1155.618          30.000  
 18  9 27 19 53 18.0000000  0  8G30G28G15G 8G 7G 5G21G13
  20938543.887     3852507.267       -2230.670          51.000  
  21894351.643    -3423055.286         997.581          43.000  
  24184767.181    -4240042.765        2525.468          31.000  
  25819450.356     -274809.791         343.067          40.000  
  23103353.491     7140606.634       -3419.851          48.000  
  20577364.393     1009298.9572      -1136.353          31.000  
  26043602.347    -1724010.5282        630.774          31.000  
  21260480.633    -2101908.0033       1154.771          31.000  
 18  9 27 19 53 19.0000000  0  8G30G28G15G 8G 7G 5G21G13
  20938967.910     3854737.674       -2230.879          51.000  
  21894162.081    -3424052.979         997.234          44.000  
  24184285.294    -4242566.480        2524.183          30.000  
  25819385.913     -275152.786         342.661          40.000  
  23104003.825     7144026.378       -3419.878          48.000  
  20577582.084     1010436.7562      -1138.474          31.000  
  26043482.289    -1724641.8193        630.165          30.000  
  21260261.336    -2103063.4312       1155.232          31.000  
 18  9 27 19 53 20.0000000  0  8G30G28G15G 8G 7G 5G21G13
  20939392.735     3856968.525       -2231.081          51.000  
  21893972.607    -3425050.110         996.960          44.000  
  24183803.389    -4245089.6933       2520.901          30.000  
  25819321.068     -275495.265         342.282          40.000  
  23104654.160     7147446.329       -3420.128          47.000  
  20577799.462     1011575.2533      -1137.151          32.000  
  26043362.947    -1725272.7473        629.905          29.000  
  21260042.301    -2104218.6362       1155.340          31.000  
 18  9 27 19 53 21.0000000  0  7G30G28G15G 8G 7G 5G13
  20939817.788     3859199.725       -2231.180          52.000  
  21893783.499    -3426046.757         996.956          44.000  
  24183321.937    -4247613.3683       2523.261          30.000  
  25819255.699     -275837.282         341.791          40.000  
  23105305.716     7150866.388       -3420.195          48.000  
  20578016.822     1012714.2632      -1140.205          32.000  
  21259823.161    -2105373.5732       1157.777          31.000  
 18  9 27 19 53 22.0000000  0  7G30G28G15G 8G 7G 5G13
  20940242.578     3861431.267       -2231.668          52.000  
  21893594.181    -3427042.948         996.263          44.000  
  24182840.817    -4250136.9652       2526.396          30.000  
  25819190.732     -276178.871         340.484          39.000  
  23105957.465     7154286.543       -3420.150          49.000  
  20578233.449     1013853.8692      -1138.701          31.000  
  21259604.458    -2106528.3202       1156.856          31.000  
 18  9 27 19 53 23.0000000  0  7G30G28G15G 8G 7G 5G13
  20940667.369     3863663.253       -2232.081          52.000  
  21893405.178    -3428038.575         995.277          44.000  
  24182359.872    -4252660.5623       2517.160          29.000  
  25819125.136     -276519.906         339.658          39.000  
  23106608.811     7157706.889       -3420.185          48.000  
  20578450.233     1014994.1692      -1139.622          31.000  
  21259385.370    -2107682.8212       1151.937          31.000  
 18  9 27 19 53 24.0000000  0  6G30G28G 8G 7G 5G13
  20941092.666     3865895.449       -2232.745          52.000  
  21893216.070    -3429033.867         994.885          44.000  
  25819060.501     -276860.619         340.277          39.000  
  23107259.373     7161127.209       -3420.289          48.000  
  20578667.523     1016134.8592      -1143.412          31.000  
  21259166.265    -2108837.2332       1155.477          31.000  
 18  9 27 19 53 25.0000000  0  6G30G28G 8G 7G 5G13
  20941517.892     3868128.255       -2233.182          52.000  
  21893026.892    -3430028.466         993.731          45.000  
  25818996.127     -277200.672         339.385          40.000  
  23107910.266     7164547.867       -3420.777          48.000  
  20578884.254     1017276.3702      -1141.836          31.000  
  21258946.968    -2109991.669        1152.673          31.000  
 18  9 27 19 53 26.0000000  0  6G30G28G 8G 7G 5G13
  20941942.701     3870361.572       -2233.859          52.000  
  21892837.470    -3431022.412         992.707          45.000  
  25818931.230     -277540.089         339.140          41.000  
  23108560.566     7167968.822       -3421.191          48.000  
  20579101.894     1018418.6622      -1142.754          31.000  
  21258727.375    -2111145.283        1152.629          31.000  
 18  9 27 19 53 27.0000000  0  7G30G28G 8G 7G 5G21G13
  20942367.893     3872595.317       -2234.103          52.000  
  21892648.327    -3432015.794         993.258          45.000  
  25818866.332     -277878.988         338.244          40.000  
  23109211.162     7171389.950       -3421.401          48.000  
  20579318.922     1019561.6092      -1142.742          31.000  
  26042518.933    -1729677.9693        627.104          29.000  
  21258508.217    -2112298.516        1154.719          32.000  
 18  9 27 19 53 28.0000000  0  7G30G28G 8G 7G 5G21G13
  20942793.015     3874829.368       -2234.358          52.000  
  21892459.603    -3433008.774         992.864          45.000  
  25818801.522     -278217.479         337.615          40.000  
  23109861.794     7174811.139       -3421.042          47.000  
  20579536.509     1020705.1003      -1144.767          30.000  
  26042407.391    -1730305.3913        627.405          31.000  
  21258289.095    -2113451.712        1152.807          32.000  
 18  9 27 19 53 29.0000000  0  8G30G28G15G 8G 7G 5G21G13
  20943218.556     3877063.810       -2234.593          52.000  
  21892270.792    -3434001.237         992.436          45.000  
  24179474.251    -4267799.9033       2522.715          29.000  
  25818736.817     -278555.472         338.547          40.000  
  23110512.460     7178232.467       -3421.404          47.000  
  20579753.240     1021849.1083      -1144.926          30.000  
  26042284.437    -1730932.3332        627.688          31.000  
  21258070.095    -2114604.620        1151.974          33.000  
 18  9 27 19 53 30.0000000  0  8G30G28G15G 8G 7G 5G21G13
  20943643.451     3879298.628       -2235.059          52.000  
  21892082.295    -3434993.204         991.593          45.000  
  24178993.323    -4270323.0093       2524.136          29.000  
  25818671.972     -278893.015         337.447          40.000  
  23111163.039     7181653.919       -3421.413          47.000  
  20579970.321     1022993.8222      -1143.103          30.000  
  26042162.355    -1731558.9392        628.660          31.000  
  21257851.147    -2115757.322        1153.047          33.000  
 18  9 27 19 53 31.0000000  0  8G30G28G15G 8G 7G 5G21G13
  20944068.242     3881533.809       -2235.149          52.000  
  21891893.571    -3435984.708         991.568          45.000  
  24178512.622    -4272846.1143       2520.494          29.000  
  25818607.755     -279230.071         337.975          40.000  
  23111813.915     7185075.509       -3421.151          47.000  
  20580188.100     1024139.1013      -1145.554          31.000  
  26042046.206    -1732185.1262        622.914          31.000  
  21257631.850    -2116909.784        1153.756          33.000  
 18  9 27 19 53 32.0000000  0  8G30G28G15G 8G 7G 5G21G13
  20944493.800     3883769.214       -2235.673          52.000  
  21891704.881    -3436975.850         990.604          45.000  
  24178031.816    -4275369.3473       2522.661          29.000  
  25818542.421     -279566.834         336.576          40.000  
  23112465.506     7188497.042       -3421.632          46.000  
  20580406.524     1025284.8012      -1145.526          31.000  
  26041930.930    -1732811.1033        626.511          32.000  
  21257412.605    -2118062.202        1153.093          33.000  
 18  9 27 19 53 33.0000000  0  8G30G28G15G 8G 7G 5G21G13
  20944919.568     3886005.091       -2235.606          52.000  
  21891516.576    -3437966.396         989.731          45.000  
  24177551.447    -4277892.3733       2522.926          29.000  
  25818478.746     -279903.010         335.656          40.000  
  23113117.306     7191918.823       -3421.711          47.000  
  20580624.914     1026431.1642      -1150.219          31.000  
  26041810.960    -1733436.5622        626.135          33.000  
  21257193.972    -2119214.276        1154.259          33.000  
 18  9 27 19 53 34.0000000  0  8G30G28G15G 8G 7G 5G21G13
  20945345.249     3888241.383       -2236.430          52.000  
  21891328.009    -3438956.396         989.917          45.000  
  24177070.711    -4280415.4043       2522.248          29.000  
  25818414.599     -280238.706         335.265          40.000  
  23113769.875     7195340.771       -3422.041          47.000  
  20580843.198     1027578.2372      -1147.651          31.000  
  26041695.055    -1734061.4532        624.463          34.000  
  21256975.338    -2120366.113        1152.385          34.000  
 18  9 27 19 53 35.0000000  0  7G30G28G 8G 7G 5G21G13
  20945770.982     3890478.257       -2236.900          52.000  
  21891139.756    -3439945.701         989.465          45.000  
  25818350.748     -280573.729         334.712          40.000  
  23114421.954     7198763.034       -3422.171          47.000  
  20581061.536     1028726.0562      -1149.600          31.000  
  26041576.394    -1734685.8042        625.212          34.000  
  21256756.948    -2121517.488        1152.724          34.000  
 18  9 27 19 53 36.0000000  0  7G30G28G 8G 7G 5G21G13
  20946196.313     3892715.407       -2237.708          53.000  
  21890951.521    -3440934.596         988.595          46.000  
  25818286.531     -280908.364         333.581          40.000  
  23115073.563     7202185.334       -3422.573          48.000  
  20581280.274     1029874.4073      -1149.156          31.000  
  26041458.483    -1735309.8402        624.897          33.000  
  21256538.454    -2122668.771        1150.448          35.000  
 18  9 27 19 53 37.0000000  0  7G30G28G 8G 7G 5G21G13
  20946622.203     3894953.010       -2237.841          52.000  
  21890763.704    -3441922.956         988.116          45.000  
  25818222.873     -281242.446         333.534          40.000  
  23115724.962     7205607.830       -3422.493          48.000  
  20581498.943     1031023.4152      -1149.166          31.000  
  26041338.827    -1735933.3832        623.949          32.000  
  21256320.501    -2123819.760        1149.501          35.000  
 18  9 27 19 53 38.0000000  0  7G30G28G 8G 7G 5G21G13
  20947048.582     3897191.114       -2238.522          52.000  
  21890575.224    -3442910.666         987.024          46.000  
  25818158.988     -281575.907         332.287          40.000  
  23116376.135     7209030.585       -3423.387          48.000  
  20581717.367     1032173.1742      -1150.195          31.000  
  26041219.048    -1736556.4933        621.159          30.000  
  21256102.042    -2124970.327        1151.516          35.000  
 18  9 27 19 53 39.0000000  0  7G30G28G 8G 7G 5G21G13
  20947474.489     3899429.552       -2238.197          52.000  
  21890387.564    -3443897.947         986.782          45.000  
  25818095.451     -281908.978         332.742          40.000  
  23117026.504     7212453.423       -3422.849          48.000  
  20581935.879     1033323.4482      -1150.492          31.000  
  26041099.445    -1737179.1983        619.436          30.000  
  21255883.286    -2126120.748        1150.386          35.000  
 18  9 27 19 53 40.0000000  0  7G30G28G 8G 7G 5G21G13
  20947900.205     3901668.366       -2238.881          52.000  
  21890200.812    -3444884.707         986.800          46.000  
  25818031.322     -282241.572         332.628          40.000  
  23117677.537     7215876.410       -3422.623          47.000  
  20582154.390     1034474.3602      -1150.127          31.000  
  26040980.190    -1737801.4383        625.084          31.000  
  21255664.827    -2127270.939        1149.544          35.000  
 18  9 27 19 53 41.0000000  0  7G30G28G 8G 7G 5G21G13
  20948325.833     3903907.524       -2239.644          52.000  
  21890013.065    -3445871.010         986.273          46.000  
  25817967.978     -282573.713         331.815          40.000  
  23118327.994     7219299.485       -3423.146          47.000  
  20582372.640     1035625.8443      -1153.539          30.000  
  26040861.406    -1738423.3402        621.364          32.000  
  21255446.036    -2128420.925        1149.717          35.000  
 18  9 27 19 53 42.0000000  0  7G30G28G 8G 7G 5G21G13
  20948751.444     3906147.025       -2239.964          52.000  
  21889825.737    -3446856.864         985.448          46.000  
  25817904.895     -282905.388         331.274          40.000  
  23118978.590     7222722.666       -3423.761          47.000  
  20582590.646     1036777.9102      -1150.714          30.000  
  26040742.675    -1739044.8272        622.509          32.000  
  21255227.454    -2129570.725        1149.541          35.000  
 18  9 27 19 53 43.0000000  0  7G30G28G 8G 7G 5G21G13
  20949178.346     3908386.964       -2239.560          52.000  
  21889638.549    -3447842.167         985.615          46.000  
  25817841.743     -283236.559         330.653          40.000  
  23119630.112     7226146.020       -3423.138          47.000  
  20582809.070     1037930.6062      -1153.969          29.000  
  26040623.891    -1739665.8792        620.846          32.000  
  21255009.257    -2130720.207        1149.738          35.000  
 18  9 27 19 53 44.0000000  0  7G30G28G 8G 7G 5G21G13
  20949604.428     3910627.233       -2240.375          52.000  
  21889451.727    -3448827.012         984.303          46.000  
  25817779.044     -283567.281         330.731          40.000  
  23120281.371     7229569.480       -3423.986          47.000  
  20583027.617     1039083.8703      -1151.528          29.000  
  26040505.212    -1740286.5323        619.049          31.000  
  21254791.007    -2131869.515        1149.444          34.000  
 18  9 27 19 53 45.0000000  0  7G30G28G 8G 7G 5G21G13
  20950030.685     3912867.888       -2240.741          52.000  
  21889263.858    -3449811.340         983.799          46.000  
  25817715.874     -283897.559         329.820          40.000  
  23120933.032     7232993.059       -3424.028          46.000  
  20583246.477     1040237.6453      -1154.760          29.000  
  26040386.603    -1740906.8613        619.104          31.000  
  21254572.705    -2133018.601        1149.496          34.000  
 18  9 27 19 53 46.0000000  0  7G30G28G 8G 7G 5G21G13
  20950457.046     3915109.063       -2241.077          51.000  
  21889076.617    -3450795.062         983.534          46.000  
  25817653.909     -284227.177         329.865          40.000  
  23121584.571     7236416.904       -3423.846          46.000  
  20583465.164     1041392.1803      -1154.704          29.000  
  26040268.134    -1741526.6272        617.869          31.000  
  21254354.612    -2134167.330        1147.280          34.000  
 18  9 27 19 53 47.0000000  0  7G30G28G 8G 7G 5G21G13
  20950884.000     3917350.652       -2241.775          52.000  
  21888889.271    -3451778.222         982.816          46.000  
  25817591.419     -284556.324         327.922          40.000  
  23122236.232     7239840.931       -3423.774          46.000  
  20583684.495     1042547.4653      -1155.361          30.000  
  26040150.362    -1742145.8903        618.721          31.000  
  21254136.257    -2135315.743        1146.721          34.000  
 18  9 27 19 53 48.0000000  0  8G30G28G15G 8G 7G 5G21G13
  20951310.606     3919592.671       -2242.083          51.000  
  21888702.292    -3452760.837         982.342          46.000  
  24170350.440    -4315731.1283       2522.294          28.000  
  25817528.703     -284884.909         328.534          39.000  
  23122887.509     7243265.102       -3424.222          46.000  
  20583903.932     1043703.4153      -1155.009          31.000  
  26040033.411    -1742764.6662        618.781          32.000  
  21253917.798    -2136463.922        1148.402          34.000  
 18  9 27 19 53 49.0000000  0  7G30G28G 8G 7G 5G21G13
  20951737.263     3921835.119       -2242.615          52.000  
  21888515.331    -3453742.904         981.576          46.000  
  25817465.464     -285212.979         327.373          39.000  
  23123538.873     7246689.466       -3424.594          46.000  
  20584124.031     1044860.0302      -1156.969          31.000  
  26039915.238    -1743383.0402        616.591          32.000  
  21253699.723    -2137611.826        1147.657          34.000  
 18  9 27 19 53 50.0000000  0  8G30G28G15G 8G 7G 5G21G13
  20952164.218     3924077.958       -2243.018          51.000  
  21888328.386    -3454724.462         981.246          46.000  
  24169393.348    -4320774.9563       2522.145          29.000  
  25817403.289     -285540.540         327.309          39.000  
  23124190.133     7250113.976       -3424.627          45.000  
  20584343.817     1046017.2162      -1155.370          31.000  
  26039797.955    -1744000.9453        619.127          32.000  
  21253481.298    -2138759.437        1146.988          34.000  
 18  9 27 19 53 51.0000000  0  8G30G28G15G 8G 7G 5G21G13
  20952590.666     3926321.068       -2243.152          51.000  
  21888142.035    -3455705.610         981.187          46.000  
  24168916.782    -4323296.9083       2521.496          29.000  
  25817340.852     -285867.776         326.927          38.000  
  23124842.090     7253538.530       -3424.363          46.000  
  20584564.335     1047174.9292      -1157.472          31.000  
  26039680.969    -1744618.5652        617.484          33.000  
  21253263.328    -2139906.943        1147.437          34.000  
 18  9 27 19 53 52.0000000  0  8G30G28G15G 8G 7G 5G21G13
  20953017.865     3928564.513       -2243.521          52.000  
  21887956.191    -3456686.330         980.519          46.000  
  24168436.256    -4325818.8693       2522.819          29.000  
  25817277.176     -286194.572         326.507          37.000  
  23125494.118     7256963.134       -3424.545          46.000  
  20584784.487     1048333.1823      -1158.299          31.000  
  26039563.756    -1745235.8212        619.036          34.000  
  21253045.113    -2141054.255        1148.093          34.000  
 18  9 27 19 53 53.0000000  0  8G30G28G15G 8G 7G 5G21G13
  20953444.785     3930808.520       -2244.298          52.000  
  21887768.845    -3457666.352         979.740          46.000  
  24167958.730    -4328340.6013       2521.742          29.000  
  25817215.105     -286520.668         326.017          37.000  
  23126146.895     7260388.049       -3425.006          46.000  
  20585004.447     1049492.1813      -1159.327          31.000  
  26039446.525    -1745852.4622        616.733          34.000  
  21252827.770    -2142201.175        1146.451          34.000  
 18  9 27 19 53 54.0000000  0  8G30G28G15G 8G 7G 5G21G13
  20953871.809     3933052.985       -2244.870          52.000  
  21887582.285    -3458645.790         979.389          45.000  
  24167478.448    -4330862.2193       2522.052          29.000  
  25817153.471     -286846.245         324.441          37.000  
  23126799.132     7263813.183       -3425.182          46.000  
  20585225.541     1050651.9332      -1160.860          31.000  
  26039330.202    -1746468.6422        616.162          34.000  
  21252609.677    -2143347.744        1146.664          34.000  
 18  9 27 19 53 55.0000000  0  8G30G28G15G 8G 7G 5G21G13
  20954298.292     3935297.731       -2245.188          51.000  
  21887395.236    -3459624.836         978.682          45.000  
  24166997.520    -4333383.8953       2521.912          29.000  
  25817093.076     -287171.416         324.433          37.000  
  23127452.241     7267238.357       -3425.487          46.000  
  20585447.037     1051812.1002      -1163.017          31.000  
  26039213.495    -1747084.4612        614.564          34.000  
  21252391.148    -2144494.244        1146.631          34.000  
 18  9 27 19 53 56.0000000  0  8G30G28G15G 8G 7G 5G21G13
  20954724.845     3937542.801       -2245.421          51.000  
  21887208.484    -3460603.435         978.600          45.000  
  24166516.121    -4335905.6173       2521.769          29.000  
  25817032.053     -287496.160         324.537          37.000  
  23128104.321     7270663.600       -3425.371          46.000  
  20585668.812     1052972.8812      -1160.905          32.000  
  26039096.596    -1747699.9592        615.520          34.000  
  21252172.357    -2145640.506        1146.662          34.000  
 18  9 27 19 53 57.0000000  0  8G30G28G15G 8G 7G 5G21G13
  20955151.992     3939787.762       -2245.500          52.000  
  21887021.958    -3461582.024         977.736          45.000  
  24166035.036    -4338427.7403       2521.780          29.000  
  25816970.593     -287820.946         323.708          37.000  
  23128756.349     7274088.494       -3425.809          46.000  
  20585890.028     1054133.7752      -1162.747          31.000  
  26038979.487    -1748315.5782        614.502          34.000  
  21251953.846    -2146787.060        1146.476          34.000  
 18  9 27 19 53 58.0000000  0  8G30G28G15G 8G 7G 5G21G13
  20955579.260     3942033.805       -2246.561          51.000  
  21886835.852    -3462559.404         976.806          45.000  
  24165554.457    -4340949.1393       2520.947          29.000  
  25816908.819     -288144.469         323.751          36.000  
  23129407.399     7277514.229       -3426.389          47.000  
  20586111.524     1055295.9692      -1163.325          32.000  
  26038862.082    -1748930.0222        614.158          34.000  
  21251735.352    -2147932.659        1144.975          34.000  
 18  9 27 19 53 59.0000000  0  8G30G28G15G 8G 7G 5G21G13
  20956006.302     3944280.263       -2247.080          50.000  
  21886650.129    -3463536.262         976.180          45.000  
  24165073.058    -4343470.4433       2521.366          29.000  
  25816847.482     -288467.576         322.784          36.000  
  23130059.147     7280940.139       -3425.690          46.000  
  20586333.438     1056458.7642      -1161.942          31.000  
  26038745.410    -1749544.0492        612.550          34.000  
  21251516.212    -2149078.003        1143.957          34.000  
 18  9 27 19 54  0.0000000  0  8G30G28G15G 8G 7G 5G21G13
  20956433.675     3946527.103       -2246.990          50.000  
  21886463.935    -3464512.622         976.010          44.000  
  24164592.252    -4345991.7273       2520.787          29.000  
  25816786.546     -288790.233         321.759          35.000  
  23130710.965     7284366.164       -3426.373          46.000  
  20586555.108     1057622.1863      -1162.471          30.000  
  26038628.633    -1750157.6462        612.432          34.000  
  21251297.910    -2150223.106        1144.895          34.000  
 18  9 27 19 54  1.0000000  0  8G30G28G15G 8G 7G 5G21G13
  20956861.066     3948774.219       -2247.336          50.000  
  21886278.213    -3465488.568         975.680          45.000  
  24164114.081    -4348513.2833       2520.744          30.000  
  25816725.505     -289112.438         321.593          35.000  
  23131362.870     7287792.258       -3425.739          46.000  
  20586776.447     1058786.1123      -1163.439          30.000  
  26038511.682    -1750770.922         611.665          34.000  
  21251079.695    -2151368.098        1146.503          34.000  
 18  9 27 19 54  2.0000000  0  8G30G28G15G 8G 7G 5G21G13
  20957288.317     3951021.850       -2247.951          50.000  
  21886092.420    -3466463.890         974.573          44.000  
  24163633.554    -4351034.4122       2521.267          31.000  
  25816664.795     -289434.083         320.537          35.000  
  23132015.247     7291218.576       -3426.735          46.000  
  20586998.658     1059950.7902      -1164.202          30.000  
  26038395.411    -1751383.650         611.497          34.000  
  21250861.462    -2152512.717        1143.772          33.000  
 18  9 27 19 54  3.0000000  0  8G30G28G15G 8G 7G 5G21G13
  20957715.952     3953269.901       -2248.064          51.000  
  21885906.680    -3467438.662         974.975          44.000  
  24163156.204    -4353555.4872       2521.482          32.000  
  25816604.784     -289755.142         320.760          35.000  
  23132667.448     7294645.096       -3426.815          47.000  
  20587220.922     1061116.0662      -1166.877          30.000  
  26038279.332    -1751995.933         613.522          34.000  
  21250642.898    -2153656.991        1146.253          33.000  
 18  9 27 19 54  4.0000000  0  8G30G28G15G 8G 7G 5G21G13
  20958143.465     3955518.343       -2248.447          50.000  
  21885720.975    -3468412.923         974.677          44.000  
  24162680.563    -4356076.5332       2524.012          32.000  
  25816544.057     -290075.707         321.604          35.000  
  23133319.755     7298071.740       -3426.782          47.000  
  20587442.278     1062281.9993      -1165.599          31.000  
  26038162.905    -1752607.795         612.198          34.000  
  21250424.770    -2154801.117        1143.313          33.000  
 18  9 27 19 54  5.0000000  0  8G30G28G15G 8G 7G 5G21G13
  20958570.926     3957767.299       -2249.251          50.000  
  21885535.008    -3469386.548         973.598          43.000  
  24162201.345    -4358597.3792       2520.865          32.000  
  25816482.388     -290395.700         318.528          34.000  
  23133972.655     7301498.644       -3427.058          46.000  
  20587664.157     1063448.6443      -1166.452          30.000  
  26038046.791    -1753219.140         609.100          34.000  
  21250206.486    -2155944.833        1143.868          32.000  
 18  9 27 19 54  6.0000000  0  8G30G28G15G 8G 7G 5G21G13
  20958999.067     3960016.752       -2249.638          49.000  
  21885349.093    -3470359.546         972.352          43.000  
  24161722.267    -4361118.1042       2522.345          32.000  
  25816420.353     -290715.054         317.288          32.000  
  23134625.031     7304925.808       -3427.225          46.000  
  20587886.176     1064616.0693      -1165.292          29.000  
  26037930.817    -1753829.854         611.712          34.000  
  21249987.643    -2157088.224        1143.273          31.000  
 18  9 27 19 54  7.0000000  0  8G30G28G15G 8G 7G 5G21G13
  20959426.440     3962266.586       -2249.845          50.000  
  21885163.667    -3471332.068         972.472          43.000  
  24161244.079    -4363638.7252       2521.213          32.000  
  25816357.759     -291033.947         318.526          32.000  
  23135277.844     7308353.091       -3426.825          46.000  
  20588108.701     1065784.0313      -1166.882          29.000  
  26037814.459    -1754440.265         612.056          33.000  
  21249768.311    -2158231.335        1143.513          30.000  
 18  9 27 19 54  8.0000000  0  8G30G28G15G 8G 7G 5G21G13
  20959853.901     3964516.549       -2250.056          49.000  
  21884978.834    -3472304.322         971.433          43.000  
  24160762.487    -4366159.6472       2519.474          31.000  
  25816295.653     -291352.577         317.646          32.000  
  23135929.400     7311780.260       -3427.122          46.000  
  20588330.947     1066952.4282      -1167.653          29.000  
  26037698.554    -1755050.456         610.896          34.000  
  21249549.223    -2159374.478        1142.266          29.000  
 18  9 27 19 54  9.0000000  0  8G30G28G15G 8G 7G 5G21G13
  20960281.414     3966766.912       -2250.760          50.000  
  21884793.880    -3473276.042         971.521          43.000  
  24160283.113    -4368680.3982       2520.591          32.000  
  25816233.740     -291670.781         320.298          31.000  
  23136581.201     7315207.582       -3427.965          46.000  
  20588553.455     1068121.3493      -1171.880          29.000  
  26037582.406    -1755660.275         609.971          33.000  
  21249329.787    -2160516.8623       1141.903          29.000  
 18  9 27 19 54 10.0000000  0  8G30G28G15G 8G 7G 5G21G13
  20960709.485     3969018.301       -2251.547          50.000  
  21884608.995    -3474246.623         970.390          43.000  
  24159803.581    -4371200.5182       2520.646          32.000  
  25816172.647     -291987.3813        316.547          30.000  
  23137232.670     7318635.709       -3427.800          46.000  
  20588774.986     1069291.6313      -1170.576          28.000  
  26037466.850    -1756268.943         608.140          33.000  
  21249110.629    -2161658.8462       1141.960          29.000  
 18  9 27 19 54 11.0000000  0  8G30G28G15G 8G 7G 5G21G13
  20961137.905     3971270.156       -2251.783          49.000  
  21884424.092    -3475216.608         970.210          43.000  
  24159323.734    -4373720.5143       2520.671          32.000  
  25816110.699     -292303.8463        316.797          30.000  
  23137885.098     7322064.047       -3428.367          46.000  
  20588994.998     1070462.4173      -1171.081          28.000  
  26037350.806    -1756877.182         607.887          34.000  
  21248893.444    -2162800.5362       1140.241          29.000  
 18  9 27 19 54 12.0000000  0  8G30G28G15G 8G 7G 5G21G13
  20961565.593     3973522.227       -2252.438          49.000  
  21884239.242    -3476186.262         969.165          43.000  
  24158842.562    -4376240.6392       2524.526          31.000  
  25816049.518     -292620.0342        318.227          31.000  
  23138537.876     7325492.356       -3428.543          46.000  
  20589215.621     1071633.7783      -1171.839          28.000  
  26037235.373    -1757485.134         606.717          34.000  
  21248675.997    -2163942.1313       1140.869          29.000  
 18  9 27 19 54 13.0000000  0  8G30G28G15G 8G 7G 5G21G13
  20961994.257     3975774.669       -2252.468          49.000  
  21884054.758    -3477155.422         969.368          43.000  
  24158362.175    -4378760.6772       2521.028          31.000  
  25815989.908     -292935.7142        315.742          33.000  
  23139190.951     7328920.774       -3428.083          46.000  
  20589438.408     1072805.7423      -1173.264          29.000  
  26037119.120    -1758092.683         606.561          34.000  
  21248458.654    -2165083.6743       1137.864          29.000  
 18  9 27 19 54 14.0000000  0  8G30G28G15G 8G 7G 5G21G13
  20962423.096     3978027.712       -2253.298          49.000  
  21883869.542    -3478123.838         968.499          43.000  
  24157882.312    -4381280.4572       2518.490          31.000  
  25815930.141     -293250.7142        315.332          33.000  
  23139844.496     7332349.580       -3428.938          47.000  
  20589662.242     1073978.5823      -1173.051          29.000  
  26037003.198    -1758699.607         606.247          34.000  
  21248241.347    -2166224.4383       1138.791          29.000  
 18  9 27 19 54 15.0000000  0  8G30G28G15G 8G 7G 5G21G13
  20962851.813     3980281.204       -2253.461          49.000  
  21883685.424    -3479091.711         967.899          43.000  
  24157401.907    -4383800.2352       2519.627          31.000  
  25815870.793     -293565.1202        315.899          33.000  
  23140497.693     7335778.565       -3428.600          47.000  
  20589885.744     1075152.0193      -1173.204          30.000  
  26036887.381    -1759306.058         605.693          34.000  
  21248023.272    -2167365.1073       1139.432          28.000  
 18  9 27 19 54 16.0000000  0  8G30G28G15G 8G 7G 5G21G13
  20963280.321     3982534.953       -2253.568          49.000  
  21883501.237    -3480059.198         967.631          42.000  
  24156921.590    -4386319.8433       2518.844          31.000  
  25815810.904     -293879.1683        319.909          33.000  
  23141149.790     7339207.547       -3429.109          47.000  
  20590109.648     1076325.9733      -1174.090          30.000  
  26036772.192    -1759912.199         605.912          35.000  
  21247804.446    -2168505.6173       1141.557          27.000  
 18  9 27 19 54 17.0000000  0  8G30G28G15G 8G 7G 5G21G13
  20963709.369     3984789.054       -2254.636          49.000  
  21883317.434    -3481026.187         966.456          42.000  
  24156441.639    -4388839.6522       2520.004          31.000  
  25815750.683     -294192.8853        310.500          32.000  
  23141801.852     7342636.666       -3429.452          47.000  
  20590332.854     1077500.5362      -1174.653          31.000  
  26036657.247    -1760517.927         605.036          35.000  
  21247586.178    -2169646.0883       1141.824          26.000  
 18  9 27 19 54 18.0000000  0  8G30G28G15G 8G 7G 5G21G13
  20964138.139     3987043.624       -2254.858          49.000  
  21883133.596    -3481992.605         965.818          42.000  
  24155961.008    -4391359.3862       2521.664          31.000  
  25815691.248     -294505.8553        313.130          31.000  
  23142453.914     7346066.004       -3429.565          47.000  
  20590556.548     1078675.7432      -1176.733          31.000  
  26036542.181    -1761123.184         604.447          35.000  
  21247367.143    -2170784.4363       1137.616          26.000  
 18  9 27 19 54 19.0000000  0  7G30G28G15G 8G 7G 5G21
  20964567.222     3989298.512       -2254.940          49.000  
  21882949.723    -3482958.569         965.927          43.000  
  24155481.144    -4393878.9792       2520.517          30.000  
  25815632.493     -294818.5112        313.187          32.000  
  23143106.204     7349495.405       -3429.083          46.000  
  20590780.679     1079851.4682      -1175.199          31.000  
  26036427.550    -1761728.045         606.074          35.000  
 18  9 27 19 54 20.0000000  0  7G30G28G15G 8G 7G 5G21
  20964996.707     3991553.587       -2255.245          49.000  
  21882765.554    -3483924.210         965.683          42.000  
  24155000.530    -4396398.7083       2523.516          30.000  
  25815574.453     -295130.8422        313.925          33.000  
  23143758.789     7352924.753       -3429.635          46.000  
  20591004.809     1081027.6472      -1176.999          31.000  
  26036313.373    -1762332.757         605.645          35.000  
 18  9 27 19 54 21.0000000  0  9G30G28G15G 8G 7G 5G21G13G 2
  20965426.191     3993808.799       -2255.602          48.000  
  21882582.065    -3484889.615         964.122          42.000  
  24154519.637    -4398918.7413       2519.132          29.000  
  25815517.304     -295443.0092        310.485          34.000  
  23144411.567     7356353.984       -3429.971          46.000  
  20591229.498     1082204.1622      -1178.078          32.000  
  26036199.040    -1762937.317         602.717          35.000  
  21246706.687    -2174201.2793       1141.797          25.000  
  24745446.953     5882350.9883      -3519.263          25.000  
 18  9 27 19 54 22.0000000  0  7G30G28G15G 8G 7G 5G21
  20965854.908     3996064.541       -2255.883          50.000  
  21882398.645    -3485854.350         964.034          43.000  
  24154038.325    -4401438.5333       2520.528          28.000  
  25815459.980     -295754.4802        311.292          35.000  
  23145064.450     7359783.520       -3429.550          47.000  
  20591454.449     1083381.5132      -1177.292          33.000  
  26036084.287    -1763541.229         604.739          35.000  
 18  9 27 19 54 23.0000000  0  7G30G28G15G 8G 7G 5G21
  20966284.166     3998321.023       -2256.669          50.000  
  21882215.366    -3486818.234         963.026          43.000  
  24153557.711    -4403957.9533       2517.900          28.000  
  25815401.714     -296065.1352        311.222          36.000  
  23145718.257     7363213.519       -3430.325          47.000  
  20591679.417     1084559.7682      -1178.561          33.000  
  26035970.546    -1764144.404         602.091          36.000  
 18  9 27 19 54 24.0000000  0  8G30G28G15G 8G 7G 5G21G13
  20966713.895     4000577.880       -2256.714          49.000  
  21882032.452    -3487781.577         963.752          43.000  
  24153077.918    -4406477.2593       2519.509          28.000  
  25815342.523     -296375.3172        310.381          34.000  
  23146371.698     7366643.669       -3430.034          47.000  
  20591904.682     1085738.5972      -1179.115          33.000  
  26035856.719    -1764747.129         603.882          36.000  
  21246058.604    -2177618.4343       1139.638          26.000  
 18  9 27 19 54 25.0000000  0  8G30G28G15G 8G 7G 5G21G13
  20967143.659     4002834.953       -2257.595          49.000  
  21881849.958    -3488744.621         963.119          43.000  
  24152597.251    -4408996.7213       2519.538          28.000  
  25815284.256     -296685.690         308.124          34.000  
  23147024.737     7370073.793       -3430.107          47.000  
  20592130.174     1086917.446       -1180.644          33.000  
  26035743.502    -1765349.618         601.361          36.000  
  21245842.762    -2178756.9203       1137.838          26.000  
 18  9 27 19 54 26.0000000  0  8G30G28G15G 8G 7G 5G21G13
  20967573.371     4005092.512       -2257.772          50.000  
  21881666.940    -3489707.049         961.781          43.000  
  24152116.934    -4411514.1513       2520.860          28.000  
  25815224.524     -296994.910         309.516          34.000  
  23147677.742     7373504.129       -3430.358          47.000  
  20592355.020     1088097.417       -1180.559          34.000  
  26035629.953    -1765951.596         601.535          36.000  
  21245627.671    -2179895.7723       1137.518          27.000  
 18  9 27 19 54 27.0000000  0  7G30G28G15G 8G 7G 5G21
  20968003.222     4007350.428       -2258.493          50.000  
  21881483.887    -3490668.974         961.526          43.000  
  24151633.109    -4414033.6633       2519.330          28.000  
  25815165.839     -297303.704         308.203          35.000  
  23148330.345     7376934.599       -3430.901          47.000  
  20592580.826     1089278.031       -1180.320          34.000  
  26035516.300    -1766553.186         599.836          36.000  
 18  9 27 19 54 28.0000000  0  8G30G28G15G 8G 7G 5G21G13
  20968433.614     4009608.631       -2258.990          50.000  
  21881301.166    -3491630.517         960.414          43.000  
  24151156.404    -4416553.0213       2519.852          28.000  
  25815107.974     -297612.098         308.273          36.000  
  23148982.268     7380365.109       -3430.647          47.000  
  20592805.393     1090459.124       -1182.357          34.000  
  26035402.350    -1767154.449         600.966          36.000  
  21245194.853    -2182171.3163       1138.059          27.000  
 18  9 27 19 54 29.0000000  0  7G30G28G15G 8G 7G 5G21
  20968863.902     4011867.334       -2258.881          50.000  
  21881118.305    -3492591.404         960.860          43.000  
  24150678.303    -4419072.2443       2520.181          29.000  
  25815051.488     -297919.910         307.271          39.000  
  23149634.382     7383795.865       -3430.815          47.000  
  20593030.727     1091640.935       -1184.182          33.000  
  26035288.452    -1767755.184         600.579          35.000  
 18  9 27 19 54 30.0000000  0  7G30G28G15G 8G 7G 5G21
  20969293.910     4014126.462       -2259.509          50.000  
  21880935.235    -3493551.752         960.094          43.000  
  24150202.209    -4421591.3543       2518.787          29.000  
  25814994.897     -298227.195         307.457          40.000  
  23150286.759     7387226.815       -3430.844          46.000  
  20593255.852     1092823.479       -1183.761          33.000  
  26035173.787    -1768355.442         599.125          35.000  
 18  9 27 19 54 31.0000000  0  7G30G28G15G 8G 7G 5G21
  20969724.355     4016386.185       -2259.730          50.000  
  21880751.903    -3494511.386         960.312          42.000  
  24149722.904    -4424110.1793       2518.995          29.000  
  25814938.201     -298533.790         306.901          41.000  
  23150939.676     7390658.104       -3430.687          46.000  
  20593480.786     1094007.3183      -1182.557          32.000  
  26035058.633    -1768955.086         599.672          34.000  
 18  9 27 19 54 32.0000000  0  7G30G28G15G 8G 7G 5G21
  20970155.427     4018646.028       -2260.193          50.000  
  21880569.322    -3495470.780         958.566          42.000  
  24149243.738    -4426629.2603       2518.285          30.000  
  25814880.423     -298840.163         305.725          41.000  
  23151593.396     7394089.250       -3431.506          46.000  
  20593704.323     1095190.9513      -1183.479          31.000  
  26034943.339    -1769554.587         601.038          33.000  
 18  9 27 19 54 33.0000000  0  7G30G28G15G 8G 7G 5G21
  20970585.767     4020906.334       -2260.521          51.000  
  21880386.112    -3496429.556         958.884          42.000  
  24148765.672    -4429148.1593       2519.207          30.000  
  25814822.855     -299145.931         306.021          41.000  
  23152246.139     7397520.634       -3431.815          47.000  
  20593928.227     1096375.3133      -1185.627          30.000  
  26034828.290    -1770153.529         600.609          32.000  
 18  9 27 19 54 34.0000000  0  7G30G28G15G 8G 7G 5G21
  20971016.892     4023166.987       -2260.730          51.000  
  21880203.530    -3497387.878         957.757          42.000  
  24148286.908    -4431667.0783       2518.749          30.000  
  25814763.821     -299451.269         304.964          41.000  
  23152899.039     7400952.119       -3431.708          46.000  
  20594152.794     1097560.2453      -1185.096          29.000  
  26034713.729    -1770752.173         599.056          32.000  
 18  9 27 19 54 35.0000000  0  7G30G28G15G 8G 7G 5G21
  20971447.023     4025427.989       -2261.158          51.000  
  21880021.507    -3498345.725         957.872          42.000  
  24147803.764    -4434186.0673       2519.577          31.000  
  25814705.433     -299756.138         305.196          41.000  
  23153552.218     7404383.698       -3431.704          46.000  
  20594375.598     1098745.2413      -1186.292          29.000  
  26034599.762    -1771350.357         598.562          33.000  
 18  9 27 19 54 36.0000000  0  7G30G28G15G 8G 7G 5G21
  20971877.659     4027689.324       -2261.211          51.000  
  21879839.990    -3499303.092         958.127          42.000  
  24147328.909    -4436704.9622       2518.452          31.000  
  25814647.219     -300060.581         304.783          41.000  
  23154204.751     7407815.372       -3431.470          46.000  
  20594603.097     1099931.4223      -1186.686          29.000  
  26034485.254    -1771948.235         596.370          33.000  
 18  9 27 19 54 37.0000000  0  7G30G28G15G 8G 7G 5G21
  20972308.906     4029951.031       -2261.638          51.000  
  21879657.234    -3500259.991         956.980          42.000  
  24146847.963    -4439223.8522       2520.666          32.000  
  25814589.650     -300364.549         303.443          41.000  
  23154857.372     7411247.163       -3431.429          45.000  
  20594830.612     1101118.0923      -1187.265          29.000  
  26034371.094    -1772545.638         596.962          33.000  
 18  9 27 19 54 38.0000000  0  7G30G28G15G 8G 7G 5G21
  20972739.490     4032213.058       -2261.943          52.000  
  21879475.873    -3501216.429         956.759          42.000  
  24146366.913    -4441742.7162       2518.265          32.000  
  25814532.187     -300668.087         303.500          41.000  
  23155510.132     7414679.034       -3431.649          45.000  
  20595055.057     1102305.3393      -1187.900          29.000  
  26034256.813    -1773142.730         597.564          32.000  
 18  9 27 19 54 39.0000000  0  7G30G28G15G 8G 7G 5G21
  20973170.127     4034475.590       -2262.683          51.000  
  21879294.339    -3502172.223         955.830          42.000  
  24145891.028    -4444261.4022       2518.808          32.000  
  25814474.322     -300971.028         301.975          41.000  
  23156163.591     7418111.176       -3432.169          45.000  
  20595278.176     1103493.2953      -1187.626          29.000  
  26034142.392    -1773739.266         597.384          33.000  
 18  9 27 19 54 40.0000000  0  7G30G28G15G 8G 7G 5G21
  20973600.973     4036738.614       -2263.302          51.000  
  21879112.595    -3503127.411         954.888          42.000  
  24145413.485    -4446779.9722       2519.030          32.000  
  25814416.335     -301273.363         302.654          41.000  
  23156817.171     7421543.548       -3432.069          45.000  
  20595505.151     1104681.9513      -1189.444          30.000  
  26034029.053    -1774335.250         593.898          33.000  
 18  9 27 19 54 41.0000000  0  7G30G28G15G 8G 7G 5G21
  20974031.313     4039001.861       -2263.496          52.000  
  21878930.938    -3504082.244         954.701          43.000  
  24144934.145    -4449298.6482       2517.540          33.000  
  25814357.877     -301575.412         301.371          41.000  
  23157471.066     7424975.892       -3432.498          45.000  
  20595729.299     1105871.0443      -1189.610          30.000  
  26033915.888    -1774930.973         595.172          33.000  
 18  9 27 19 54 42.0000000  0  7G30G28G15G 8G 7G 5G21
  20974462.350     4041265.371       -2264.009          52.000  
  21878749.613    -3505036.685         954.275          43.000  
  24144455.189    -4451817.3462       2519.073          33.000  
  25814299.436     -301877.053         301.307          41.000  
  23158124.786     7428408.262       -3432.608          45.000  
  20595955.593     1107060.6453      -1189.106          30.000  
  26033802.793    -1775526.408         595.477          33.000  
 18  9 27 19 54 43.0000000  0  7G30G28G15G 8G 7G 5G21
  20974892.969     4043529.677       -2264.433          51.000  
  21878568.480    -3505990.237         953.181          43.000  
  24143975.867    -4454335.623        2519.213          33.000  
  25814241.710     -302177.800         301.190          41.000  
  23158778.942     7431841.172       -3432.608          45.000  
  20596182.952     1108251.2713      -1190.270          30.000  
  26033689.419    -1776121.032         594.668          32.000  
 18  9 27 19 54 44.0000000  0  7G30G28G15G 8G 7G 5G21
  20975323.920     4045794.355       -2264.824          51.000  
  21878387.224    -3506943.257         952.555          43.000  
  24143496.387    -4456853.889        2515.590          32.000  
  25814184.491     -302478.084         300.422          41.000  
  23159432.383     7435274.213       -3432.796          45.000  
  20596411.096     1109442.5133      -1190.408          30.000  
  26033575.905    -1776715.272         591.215          32.000  
 18  9 27 19 54 45.0000000  0  7G30G28G15G 8G 7G 5G21
  20975754.818     4048059.500       -2265.410          51.000  
  21878206.230    -3507895.699         951.444          43.000  
  24143017.064    -4459371.971        2518.336          32.000  
  25814127.586     -302777.804         299.332          41.000  
  23160085.457     7438707.470       -3433.193          45.000  
  20596634.058     1110634.4043      -1192.095          30.000  
  26033462.671    -1777308.893         593.831          32.000  
 18  9 27 19 54 46.0000000  0  7G30G28G15G 8G 7G 5G21
  20976186.048     4050324.784       -2265.566          51.000  
  21878025.691    -3508847.849         951.719          43.000  
  24142537.916    -4461890.220        2517.497          32.000  
  25814070.419     -303077.266         300.097          41.000  
  23160738.096     7442140.609       -3433.236          45.000  
  20596863.894     1111826.5483      -1193.348          31.000  
  26033349.751    -1777902.426         593.896          32.000  
 18  9 27 19 54 47.0000000  0  7G30G28G15G 8G 7G 5G21
  20976617.156     4052590.530       -2265.857          51.000  
  21877843.877    -3509799.425         951.048          43.000  
  24142058.524    -4464408.340        2521.636          32.000  
  25814012.973     -303376.212         298.915          41.000  
  23161390.873     7445573.997       -3433.357          44.000  
  20597096.768     1113019.5052      -1194.221          32.000  
  26033237.755    -1778495.460         590.782          32.000  
 18  9 27 19 54 48.0000000  0  7G30G28G15G 8G 7G 5G21
  20977049.101     4054856.624       -2266.198          52.000  
  21877662.412    -3510750.519         951.309          43.000  
  24141579.236    -4466926.519        2517.766          31.000  
  25813955.544     -303674.653         298.674          40.000  
  23162044.698     7449007.455       -3433.190          44.000  
  20597322.032     1114213.0702      -1192.755          32.000  
  26033125.498    -1779088.079         594.537          32.000  
 18  9 27 19 54 49.0000000  0  7G30G28G15G 8G 7G 5G21
  20977480.383     4057123.033       -2266.560          52.000  
  21877481.418    -3511701.188         950.604          43.000  
  24141099.757    -4469444.661        2520.005          31.000  
  25813898.622     -303972.673         297.380          40.000  
  23162698.558     7452440.986       -3433.782          44.000  
  20597549.513     1115407.1712      -1193.922          33.000  
  26033012.944    -1779680.340         594.489          32.000  
 18  9 27 19 54 50.0000000  0  7G30G28G15G 8G 7G 5G21
  20977911.735     4059389.909       -2267.457          52.000  
  21877300.215    -3512651.243         949.957          43.000  
  24140620.661    -4471962.777        2516.505          31.000  
  25813840.862     -304270.135         296.113          39.000  
  23163352.627     7455874.740       -3433.836          44.000  
  20597776.925     1116601.9712      -1195.661          33.000  
  26032900.565    -1780272.127         591.422          32.000  
 18  9 27 19 54 51.0000000  0  7G30G28G15G 8G 7G 5G21
  20978343.384     4061657.200       -2267.445          52.000  
  21877119.902    -3513600.746         949.493          43.000  
  24140141.373    -4474480.612        2517.971          32.000  
  25813782.822     -304567.071         296.021          39.000  
  23164006.626     7459308.675       -3434.322          44.000  
  20598006.029     1117797.4462      -1196.060          34.000  
  26032788.063    -1780863.459         590.782          32.000  
 18  9 27 19 54 52.0000000  0  7G30G28G15G 8G 7G 5G21
  20978775.242     4063924.964       -2268.561          52.000  
  21876939.781    -3514549.645         947.642          43.000  
  24139661.353    -4476998.460        2517.554          32.000  
  25813726.109     -304863.424         295.575          39.000  
  23164661.201     7462742.830       -3434.299          45.000  
  20598235.726     1118993.5882      -1197.870          34.000  
  26032676.277    -1781454.257         590.847          33.000  
 18  9 27 19 54 53.0000000  0  7G30G28G15G 8G 7G 5G21
  20979207.274     4066193.413       -2268.542          52.000  
  21876759.834    -3515497.743         947.962          43.000  
  24139182.641    -4479515.952        2518.628          32.000  
  25813669.483     -305158.983         295.433          38.000  
  23165315.096     7466177.405       -3434.899          44.000  
  20598463.957     1120190.6602      -1195.787          35.000  
  26032564.456    -1782044.291         590.480          33.000  
 18  9 27 19 54 54.0000000  0  7G30G28G15G 8G 7G 5G21
  20979638.853     4068462.054       -2268.711          52.000  
  21876579.940    -3516445.507         947.919          43.000  
  24138703.475    -4482033.555        2517.063          32.000  
  25813612.299     -305454.258         295.237          38.000  
  23165968.990     7469611.950       -3433.884          45.000  
  20598692.206     1121388.1592      -1197.435          35.000  
  26032452.478    -1782634.132         591.377          34.000  
 18  9 27 19 54 55.0000000  0  7G30G28G15G 8G 7G 5G21
  20980070.205     4070731.071       -2269.124          52.000  
  21876399.662    -3517392.782         947.195          43.000  
  24138225.217    -4484551.087        2518.042          32.000  
  25813555.969     -305749.037         294.578          38.000  
  23166622.798     7473046.605       -3434.539          45.000  
  20598920.315     1122586.282       -1196.876          35.000  
  26032340.552    -1783223.623         587.183          34.000  
 18  9 27 19 54 56.0000000  0  7G30G28G15G 8G 7G 5G21
  20980502.586     4073000.470       -2269.834          52.000  
  21876219.506    -3518339.524         946.814          43.000  
  24137746.575    -4487068.582        2515.900          32.000  
  25813499.396     -306043.344         293.107          38.000  
  23167276.361     7476481.400       -3434.767          44.000  
  20599148.390     1123784.949       -1199.960          35.000  
  26032227.405    -1783812.615         588.030          34.000  
 18  9 27 19 54 57.0000000  0  7G30G28G15G 8G 7G 5G21
  20980934.915     4075270.336       -2269.673          52.000  
  21876038.896    -3519285.707         945.845          43.000  
  24137267.828    -4489585.9123       2517.915          32.000  
  25813443.520     -306337.074         293.335          38.000  
  23167929.121     7479916.412       -3434.903          44.000  
  20599376.953     1124984.329       -1199.572          35.000  
  26032115.566    -1784401.128         589.012          34.000  
 18  9 27 19 54 58.0000000  0  7G30G28G15G 8G 7G 5G21
  20981367.210     4077540.454       -2270.184          52.000  
  21875859.002    -3520231.462         945.882          43.000  
  24136788.872    -4492103.3482       2517.429          32.000  
  25813388.377     -306630.410         293.615          38.000  
  23168582.405     7483351.426       -3435.188          44.000  
  20599606.353     1126184.178       -1200.568          35.000  
  26032004.060    -1784989.330         588.869          34.000  
 18  9 27 19 54 59.0000000  0  7G30G28G15G 8G 7G 5G21
  20981799.137     4079811.112       -2271.289          52.000  
  21875679.387    -3521176.591         944.344          44.000  
  24136310.527    -4494620.6143       2515.651          32.000  
  25813333.339     -306923.126         292.954          39.000  
  23169235.811     7486786.750       -3435.989          44.000  
  20599835.056     1127384.866       -1200.089          35.000  
  26031892.396    -1785576.994         587.290          35.000  
 18  9 27 19 55  0.0000000  0  7G30G28G15G 8G 7G 5G21
  20982230.978     4082082.175       -2271.087          52.000  
  21875499.998    -3522121.178         944.307          44.000  
  24135831.065    -4497137.8082       2516.171          32.000  
  25813278.581     -307215.345         291.738          39.000  
  23169888.972     7490222.224       -3435.478          44.000  
  20600063.270     1128586.113       -1201.349          35.000  
  26031780.575    -1786164.161         587.484          35.000  
 18  9 27 19 55  1.0000000  0  7G30G28G15G 8G 7G 5G21
  20982664.005     4084353.643       -2272.187          52.000  
  21875321.134    -3523065.231         943.593          44.000  
  24135352.144    -4499654.8812       2516.133          32.000  
  25813223.455     -307507.065         290.737          40.000  
  23170543.303     7493657.872       -3435.896          43.000  
  20600291.902     1129788.028       -1203.243          34.000  
  26031668.597    -1786750.918         586.971          35.000  
 18  9 27 19 55  2.0000000  0  7G30G28G15G 8G 7G 5G21
  20983096.387     4086625.402       -2271.600          53.000  
  21875141.536    -3524008.842         943.448          44.000  
  24134872.908    -4502171.9822       2515.510          32.000  
  25813168.923     -307798.320         291.632          41.000  
  23171196.988     7497093.547       -3435.295          44.000  
  20600520.675     1130990.478       -1202.711          35.000  
  26031556.479    -1787337.342         585.573          34.000  
 18  9 27 19 55  3.0000000  0  7G30G28G15G 8G 7G 5G21
  20983528.716     4088897.543       -2272.252          53.000  
  21874962.846    -3524951.957         942.709          45.000  
  24134394.074    -4504689.1182       2515.402          32.000  
  25813114.409     -308089.152         290.572          41.000  
  23171851.022     7500529.357       -3435.946          44.000  
  20600749.779     1132193.495       -1204.778          35.000  
  26031444.204    -1787923.359         585.501          34.000  
 18  9 27 19 55  4.0000000  0  8G30G28G15G 8G 7G 5G21G13
  20983960.836     4091170.260       -2272.754          53.000  
  21874783.946    -3525894.353         942.352          45.000  
  24133915.293    -4507205.9142       2518.194          32.000  
  25813059.685     -308379.266         290.664          41.000  
  23172505.789     7503965.500       -3435.729          44.000  
  20600978.307     1133397.347       -1202.886          34.000  
  26031331.999    -1788508.716         586.102          34.000  
  21237438.353    -2222968.0253       1127.329          30.000  
 18  9 27 19 55  5.0000000  0  8G30G28G15G 8G 7G 5G21G13
  20984393.077     4093443.473       -2273.367          52.000  
  21874604.959    -3526836.122         941.228          45.000  
  24133436.057    -4509722.6082       2515.961          33.000  
  25813005.031     -308668.835         289.194          40.000  
  23173159.754     7507401.882       -3436.168          44.000  
  20601207.166     1134601.914       -1205.387          34.000  
  26031220.841    -1789093.572         584.792          34.000  
  21237220.505    -2224096.2533       1127.531          30.000  
 18  9 27 19 55  6.0000000  0  8G30G28G15G 8G 7G 5G21G13
  20984825.738     4095716.987       -2273.578          52.000  
  21874425.362    -3527777.444         941.074          45.000  
  24132956.630    -4512239.2672       2516.836          32.000  
  25812949.679     -308957.972         288.925          40.000  
  23173813.474     7510838.344       -3436.308          44.000  
  20601436.340     1135806.988       -1204.952          34.000  
  26031109.980    -1789678.057         583.806          34.000  
  21237008.188    -2225224.0702       1126.445          30.000  
 18  9 27 19 55  7.0000000  0  8G30G28G15G 8G 7G 5G21G13
  20985258.189     4097990.921       -2274.603          52.000  
  21874246.375    -3528718.237         940.036          45.000  
  24132477.604    -4514755.8263       2517.728          32.000  
  25812894.763     -309246.587         287.830          40.000  
  23174466.810     7514274.971       -3436.986          44.000  
  20601665.287     1137012.750       -1205.928          34.000  
  26030999.922    -1790262.154         581.257          33.000  
  21236795.836    -2226351.6392       1127.661          31.000  
 18  9 27 19 55  8.0000000  0  8G30G28G15G 8G 7G 5G21G13
  20985690.745     4100265.330       -2274.813          52.000  
  21874067.754    -3529658.424         939.647          45.000  
  24131997.950    -4517272.3582       2516.983          33.000  
  25812839.097     -309534.597         288.161          40.000  
  23175119.850     7517711.800       -3437.281          43.000  
  20601894.391     1138219.217       -1207.053          34.000  
  26030888.607    -1790845.654         582.749          33.000  
  21236584.671    -2227478.8882       1127.505          31.000  
 18  9 27 19 55  9.0000000  0  8G30G28G15G 8G 7G 5G21G13
  20986123.301     4102540.093       -2275.057          52.000  
  21873888.890    -3530598.108         939.296          45.000  
  24131518.749    -4519788.7902       2516.399          32.000  
  25812784.233     -309822.138         286.660          40.000  
  23175772.732     7521148.771       -3436.796          43.000  
  20602124.105     1139426.260       -1206.418          34.000  
  26030776.943    -1791428.812         581.588          33.000  
  21236370.435    -2228605.9132       1126.300          31.000  
 18  9 27 19 55 10.0000000  0  8G30G28G15G 8G 7G 5G21G13
  20986555.474     4104815.438       -2275.467          52.000  
  21873710.688    -3531537.098         938.580          45.000  
  24131040.020    -4522304.9952       2514.510          33.000  
  25812729.126     -310108.962         286.598          40.000  
  23176426.173     7524586.052       -3437.169          43.000  
  20602353.907     1140634.064       -1207.176          34.000  
  26030665.733    -1792011.342         581.604          32.000  
  21236157.577    -2229732.4862       1125.645          32.000  
 18  9 27 19 55 11.0000000  0  8G30G28G15G 8G 7G 5G21G13
  20986988.902     4107091.059       -2276.030          52.000  
  21873531.841    -3532475.666         938.270          45.000  
  24130561.483    -4524821.2582       2515.053          33.000  
  25812673.878     -310395.444         286.357          41.000  
  23177079.841     7528023.387       -3437.677          42.000  
  20602584.355     1141842.418       -1208.662          33.000  
  26030554.173    -1792593.550         580.734          31.000  
  21235942.713    -2230858.9112       1125.999          32.000  
 18  9 27 19 55 12.0000000  0  8G30G28G15G 8G 7G 5G21G13
  20987421.912     4109367.127       -2276.522          52.000  
  21873353.447    -3533413.668         937.713          45.000  
  24130082.684    -4527337.3892       2516.785          33.000  
  25812619.626     -310681.384         285.744          41.000  
  23177734.014     7531460.903       -3438.049          42.000  
  20602814.611     1143051.404       -1211.010          34.000  
  26030442.963    -1793175.312         580.181          31.000  
  21235728.930    -2231985.0532       1126.049          33.000  
 18  9 27 19 55 13.0000000  0  8G30G28G15G 8G 7G 5G21G13
  20987855.323     4111643.455       -2276.497          52.000  
  21873175.053    -3534351.285         937.510          45.000  
  24129603.553    -4529853.6382       2515.463          33.000  
  25812565.844     -310966.939         285.446          41.000  
  23178388.031     7534898.433       -3436.901          42.000  
  20603043.749     1144260.922       -1209.011          34.000  
  26030332.294    -1793756.726         580.860          32.000  
  21235515.374    -2233111.105        1125.898          33.000  
 18  9 27 19 55 14.0000000  0  8G30G28G15G 8G 7G 5G21G13
  20988288.856     4113920.244       -2276.775          52.000  
  21872996.433    -3535288.295         936.831          45.000  
  24129124.615    -4532369.7142       2515.530          33.000  
  25812512.760     -311251.924         284.691          41.000  
  23179041.786     7538336.183       -3437.427          42.000  
  20603273.673     1145471.125       -1211.224          34.000  
  26030222.078    -1794337.608         581.644          33.000  
  21235302.010    -2234236.788        1126.146          34.000  
 18  9 27 19 55 15.0000000  0  8G30G28G15G 8G 7G 5G21G13
  20988721.988     4116197.362       -2277.372          51.000  
  21872818.249    -3536224.855         936.190          45.000  
  24128645.641    -4534885.7632       2516.500          33.000  
  25812458.577     -311536.491         284.017          42.000  
  23179696.187     7541774.006       -3437.906          42.000  
  20603504.941     1146681.859       -1211.496          34.000  
  26030113.067    -1794918.155         579.015          33.000  
  21235088.385    -2235362.293        1124.167          34.000  
 18  9 27 19 55 16.0000000  0  8G30G28G15G 8G 7G 5G21G13
  20989155.277     4118475.091       -2277.989          52.000  
  21872639.873    -3537160.668         935.414          45.000  
  24128167.069    -4537401.5692       2516.271          33.000  
  25812404.011     -311820.320         284.156          42.000  
  23180350.081     7545212.194       -3437.859          42.000  
  20603734.848     1147893.476       -1210.923          34.000  
  26030003.863    -1795498.042         578.571          35.000  
  21234875.213    -2236487.366        1125.240          34.000  
 18  9 27 19 55 17.0000000  0  8G30G28G15G 8G 7G 5G21G13
  20989589.246     4120753.296       -2278.683          52.000  
  21872461.933    -3538095.859         934.643          45.000  
  24127688.165    -4539917.2172       2515.739          33.000  
  25812349.618     -312103.566         283.281          41.000  
  23181003.923     7548650.645       -3438.434          41.000  
  20603964.964     1149105.789       -1211.105          34.000  
  26029894.660    -1796077.387         579.911          35.000  
  21234661.727    -2237612.085        1123.668          35.000  
 18  9 27 19 55 18.0000000  0  8G30G28G15G 8G 7G 5G21G13
  20990022.692     4123031.674       -2278.326          52.000  
  21872284.168    -3539030.764         934.695          45.000  
  24127209.418    -4542433.0562       2514.382          32.000  
  25812295.086     -312386.543         282.153          41.000  
  23181657.800     7552088.997       -3438.294          41.000  
  20604194.521     1150318.509       -1211.155          33.000  
  26029785.352    -1796656.538         579.590          35.000  
  21234448.642    -2238736.735        1125.517          34.000  
 18  9 27 19 55 19.0000000  0  8G30G28G15G 8G 7G 5G21G13
  20990456.225     4125310.385       -2278.677          52.000  
  21872105.931    -3539965.211         933.801          45.000  
  24126730.532    -4544948.8783       2515.684          31.000  
  25812241.060     -312669.045         282.193          41.000  
  23182311.067     7555527.424       -3438.566          41.000  
  20604424.847     1151531.760       -1213.425          33.000  
  26029675.345    -1797235.304         577.309          35.000  
  21234235.331    -2239861.237        1123.463          34.000  
 18  9 27 19 55 20.0000000  0  8G30G28G15G 8G 7G 5G21G13
  20990889.968     4127589.639       -2279.362          52.000  
  21871928.166    -3540898.944         934.018          45.000  
  24126251.715    -4547464.4542       2513.107          30.000  
  25812187.453     -312950.886         281.730          41.000  
  23182964.019     7558966.184       -3439.212          40.000  
  20604656.184     1152745.833       -1214.934          32.000  
  26029565.252    -1797813.500         577.778          35.000  
  21234021.932    -2240985.283        1124.231          34.000  
 18  9 27 19 55 21.0000000  0  8G30G28G15G 8G 7G 5G21G13
  20991324.566     4129869.418       -2280.151          52.000  
  21871749.650    -3541832.045         932.956          45.000  
  24125771.608    -4549979.7982       2515.138          30.000  
  25812135.138     -313232.117         281.018          42.000  
  23183618.140     7562405.194       -3439.485          40.000  
  20604886.998     1153960.618       -1216.513          32.000  
  26029454.845    -1798391.138         577.682          35.000  
  21233808.167    -2242108.977        1123.757          34.000  
 18  9 27 19 55 22.0000000  0  8G30G28G15G 8G 7G 5G21G13
  20991758.710     4132149.450       -2279.674          52.000  
  21871572.007    -3542764.754         932.823          45.000  
  24125291.447    -4552495.2902       2515.117          30.000  
  25812082.298     -313512.977         280.918          42.000  
  23184271.965     7565844.227       -3438.506          39.000  
  20605117.725     1155175.924       -1213.472          32.000  
  26029344.105    -1798968.488         578.235          34.000  
  21233594.472    -2243232.566        1123.421          34.000  
 18  9 27 19 55 23.0000000  0  8G30G28G15G 8G 7G 5G21G13
  20992192.225     4134429.821       -2280.469          52.000  
  21871394.381    -3543696.991         931.828          45.000  
  24124811.479    -4555010.7452       2516.909          30.000  
  25812028.883     -313793.382         280.502          43.000  
  23184925.982     7569283.354       -3438.848          39.000  
  20605348.714     1156391.692       -1217.150          31.000  
  26029234.187    -1799545.436         577.591          35.000  
  21233380.358    -2244355.924        1124.046          35.000  
 18  9 27 19 55 24.0000000  0  8G30G28G15G 8G 7G 5G21G13
  20992626.579     4136710.657       -2281.505          52.000  
  21871217.436    -3544628.622         930.524          45.000  
  24124331.581    -4557526.0643       2513.727          29.000  
  25811975.451     -314073.222         278.680          43.000  
  23185580.784     7572722.727       -3439.542          38.000  
  20605580.243     1157608.271       -1215.384          32.000  
  26029125.280    -1800121.896         575.557          35.000  
  21233166.959    -2245478.985        1122.002          34.000  
 18  9 27 19 55 25.0000000  0  8G30G28G15G 8G 7G 5G21G13
  20993060.566     4138991.995       -2281.914          52.000  
  21871040.403    -3545559.622         930.462          45.000  
  24123852.328    -4560041.2252       2513.061          29.000  
  25811921.948     -314352.420         279.159          42.000  
  23186236.755     7576162.354       -3439.197          39.000  
  20605812.209     1158825.568       -1217.392          32.000  
  26029016.006    -1800697.767         575.751          35.000  
  21232953.333    -2246601.644        1122.631          34.000  
 18  9 27 19 55 26.0000000  0  8G30G28G15G 8G 7G 5G21G13
  20993495.041     4141273.725       -2282.148          52.000  
  21870864.139    -3546490.088         929.763          45.000  
  24123373.389    -4562556.2123       2519.053          30.000  
  25811867.539     -314631.105         278.365          42.000  
  23186893.599     7579602.059       -3440.149          39.000  
  20606043.651     1160043.441       -1219.068          33.000  
  26028906.245    -1801273.237         574.906          36.000  
  21232739.551    -2247724.070        1123.325          34.000  
 18  9 27 19 55 27.0000000  0  8G30G28G15G 8G 7G 5G21G13
  20993928.941     4143555.641       -2282.114          52.000  
  21870686.827    -3547420.242         929.936          45.000  
  24122895.026    -4565071.4383       2515.383          30.000  
  25811813.111     -314909.538         277.952          41.000  
  23187550.303     7583041.718       -3439.685          39.000  
  20606275.704     1161261.808       -1219.092          33.000  
  26028797.024    -1801848.475         574.796          36.000  
  21232525.402    -2248846.456        1122.017          34.000  
 18  9 27 19 55 28.0000000  0  8G30G28G15G 8G 7G 5G21G13
  20994363.224     4145838.014       -2282.269          52.000  
  21870510.004    -3548349.794         929.630          45.000  
  24122416.384    -4567586.5213       2516.209          31.000  
  25811760.935     -315187.374         278.010          41.000  
  23188207.112     7586481.610       -3439.810          40.000  
  20606507.565     1162480.780       -1219.709          33.000  
  26028687.087    -1802423.181         574.133          36.000  
  21232311.567    -2249968.538        1121.497          34.000  
 18  9 27 19 55 29.0000000  0  8G30G28G15G 8G 7G 5G21G13
  20994797.159     4148120.868       -2282.770          52.000  
  21870333.722    -3549278.757         929.059          45.000  
  24121938.353    -4570101.5212       2513.941          31.000  
  25811708.672     -315464.635         277.399          41.000  
  23188864.147     7589921.705       -3440.448          41.000  
  20606739.810     1163700.479       -1221.527          33.000  
  26028577.395    -1802997.418         574.883          36.000  
  21232097.540    -2251090.272        1121.348          33.000  
 18  9 27 19 55 30.0000000  0  8G30G28G15G 8G 7G 5G21G13
  20995231.094     4150404.004       -2283.176          52.000  
  21870156.672    -3550207.266         928.557          45.000  
  24121460.566    -4572616.4922       2513.658          32.000  
  25811656.635     -315741.533         276.608          42.000  
  23189519.298     7593361.864       -3440.104          40.000  
  20606972.404     1164920.695       -1221.228          34.000  
  26028467.895    -1803571.322         573.396          35.000  
  21231884.473    -2252211.830        1120.853          33.000  
 18  9 27 19 55 31.0000000  0  8G30G28G15G 8G 7G 5G21G13
  20995665.761     4152687.532       -2283.241          51.000  
  21869980.617    -3551135.289         928.555          45.000  
  24120982.762    -4575131.4762       2514.708          33.000  
  25811604.668     -316017.938         276.497          41.000  
  23190174.030     7596802.167       -3440.000          40.000  
  20607205.748     1166141.541       -1220.486          34.000  
  26028358.622    -1804144.781         573.610          35.000  
  21231671.510    -2253333.153        1121.959          33.000  
 18  9 27 19 55 32.0000000  0  8G30G28G15G 8G 7G 5G21G13
  20996100.254     4154971.506       -2284.121          51.000  
  21869803.916    -3552062.729         927.447          45.000  
  24120505.708    -4577646.3222       2513.147          33.000  
  25811552.440     -316293.759         275.432          41.000  
  23190829.548     7600242.661       -3439.969          40.000  
  20607438.465     1167363.050       -1220.973          34.000  
  26028249.331    -1804717.736         573.900          35.000  
  21231457.885    -2254454.192        1117.646          33.000  
 18  9 27 19 55 33.0000000  0  8G30G28G15G 8G 7G 5G21G13
  20996534.625     4157255.887       -2284.833          51.000  
  21869627.930    -3552989.623         926.687          45.000  
  24120028.863    -4580161.0262       2514.126          34.000  
  25811500.054     -316569.040         274.833          41.000  
  23191484.646     7603683.321       -3440.970          40.000  
  20607670.762     1168585.219       -1223.706          34.000  
  26028139.761    -1805290.303         571.818          34.000  
  21231243.648    -2255574.915        1119.705          33.000  
 18  9 27 19 55 34.0000000  0  8G30G28G15G 8G 7G 5G21G13
  20996969.292     4159540.816       -2284.636          51.000  
  21869452.207    -3553915.841         926.137          45.000  
  24119552.210    -4582675.5722       2514.636          35.000  
  25811446.727     -316843.667         275.429          40.000  
  23192140.007     7607124.270       -3440.858          41.000  
  20607902.937     1169808.093       -1221.851          33.000  
  26028030.924    -1805862.262         570.719          34.000  
  21231028.923    -2256695.259        1116.187          32.000  
 18  9 27 19 55 35.0000000  0  8G30G28G15G 8G 7G 5G21G13
  20997403.698     4161826.145       -2285.327          51.000  
  21869276.623    -3554841.521         925.474          46.000  
  24119075.453    -4585190.0192       2514.619          35.000  
  25811394.358     -317117.780         273.229          39.000  
  23192795.891     7610565.386       -3441.070          41.000  
  20608136.316     1171031.663       -1225.401          34.000  
  26027922.733    -1806433.738         570.301          35.000  
  21230814.111    -2257815.342        1119.312          32.000  
 18  9 27 19 55 36.0000000  0  8G30G28G15G 8G 7G 5G21G13
  20997838.872     4164111.866       -2285.939          51.000  
  21869099.887    -3555766.666         924.649          46.000  
  24118597.666    -4587704.4272       2514.006          36.000  
  25811341.764     -317391.362         273.565          39.000  
  23193452.176     7614006.656       -3441.355          42.000  
  20608369.853     1172255.856       -1223.924          34.000  
  26027814.245    -1807004.774         569.832          36.000  
  21230600.660    -2258935.185        1119.247          32.000  
 18  9 27 19 55 37.0000000  0  8G30G28G15G 8G 7G 5G21G13
  20998274.167     4166397.963       -2286.071          51.000  
  21868923.657    -3556691.315         924.695          46.000  
  24118121.031    -4590218.773        2514.631          36.000  
  25811289.936     -317664.496         273.606          39.000  
  23194108.269     7617448.006       -3441.467          43.000  
  20608602.987     1173480.668       -1225.549          33.000  
  26027705.513    -1807575.427         570.012          36.000  
  21230386.651    -2260054.727        1119.696          32.000  
 18  9 27 19 55 38.0000000  0  8G30G28G15G 8G 7G 5G21G13
  20998708.887     4168684.489       -2286.388          52.000  
  21868746.973    -3557615.380         924.107          46.000  
  24117643.593    -4592733.025        2515.095          36.000  
  25811238.074     -317937.082         272.772          38.000  
  23194765.270     7620889.561       -3440.898          44.000  
  20608835.163     1174706.096       -1224.031          33.000  
  26027597.112    -1808145.597         569.301          36.000  
  21230173.775    -2261174.032        1120.568          32.000  
 18  9 27 19 55 39.0000000  0  8G30G28G15G 8G 7G 5G21G13
  20999143.729     4170971.272       -2287.086          51.000  
  21868570.848    -3558539.077         923.600          45.000  
  24117165.125    -4595247.352        2514.567          36.000  
  25811185.776     -318209.336         271.925          38.000  
  23195420.613     7624331.121       -3441.394          44.000  
  20609068.769     1175932.040       -1225.758          33.000  
  26027487.961    -1808715.462         569.150          35.000  
  21229960.987    -2262293.224        1120.125          32.000  
 18  9 27 19 55 40.0000000  0  8G30G28G15G 8G 7G 5G21G13
  20999579.670     4173258.566       -2287.772          52.000  
  21868394.880    -3559462.090         922.703          45.000  
  24116687.792    -4597761.478        2514.244          36.000  
  25811134.211     -318480.943         271.999          37.000  
  23196075.083     7627772.950       -3442.416          43.000  
  20609301.659     1177158.755       -1226.899          33.000  
  26027379.368    -1809284.753         570.630          36.000  
  21229747.536    -2263412.017        1116.305          32.000  
 18  9 27 19 55 41.0000000  0  8G30G28G15G 8G 7G 5G21G13
  21000015.367     4175546.365       -2288.345          52.000  
  21868219.698    -3560384.479         922.342          45.000  
  24116210.005    -4600275.434        2514.884          36.000  
  25811082.418     -318751.963         271.518          37.000  
  23196728.960     7631215.033       -3442.238          43.000  
  20609534.759     1178386.160       -1229.237          33.000  
  26027271.089    -1809853.495         569.219          36.000  
  21229533.684    -2264530.428        1118.938          32.000  
 18  9 27 19 55 42.0000000  0  8G30G28G15G 8G 7G 5G21G13
  21000450.558     4177834.509       -2288.425          51.000  
  21868044.777    -3561306.377         922.017          45.000  
  24115731.433    -4602789.375        2513.824          36.000  
  25811030.993     -319022.478         270.793          37.000  
  23197382.314     7634657.242       -3442.546          42.000  
  20609767.999     1179614.139       -1229.637          33.000  
  26027162.671    -1810421.909         567.897          36.000  
  21229319.831    -2265648.6473       1121.299          31.000  
 18  9 27 19 55 43.0000000  0  8G30G28G15G 8G 7G 5G21G13
  21000886.133     4180123.124       -2288.715          51.000  
  21867869.175    -3562227.683         921.071          45.000  
  24115252.424    -4605303.176        2516.033          36.000  
  25810979.829     -319292.432         270.061          37.000  
  23198035.702     7638099.656       -3442.517          42.000  
  20610001.500     1180842.868       -1229.177          33.000  
  26027054.986    -1810989.764         567.437          36.000  
  21229106.729    -2266766.5662       1116.746          31.000  
 18  9 27 19 55 44.0000000  0  8G30G28G15G 8G 7G 5G21G13
  21001321.743     4182412.101       -2289.256          51.000  
  21867693.975    -3563148.497         920.240          45.000  
  24114774.096    -4607816.961        2512.192          35.000  
  25810929.886     -319561.912         268.823          38.000  
  23198689.963     7641542.212       -3442.031          41.000  
  20610235.473     1182072.157       -1230.555          33.000  
  26026947.178    -1811557.180         566.983          37.000  
  21228894.116    -2267884.2112       1117.193          31.000  
 18  9 27 19 55 45.0000000  0  8G30G28G15G 8G 7G 5G21G13
  21001757.405     4184701.483       -2289.359          51.000  
  21867518.897    -3564068.762         919.689          45.000  
  24114295.454    -4610330.663        2512.441          35.000  
  25810879.769     -319830.869         268.434          38.000  
  23199345.446     7644984.898       -3442.668          42.000  
  20610469.882     1183302.123       -1229.946          33.000  
  26026839.109    -1812124.187         567.078          36.000  
  21228681.136    -2269001.6152       1115.845          31.000  
 18  9 27 19 55 46.0000000  0  8G30G28G15G 8G 7G 5G21G13
  21002193.120     4186991.295       -2290.096          51.000  
  21867343.627    -3564988.450         919.273          45.000  
  24113817.493    -4612844.237        2514.640          35.000  
  25810829.512     -320099.280         268.301          38.000  
  23200000.579     7648427.774       -3442.285          42.000  
  20610703.767     1184532.723       -1230.593          33.000  
  26026731.895    -1812690.713         567.456          36.000  
  21228468.819    -2270118.7403       1117.855          31.000  
 18  9 27 19 55 47.0000000  0  8G30G28G15G 8G 7G 5G21G13
  21002629.253     4189281.440       -2290.288          51.000  
  21867168.392    -3565907.671         919.574          45.000  
  24113338.868    -4615357.838        2512.231          35.000  
  25810779.064     -320367.264         267.965          38.000  
  23200656.132     7651870.744       -3442.909          42.000  
  20610938.106     1185763.858       -1232.307          33.000  
  26026624.611    -1813256.865         565.872          36.000  
  21228256.136    -2271235.5973       1117.721          30.000  
 18  9 27 19 55 48.0000000  0  8G30G28G15G 8G 7G 5G21G13
  21003064.985     4191571.930       -2290.649          51.000  
  21866993.419    -3566826.418         918.324          45.000  
  24112860.139    -4617871.389        2512.629          34.000  
  25810727.655     -320634.765         266.878          37.000  
  23201311.667     7655313.827       -3443.203          42.000  
  20611172.288     1186995.603       -1232.333          33.000  
  26026517.624    -1813822.674         564.906          36.000  
  21228043.104    -2272352.2892       1117.281          31.000  
 18  9 27 19 55 49.0000000  0  8G30G28G15G 8G 7G 5G21G13
  21003500.944     4193862.871       -2290.807          51.000  
  21866818.044    -3567744.577         918.051          45.000  
  24112381.200    -4620384.830        2514.244          34.000  
  25810675.741     -320901.733         266.082          37.000  
  23201967.376     7658757.069       -3443.476          42.000  
  20611406.993     1188227.990       -1232.508          34.000  
  26026409.939    -1814387.904         564.611          37.000  
  21227830.403    -2273468.6712       1115.821          31.000  
 18  9 27 19 55 50.0000000  0  8G30G28G15G 8G 7G 5G21G13
  21003936.937     4196154.366       -2291.408          51.000  
  21866643.437    -3568662.049         917.523          44.000  
  24111902.349    -4622898.070        2512.631          33.000  
  25810623.862     -321167.999         265.843          36.000  
  23202622.963     7662200.648       -3443.385          42.000  
  20611641.873     1189461.211       -1236.298          33.000  
  26026302.690    -1814952.552         565.802          36.000  
  21227617.877    -2274584.5953       1121.989          30.000  
 18  9 27 19 55 51.0000000  0  8G30G28G15G 8G 7G 5G21G13
  21004373.472     4198446.143       -2291.615          51.000  
  21866469.022    -3569579.100         916.778          44.000  
  24111423.340    -4625411.298        2514.357          33.000  
  25810572.558     -321433.897         266.699          37.000  
  23203277.626     7665644.244       -3443.411          42.000  
  20611876.648     1190694.939       -1231.634          33.000  
  26026195.353    -1815516.905         565.363          36.000  
  21227405.787    -2275700.4502       1115.615          30.000  
 18  9 27 19 55 52.0000000  0  8G30G28G15G 8G 7G 5G21G13
  21004808.960     4200738.329       -2292.349          51.000  
  21866294.450    -3570495.602         916.404          44.000  
  24110943.564    -4627924.473        2513.200          32.000  
  25810522.633     -321699.230         265.678          37.000  
  23203932.271     7669088.001       -3444.697          41.000  
  20612111.912     1191929.280       -1234.871          33.000  
  26026087.947    -1816080.765         563.869          35.000  
  21227193.470    -2276815.9372       1115.158          30.000  
 18  9 27 19 55 53.0000000  0  8G30G28G15G 8G 7G 5G21G13
  21005244.796     4203031.011       -2292.877          51.000  
  21866119.512    -3571411.459         915.768          44.000  
  24110464.451    -4630437.472        2511.287          32.000  
  25810472.568     -321963.957         265.181          37.000  
  23204587.858     7672532.023       -3445.010          41.000  
  20612346.809     1193164.394       -1235.614          33.000  
  26025980.419    -1816644.119         563.008          35.000  
  21226981.363    -2277931.0832       1115.876          30.000  
 18  9 27 19 55 54.0000000  0  8G30G28G15G 8G 7G 5G21G13
  21005680.825     4205324.208       -2293.120          51.000  
  21865944.783    -3572326.681         914.844          44.000  
  24109985.024    -4632950.295        2511.482          32.000  
  25810422.556     -322228.103         264.069          37.000  
  23205243.462     7675976.296       -3444.218          41.000  
  20612582.649     1194400.212       -1237.073          33.000  
  26025872.943    -1817206.928         563.787          34.000  
  21226768.767    -2279045.9402       1113.276          29.000  
 18  9 27 19 55 55.0000000  0  8G30G28G15G 8G 7G 5G21G13
  21006115.737     4207617.853       -2293.921          50.000  
  21865770.333    -3573241.325         914.633          44.000  
  24109505.754    -4635463.022        2512.723          31.000  
  25810372.264     -322491.663         263.330          36.000  
  23205899.538     7679420.784       -3444.193          42.000  
  20612817.669     1195636.706       -1237.988          33.000  
  26025764.996    -1817769.279         562.305          34.000  
  21226556.450    -2280160.4352       1113.718          30.000  
 18  9 27 19 55 56.0000000  0  8G30G28G15G 8G 7G 5G21G13
  21006552.202     4209911.870       -2294.106          50.000  
  21865596.075    -3574155.455         914.044          43.000  
  24109026.797    -4637975.641        2511.822          31.000  
  25810322.077     -322754.745         264.398          35.000  
  23206555.998     7682865.347       -3444.171          41.000  
  20613052.723     1196873.780       -1237.917          33.000  
  26025657.695    -1818331.124         562.282          34.000  
  21226343.749    -2281274.6513       1112.544          29.000  
 18  9 27 19 55 57.0000000  0  8G30G28G15G 8G 7G 5G21G13
  21006987.829     4212206.126       -2294.292          49.000  
  21865421.643    -3575069.192         913.612          42.000  
  24108548.347    -4640488.4033       2511.367          31.000  
  25810270.826     -323017.481         261.917          35.000  
  23207212.371     7686309.947       -3445.049          41.000  
  20613287.516     1198111.357       -1238.509          32.000  
  26025550.254    -1818892.730         559.872          33.000  
  21226131.258    -2282388.7833       1113.089          29.000  
 18  9 27 19 55 58.0000000  0  8G30G28G15G 8G 7G 5G21G13
  21007424.067     4214500.821       -2294.820          49.000  
  21865247.734    -3575982.362         913.066          42.000  
  24108070.124    -4643001.0543       2512.869          31.000  
  25810220.151     -323279.645         262.214          34.000  
  23207868.917     7689754.734       -3444.718          41.000  
  20613523.233     1199349.636       -1237.336          32.000  
  26025442.586    -1819453.835         562.341          33.000  
  21225918.679    -2283502.5563       1113.283          28.000  
 18  9 27 19 55 59.0000000  0  8G30G28G15G 8G 7G 5G21G13
  21007859.554     4216795.774       -2294.891          49.000  
  21865074.226    -3576895.136         913.258          42.000  
  24107591.988    -4645513.7382       2509.433          30.000  
  25810170.435     -323541.441         261.875          35.000  
  23208524.487     7693199.522       -3444.439          41.000  
  20613758.148     1200588.392       -1238.452          31.000  
  26025335.354    -1820014.671         560.059          33.000  
  21225706.729    -2284616.2152       1114.954          28.000  
 18  9 27 19 56  0.0000000  0  8G30G28G15G 8G 7G 5G21G13
  21008296.246     4219091.097       -2295.511          50.000  
  21864899.672    -3577807.426         911.311          43.000  
  24107113.346    -4648026.3762       2511.534          30.000  
  25810120.981     -323802.774         261.908          35.000  
  23209179.708     7696644.458       -3445.207          40.000  
  20613993.761     1201827.734       -1239.179          32.000  
  26025228.367    -1820575.077         559.148          33.000  
  21225494.918    -2285729.7223       1110.532          29.000  
 18  9 27 19 56  1.0000000  0  8G30G28G15G 8G 7G 5G21G13
  21008732.571     4221386.874       -2296.017          49.000  
  21864726.147    -3578719.111         911.253          42.000  
  24106634.547    -4650538.8262       2516.019          29.000  
  25810071.475     -324063.531         260.551          35.000  
  23209834.615     7700089.626       -3445.898          38.000  
  20614230.665     1203067.743       -1240.599          32.000  
  26025121.502    -1821134.985         561.170          34.000  
  21225283.247    -2286842.7933       1114.182          29.000  
 18  9 27 19 56  2.0000000  0  8G30G28G15G 8G 7G 5G21G13
  21009168.897     4223683.180       -2296.230          49.000  
  21864552.325    -3579630.116         911.052          42.000  
  24106154.806    -4653051.1963       2512.817          29.000  
  25810021.689     -324323.656         259.370          34.000  
  23210488.701     7703535.071       -3445.346          38.000  
  20614467.360     1204308.576       -1240.453          33.000  
  26025015.474    -1821694.310         560.234          34.000  
  21225072.012    -2287955.6063       1110.670          30.000  
 18  9 27 19 56  3.0000000  0  8G30G28G15G 8G 7G 5G21G13
  21009606.025     4225980.011       -2297.142          49.000  
  21864378.172    -3580540.472         910.119          42.000  
  24105675.972    -4655563.2773       2513.103          28.000  
  25809971.363     -324583.114         260.636          33.000  
  23211143.695     7706980.816       -3446.156          37.000  
  20614704.090     1205550.139       -1241.114          33.000  
  26024909.307    -1822253.073         557.450          35.000  
  21224860.638    -2289067.9432       1112.657          30.000  
 18  9 27 19 56  4.0000000  0  8G30G28G15G 8G 7G 5G21G13
  21010042.803     4228277.028       -2297.182          49.000  
  21864203.984    -3581450.499         910.192          42.000  
  24105196.003    -4658075.5163       2510.658          27.000  
  25809920.513     -324842.313         258.314          32.000  
  23211799.474     7710426.459       -3445.119          37.000  
  20614940.034     1206792.075       -1240.979          33.000  
  26024803.018    -1822811.565         558.533          34.000  
  21224649.944    -2290180.2623       1112.231          30.000  
 18  9 27 19 56  5.0000000  0  8G30G28G15G 8G 7G 5G21G13
  21010479.705     4230574.459       -2297.776          49.000  
  21864030.598    -3582359.982         909.051          42.000  
  24104713.348    -4660588.9053       2517.900          26.000  
  25809869.977     -325101.031         255.775          32.000  
  23212456.091     7713872.289       -3445.551          37.000  
  20615176.415     1208034.720       -1242.663          33.000  
  26024696.397    -1823369.652         557.366          34.000  
  21224438.866    -2291292.2962       1111.119          31.000  
 18  9 27 19 56  6.0000000  0  8G30G28G15G 8G 7G 5G21G13
  21010917.199     4232872.496       -2298.315          49.000  
  21863857.859    -3583268.700         907.720          42.000  
  24104230.186    -4663102.0823       2509.092          26.000  
  25809819.721     -325358.3643        257.418          32.000  
  23213112.481     7717318.467       -3445.581          37.000  
  20615413.458     1209278.172       -1243.717          34.000  
  26024589.759    -1823927.050         557.279          33.000  
  21224227.387    -2292403.8192       1114.188          31.000  
 18  9 27 19 56  7.0000000  0  7G30G28G 8G 7G 5G21G13
  21011354.519     4235171.072       -2298.993          49.000  
  21863684.822    -3584176.767         907.361          42.000  
  25809770.179     -325615.6802        257.409          31.000  
  23213769.220     7720764.954       -3445.118          37.000  
  20615650.694     1210522.394       -1244.487          34.000  
  26024483.557    -1824483.946         557.433          32.000  
  21224016.222    -2293515.0252       1109.333          31.000  
 18  9 27 19 56  8.0000000  0  7G30G28G 8G 7G 5G21G13
  21011791.856     4237470.048       -2298.982          49.000  
  21863511.699    -3585084.289         907.481          42.000  
  25809721.144     -325872.3743        256.200          32.000  
  23214425.052     7724211.534       -3446.412          36.000  
  20615888.226     1211767.223       -1245.336          34.000  
  26024377.006    -1825040.355         555.544          32.000  
  21223804.690    -2294625.9292       1112.706          31.000  
 18  9 27 19 56  9.0000000  0  7G30G28G 8G 7G 5G21G13
  21012230.014     4239769.301       -2299.365          49.000  
  21863339.238    -3585991.376         907.386          42.000  
  25809673.017     -326128.6992        256.884          32.000  
  23215079.819     7727658.166       -3446.285          32.000  
  20616126.579     1213012.628       -1245.813          35.000  
  26024270.629    -1825596.412         555.807          32.000  
  21223592.967    -2295736.6572       1109.674          31.000  
 18  9 27 19 56 10.0000000  0  7G30G28G 8G 7G 5G21G13
  21012667.875     4242069.037       -2299.428          49.000  
  21863166.603    -3586897.859         905.553          41.000  
  25809624.662     -326384.5172        255.883          33.000  
  23215734.673     7731105.090       -3445.300          31.000  
  20616364.303     1214258.735       -1245.508          35.000  
  26024164.724    -1826151.947         556.280          33.000  
  21223381.400    -2296847.0422       1111.348          31.000  
 18  9 27 19 56 11.0000000  0  7G30G28G 8G 7G 5G21G13
  21013105.666     4244369.209       -2300.284          49.000  
  21862994.056    -3587803.754         906.042          41.000  
  25809576.726     -326639.7022        254.552          33.000  
  23216388.498     7734552.170       -3447.875          31.000  
  20616602.324     1215505.468       -1247.523          35.000  
  26024059.185    -1826707.004         554.571          34.000  
  21223169.904    -2297957.1642       1109.593          31.000  
 18  9 27 19 56 12.0000000  0  7G30G28G 8G 7G 5G21G13
  21013543.579     4246669.769       -2300.467          50.000  
  21862821.421    -3588709.146         905.053          41.000  
  25809528.756     -326894.4362        255.115          33.000  
  23217042.218     7737999.8963      -3447.594          29.000  
  20616840.694     1216752.848       -1247.027          36.000  
  26023953.943    -1827261.620         550.789          34.000  
  21222959.000    -2299066.9862       1109.646          31.000  
 18  9 27 19 56 13.0000000  0  7G30G28G 8G 7G 5G21G13
  21013982.400     4248970.758       -2300.874          50.000  
  21862648.402    -3589613.951         904.519          41.000  
  25809479.930     -327148.5802        253.072          33.000  
  23217696.479     7741447.3653      -3446.663          28.000  
  20617078.768     1218000.893       -1247.303          36.000  
  26023847.601    -1827815.7793        554.927          33.000  
  21222748.376    -2300176.548        1110.027          31.000  
 18  9 27 19 56 14.0000000  0  6G30G28G 8G 5G21G13
  21014420.836     4251272.004       -2301.378          50.000  
  21862476.447    -3590518.336         904.131          41.000  
  25809431.541     -327402.4042        253.994          34.000  
  20617317.870     1219249.395       -1249.800          36.000  
  26023741.416    -1828369.6682        552.667          32.000  
  21222537.735    -2301285.995        1107.556          31.000  
 18  9 27 19 56 15.0000000  0  6G30G28G 8G 5G21G13
  21014858.575     4253573.684       -2301.746          50.000  
  21862304.650    -3591422.167         904.345          41.000  
  25809383.099     -327655.6152        253.305          33.000  
  20617557.061     1220498.626       -1248.021          36.000  
  26023635.616    -1828923.0242        554.682          32.000  
  21222326.849    -2302395.126        1106.940          30.000  
 18  9 27 19 56 16.0000000  0  6G30G28G 8G 5G21G13
  21015296.890     4255875.746       -2302.286          50.000  
  21862133.166    -3592325.484         903.472          41.000  
  25809336.018     -327908.3422        252.555          34.000  
  20617795.849     1221748.404       -1251.296          37.000  
  26023530.653    -1829475.9592        552.375          34.000  
  21222115.544    -2303503.979        1107.630          30.000  
 18  9 27 19 56 17.0000000  0  6G30G28G 8G 5G21G13
  21015735.501     4258178.079       -2302.576          50.000  
  21861962.085    -3593228.374         902.653          42.000  
  25809288.728     -328160.7142        249.923          35.000  
  20618034.900     1222998.741       -1249.964          37.000  
  26023426.178    -1830028.5852        551.237          34.000  
  21221903.437    -2304612.718        1110.256          31.000  
 18  9 27 19 56 18.0000000  0  7G30G28G 8G 7G 5G21G13
  21016173.955     4260480.971       -2302.725          50.000  
  21861790.566    -3594130.578         901.985          42.000  
  25809241.682     -328412.3742        251.067          35.000  
  23220997.153     7758686.2353      -3448.505          27.000  
  20618273.776     1224249.853       -1251.070          37.000  
  26023321.407    -1830580.5652        551.240          33.000  
  21221692.463    -2305721.039        1109.041          31.000  
 18  9 27 19 56 19.0000000  0  7G30G28G 8G 7G 5G21G13
  21016612.235     4262784.087       -2303.211          50.000  
  21861618.786    -3595032.419         901.751          42.000  
  25809194.392     -328664.199         250.838          35.000  
  23221654.921     7762134.3023      -3448.666          29.000  
  20618513.141     1225501.426       -1251.462          37.000  
  26023216.304    -1831132.3382        550.722          33.000  
  21221481.857    -2306829.326        1106.103          31.000  
 18  9 27 19 56 20.0000000  0  7G30G28G 8G 7G 5G21G13
  21017050.375     4265087.717       -2303.834          50.000  
  21861447.722    -3595933.586         900.397          42.000  
  25809147.276     -328914.933         250.567          36.000  
  23222314.155     7765582.6243      -3446.615          31.000  
  20618752.209     1226753.703       -1253.637          37.000  
  26023111.568    -1831683.5092        551.334          33.000  
  21221271.739    -2307937.127        1109.255          31.000  
 18  9 27 19 56 21.0000000  0  7G30G28G 8G 7G 5G21G13
  21017488.864     4267391.890       -2304.590          50.000  
  21861276.832    -3596834.094         900.129          43.000  
  25809100.405     -329164.990         249.466          36.000  
  23222967.858     7769031.2342      -3449.920          33.000  
  20618990.718     1228006.818       -1252.542          36.000  
  26023007.146    -1832234.0852        550.360          33.000  
  21221061.638    -2309044.571        1107.739          31.000  
 18  9 27 19 56 22.0000000  0  7G30G28G 8G 7G 5G21G13
  21017927.946     4269696.337       -2304.350          50.000  
  21861106.256    -3597734.184         899.925          43.000  
  25809053.761     -329414.662         249.819          37.000  
  23223626.167     7772479.8392      -3449.108          35.000  
  20619229.838     1229260.422       -1252.646          36.000  
  26022902.846    -1832784.3802        549.357          34.000  
  21220851.380    -2310151.884        1109.276          31.000  
 18  9 27 19 56 23.0000000  0  7G30G28G 8G 7G 5G21G13
  21018367.116     4272001.064       -2304.243          50.000  
  21860936.465    -3598633.849         900.011          43.000  
  25809007.116     -329663.928         248.567          37.000  
  23224285.332     7775928.4982      -3447.793          36.000  
  20619468.156     1230514.510       -1252.452          35.000  
  26022798.564    -1833334.2882        549.521          34.000  
  21220641.384    -2311259.037        1105.516          31.000  
 18  9 27 19 56 24.0000000  0  7G30G28G 8G 7G 5G21G13
  21018805.395     4274306.073       -2305.024          50.000  
  21860766.431    -3599533.079         899.340          43.000  
  25808961.275     -329912.776         249.379          38.000  
  23224939.523     7779377.2062      -3448.787          37.000  
  20619706.229     1231769.127       -1255.366          35.000  
  26022694.246    -1833883.8782        548.386          34.000  
  21220430.621    -2312366.036        1107.295          31.000  
 18  9 27 19 56 25.0000000  0  7G30G28G 8G 7G 5G21G13
  21019244.722     4276611.448       -2305.824          51.000  
  21860596.029    -3600431.813         898.128          44.000  
  25808915.555     -330161.127         248.140          38.000  
  23225596.855     7782825.9732      -3448.245          37.000  
  20619944.093     1233024.350       -1255.938          35.000  
  26022589.318    -1834433.049         551.076          33.000  
  21220219.508    -2313472.838        1107.062          31.000  
 18  9 27 19 56 26.0000000  0  7G30G28G 8G 7G 5G21G13
  21019683.752     4278917.290       -2306.343          51.000  
  21860426.151    -3601329.927         897.540          44.000  
  25808868.265     -330408.921         247.761          38.000  
  23226250.820     7786275.0292      -3450.319          37.000  
  20620182.795     1234280.325       -1255.854          35.000  
  26022484.861    -1834981.779         548.704          33.000  
  21220007.872    -2314579.253        1104.303          30.000  
 18  9 27 19 56 27.0000000  0  7G30G28G 8G 7G 5G21G13
  21020123.585     4281223.640       -2306.418          51.000  
  21860256.361    -3602227.393         897.238          44.000  
  25808821.237     -330656.077         247.593          37.000  
  23226905.465     7789724.3332      -3449.961          36.000  
  20620421.444     1235536.959       -1257.340          34.000  
  26022380.125    -1835529.897         548.363          33.000  
  21219796.742    -2315685.287        1105.429          30.000  
 18  9 27 19 56 28.0000000  0  8G30G28G15G 8G 7G 5G21G13
  21020562.842     4283530.269       -2306.526          51.000  
  21860085.855    -3603124.434         896.867          44.000  
  24093727.720    -4718345.4833       2510.663          28.000  
  25808773.842     -330902.827         247.228          37.000  
  23227560.441     7793173.6802      -3448.999          34.000  
  20620660.198     1236794.136       -1256.850          34.000  
  26022275.668    -1836077.662         547.177          34.000  
  21219585.943    -2316791.192        1109.085          30.000  
 18  9 27 19 56 29.0000000  0  8G30G28G15G 8G 7G 5G21G13
  21021001.854     4285837.314       -2306.866          51.000  
  21859916.326    -3604020.931         896.538          44.000  
  24093253.231    -4720855.7903       2509.170          28.000  
  25808727.093     -331149.101         246.051          37.000  
  23228214.755     7796623.2832      -3448.253          32.000  
  20620899.126     1238051.977       -1257.802          34.000  
  26022171.961    -1836625.012         547.299          35.000  
  21219375.005    -2317896.8333       1106.891          30.000  
 18  9 27 19 56 30.0000000  0  8G30G28G15G 8G 7G 5G21G13
  21021441.530     4288144.540       -2307.672          51.000  
  21859746.430    -3604917.095         895.171          45.000  
  24092777.957    -4723366.2513       2510.104          29.000  
  25808681.076     -331395.003         244.354          38.000  
  23228871.040     7800072.7412      -3450.386          33.000  
  20621137.828     1239310.228       -1259.120          34.000  
  26022068.429    -1837172.141         545.693          35.000  
  21219164.642    -2319002.3833       1103.952          30.000  
 18  9 27 19 56 31.0000000  0  8G30G28G15G 8G 7G 5G21G13
  21021880.874     4290452.414       -2308.226          52.000  
  21859576.430    -3605812.455         895.246          45.000  
  24092300.816    -4725876.3863       2511.106          29.000  
  25808635.165     -331640.149         244.924          39.000  
  23229528.023     7803522.110       -3448.650          34.000  
  20621375.971     1240569.390       -1258.822          34.000  
  26021964.635    -1837718.490         546.240          35.000  
  21218954.018    -2320107.4213       1103.738          29.000  
 18  9 27 19 56 32.0000000  0  8G30G28G15G 8G 7G 5G21G13
  21022320.096     4292760.707       -2308.715          52.000  
  21859406.744    -3606707.264         894.139          45.000  
  24091823.622    -4728386.4723       2510.834          30.000  
  25808589.533     -331884.778         245.484          40.000  
  23230184.762     7806972.116       -3449.693          35.000  
  20621615.091     1241829.140       -1259.827          34.000  
  26021861.103    -1838264.459         545.706          34.000  
  21218743.813    -2321212.1323       1102.299          30.000  
 18  9 27 19 56 33.0000000  0  8G30G28G15G 8G 7G 5G21G13
  21022759.510     4295069.478       -2308.969          52.000  
  21859237.373    -3607601.458         894.230          46.000  
  24091343.235    -4730896.3833       2508.931          30.000  
  25808543.761     -332128.828         243.391          40.000  
  23230841.850     7810422.371       -3451.268          36.000  
  20621854.613     1243089.632       -1259.439          34.000  
  26021757.920    -1838809.887         545.619          35.000  
  21218534.149    -2322316.5653       1104.255          30.000  
 18  9 27 19 56 34.0000000  0  8G30G28G15G 8G 7G 5G21G13
  21023199.116     4297378.788       -2309.404          52.000  
  21859067.791    -3608494.969         893.337          46.000  
  24090865.239    -4733406.0793       2507.960          30.000  
  25808497.081     -332372.197         243.187          40.000  
  23231498.118     7813872.929       -3451.198          36.000  
  20622094.292     1244350.889       -1261.137          34.000  
  26021654.545    -1839354.738         545.275          35.000  
  21218324.030    -2323420.6123       1104.638          30.000  
 18  9 27 19 56 35.0000000  0  8G30G28G15G 8G 7G 5G21G13
  21023638.425     4299688.403       -2309.639          52.000  
  21858898.315    -3609388.016         892.776          46.000  
  24090386.422    -4735915.7553       2510.301          30.000  
  25808450.751     -332615.149         243.115          40.000  
  23232156.165     7817323.542       -3451.273          37.000  
  20622334.494     1245612.717       -1262.638          35.000  
  26021551.100    -1839899.205         545.805          35.000  
  21218113.878    -2324524.3772       1103.151          30.000  
 18  9 27 19 56 36.0000000  0  8G30G28G15G 8G 7G 5G21G13
  21024078.747     4301998.708       -2310.621          52.000  
  21858728.681    -3610280.257         891.649          46.000  
  24089912.091    -4738425.0543       2509.712          30.000  
  25808404.805     -332857.312         241.964          40.000  
  23232814.213     7820774.584       -3451.355          39.000  
  20622574.871     1246875.451       -1263.355          35.000  
  26021448.685    -1840442.914         544.241          36.000  
  21217903.725    -2325627.6842       1103.785          30.000  
 18  9 27 19 56 37.0000000  0  8G30G28G15G 8G 7G 5G21G13
  21024518.335     4304309.238       -2310.979          52.000  
  21858558.751    -3611172.123         891.049          47.000  
  24089434.077    -4740934.5403       2509.772          30.000  
  25808358.439     -333099.121         241.216          40.000  
  23233472.749     7824225.571       -3451.693          38.000  
  20622814.392     1248138.619       -1263.023          35.000  
  26021345.222    -1840986.371         542.827          35.000  
  21217693.764    -2326730.8512       1102.257          30.000  
 18  9 27 19 56 38.0000000  0  8G30G28G15G 8G 7G 5G21G13
  21024958.028     4306620.136       -2310.774          52.000  
  21858389.100    -3612063.466         890.842          47.000  
  24088958.262    -4743444.0253       2511.344          30.000  
  25808312.842     -333340.441         241.253          40.000  
  23234129.855     7827676.768       -3452.283          36.000  
  20623054.664     1249402.432       -1264.180          35.000  
  26021241.585    -1841529.368         544.466          35.000  
  21217483.994    -2327833.8032       1102.125          31.000  
 18  9 27 19 56 39.0000000  0  8G30G28G15G 8G 7G 5G21G13
  21025398.070     4308931.229       -2311.069          52.000  
  21858219.711    -3612954.492         890.868          47.000  
  24088477.700    -4745953.6233       2508.216          30.000  
  25808267.786     -333581.457         240.883          40.000  
  23234785.198     7831127.877       -3450.550          35.000  
  20623294.029     1250666.648       -1264.136          35.000  
  26021138.141    -1842072.217         543.403          35.000  
  21217274.766    -2328936.6832       1101.433          31.000  
 18  9 27 19 56 40.0000000  0  8G30G28G15G 8G 7G 5G21G13
  21025838.357     4311242.894       -2311.822          52.000  
  21858050.705    -3613844.781         889.827          47.000  
  24087999.948    -4748462.8563       2509.157          31.000  
  25808223.026     -333821.743         240.032          40.000  
  23235441.099     7834579.337       -3451.560          34.000  
  20623534.458     1251931.609       -1265.278          35.000  
  26021034.748    -1842614.376         541.413          35.000  
  21217066.515    -2330039.1672       1101.678          31.000  
 18  9 27 19 56 41.0000000  0  8G30G28G15G 8G 7G 5G21G13
  21026278.469     4313555.417       -2312.686          52.000  
  21857881.805    -3614734.073         889.151          47.000  
  24087522.336    -4750971.5882       2509.656          30.000  
  25808177.568     -334061.091         238.787          40.000  
  23236096.529     7838031.374       -3452.805          34.000  
  20623775.114     1253197.7863      -1266.021          35.000  
  26020931.774    -1843155.666         540.688          36.000  
  21216857.340    -2331140.8242       1100.943          30.000  
 18  9 27 19 56 42.0000000  0  8G30G28G15G 8G 7G 5G21G13
  21026718.144     4315868.227       -2313.060          52.000  
  21857713.079    -3615622.935         888.886          47.000  
  24087047.306    -4753480.3603       2508.292          30.000  
  25808131.482     -334299.975         239.695          40.000  
  23236752.431     7841483.493       -3450.879          34.000  
  20624015.630     1254464.4062      -1267.574          35.000  
  26020828.155    -1843696.556         541.231          36.000  
  21216648.461    -2332242.4033       1102.278          30.000  
 18  9 27 19 56 43.0000000  0  8G30G28G15G 8G 7G 5G21G13
  21027158.099     4318181.466       -2313.495          51.000  
  21857544.161    -3616511.234         887.967          47.000  
  24086567.407    -4755989.0393       2508.202          30.000  
  25808085.448     -334538.358         237.887          40.000  
  23237409.344     7844935.729       -3451.542          35.000  
  20624256.443     1255731.7692      -1268.481          35.000  
  26020725.617    -1844236.998         539.956          36.000  
  21216438.203    -2333343.6502       1099.831          30.000  
 18  9 27 19 56 44.0000000  0  8G30G28G15G 8G 7G 5G21G13
  21027598.351     4320495.081       -2313.388          52.000  
  21857375.522    -3617399.012         887.770          47.000  
  24086088.957    -4758497.6493       2509.269          29.000  
  25808039.310     -334776.237         237.843          40.000  
  23238066.223     7848388.129       -3451.776          34.000  
  20624497.012     1256999.6752      -1268.327          34.000  
  26020622.399    -1844777.019         539.406          37.000  
  21216228.486    -2334444.6653       1102.657          30.000  
 18  9 27 19 56 45.0000000  0  8G30G28G15G 8G 7G 5G21G13
  21028038.672     4322809.112       -2313.869          52.000  
  21857206.673    -3618286.226         887.160          47.000  
  24085610.211    -4761006.1923       2507.531          29.000  
  25807994.131     -335013.588         237.048          40.000  
  23238720.745     7851840.696       -3453.768          32.000  
  20624738.017     1258268.2102      -1269.005          35.000  
  26020519.879    -1845316.608         539.997          37.000  
  21216018.438    -2335545.4063       1101.011          29.000  
 18  9 27 19 56 46.0000000  0  8G30G28G15G 8G 7G 5G21G13
  21028479.465     4325123.485       -2314.672          52.000  
  21857038.034    -3619172.954         886.168          47.000  
  24085132.703    -4763514.6123       2509.320          30.000  
  25807948.935     -335250.478         236.737          42.000  
  23239374.588     7855293.9173      -3453.149          31.000  
  20624979.022     1259537.3822      -1269.197          35.000  
  26020417.673    -1845855.755         538.675          37.000  
  21215808.128    -2336645.9573       1096.811          29.000  
 18  9 27 19 56 47.0000000  0  8G30G28G15G 8G 7G 5G21G13
  21028920.362     4327438.054       -2314.804          52.000  
  21856869.553    -3620059.339         885.930          48.000  
  24084655.003    -4766023.2763       2507.757          29.000  
  25807904.385     -335487.024         236.799          42.000  
  23240028.622     7858746.6173      -3451.337          31.000  
  20625220.795     1260806.9962      -1269.217          35.000  
  26020315.380    -1846394.657         539.524          37.000  
  21215597.626    -2337746.4202       1097.674          29.000  
 18  9 27 19 56 48.0000000  0  7G30G28G15G 8G 7G 5G21
  21029360.177     4329753.157       -2315.018          52.000  
  21856701.158    -3620945.035         885.812          47.000  
  24084176.745    -4768531.6883       2508.348          29.000  
  25807859.520     -335722.941         235.783          42.000  
  23240683.511     7862199.4972      -3453.132          32.000  
  20625462.411     1262077.3402      -1271.709          35.000  
  26020212.825    -1846932.955         537.958          36.000  
 18  9 27 19 56 49.0000000  0  6G30G28G 8G 7G 5G21
  21029800.638     4332068.794       -2315.368          52.000  
  21856532.379    -3621830.083         885.149          47.000  
  25807815.005     -335958.214         235.445          43.000  
  23241339.674     7865652.6732      -3452.743          34.000  
  20625704.480     1263348.496       -1271.513          35.000  
  26020109.852    -1847470.764         538.299          36.000  
 18  9 27 19 56 50.0000000  0  7G30G28G15G 8G 7G 5G21
  21030241.308     4334384.789       -2316.512          51.000  
  21856363.758    -3622714.613         884.189          47.000  
  24083220.909    -4773548.0263       2508.618          28.000  
  25807770.507     -336192.985         234.322          43.000  
  23241997.163     7869105.9992      -3454.919          34.000  
  20625946.602     1264620.204       -1272.825          34.000  
  26020007.384    -1848008.064         537.588          36.000  
 18  9 27 19 56 51.0000000  0  6G30G28G 8G 7G 5G21
  21030682.206     4336701.027       -2316.486          52.000  
  21856195.939    -3623598.749         884.121          48.000  
  25807725.572     -336427.399         234.025          43.000  
  23242655.316     7872559.2562      -3454.784          35.000  
  20626188.689     1265892.470       -1273.865          34.000  
  26019905.056    -1848545.160         535.707          35.000  
 18  9 27 19 56 52.0000000  0  6G30G28G 8G 7G 5G21
  21031123.574     4339017.633       -2316.634          51.000  
  21856027.649    -3624482.389         883.368          48.000  
  25807681.144     -336661.335         234.028          43.000  
  23243313.695     7876012.6792      -3453.732          37.000  
  20626430.427     1267165.281       -1273.123          33.000  
  26019803.164    -1849081.751         537.349          35.000  
 18  9 27 19 56 53.0000000  0  6G30G28G 8G 7G 5G21
  21031564.174     4341334.609       -2317.708          51.000  
  21855860.023    -3625365.517         882.583          47.000  
  25807637.641     -336894.796         232.448          43.000  
  23243971.813     7879466.2012      -3454.986          37.000  
  20626672.199     1268438.682       -1275.599          33.000  
  26019701.115    -1849617.994         536.720          35.000  
 18  9 27 19 56 54.0000000  0  6G30G28G 8G 7G 5G21
  21032005.002     4343651.921       -2317.501          52.000  
  21855692.221    -3626248.153         882.378          48.000  
  25807593.841     -337127.774         233.173          44.000  
  23244629.773     7882919.8452      -3453.552          37.000  
  20626915.368     1269712.711       -1273.612          33.000  
  26019598.996    -1850153.826         535.431          35.000  
 18  9 27 19 56 55.0000000  0  6G30G28G 8G 7G 5G21
  21032446.510     4345969.599       -2317.642          51.000  
  21855524.280    -3627130.279         882.012          48.000  
  25807550.110     -337360.271         232.082          44.000  
  23245286.425     7886373.073       -3455.339          36.000  
  20627158.223     1270987.317       -1274.963          34.000  
  26019497.366    -1850689.199         535.902          35.000  
 18  9 27 19 56 56.0000000  0  6G30G28G 8G 7G 5G21
  21032888.210     4348287.544       -2317.981          51.000  
  21855356.392    -3628011.995         881.454          47.000  
  25807505.194     -337592.378         232.050          44.000  
  23245943.513     7889826.835       -3454.584          36.000  
  20627401.147     1272262.422       -1274.782          34.000  
  26019395.649    -1851224.287         536.325          34.000  
 18  9 27 19 56 57.0000000  0  6G30G28G 8G 7G 5G21
  21033329.421     4350605.999       -2318.686          51.000  
  21855189.044    -3628893.065         880.360          47.000  
  25807461.568     -337823.843         231.138          44.000  
  23246601.316     7893280.872       -3454.473          36.000  
  20627644.752     1273538.286       -1275.639          35.000  
  26019293.565    -1851758.870         534.208          33.000  
 18  9 27 19 56 58.0000000  0  6G30G28G 8G 7G 5G21
  21033770.161     4352924.779       -2318.813          51.000  
  21855021.121    -3629773.650         880.467          47.000  
  25807417.559     -338054.882         230.867          44.000  
  23247258.509     7896734.965       -3454.054          36.000  
  20627888.410     1274814.697       -1274.964          35.000  
  26019191.743    -1852293.015         535.423          33.000  
 18  9 27 19 56 59.0000000  0  6G30G28G 8G 7G 5G21
  21034211.233     4355243.725       -2319.413          51.000  
  21854853.564    -3630653.927         879.999          47.000  
  25807373.549     -338285.618         230.496          44.000  
  23247916.417     7900189.012       -3455.682          37.000  
  20628132.050     1276091.507       -1275.882          35.000  
  26019090.532    -1852826.960         535.352          34.000  
 18  9 27 19 57  0.0000000  0  6G30G28G 8G 7G 5G21
  21034653.212     4357563.410       -2319.803          51.000  
  21854685.693    -3631533.322         879.117          47.000  
  25807329.766     -338515.511         229.461          44.000  
  23248574.063     7903643.514       -3454.487          37.000  
  20628375.480     1277369.282       -1277.918          35.000  
  26018989.565    -1853360.100         533.163          35.000  
 18  9 27 19 57  1.0000000  0  6G30G28G 8G 7G 5G21
  21035094.650     4359883.573       -2320.363          51.000  
  21854518.206    -3632412.093         878.728          47.000  
  25807286.124     -338744.809         228.518          44.000  
  23249231.483     7907098.276       -3453.981          36.000  
  20628618.684     1278647.766       -1281.137          35.000  
  26018888.319    -1853892.769         529.847          34.000  
 18  9 27 19 57  2.0000000  0  6G30G28G 8G 7G 5G21
  21035535.844     4362203.988       -2320.793          52.000  
  21854351.015    -3633290.471         877.465          47.000  
  25807242.550     -338973.730         228.391          44.000  
  23249888.571     7910552.990       -3455.756          36.000  
  20628862.359     1279926.770       -1278.849          34.000  
  26018787.177    -1854425.064         532.308          34.000  
 18  9 27 19 57  3.0000000  0  6G30G28G 8G 7G 5G21
  21035977.876     4364524.818       -2320.918          52.000  
  21854184.069    -3634168.282         877.424          47.000  
  25807198.925     -339202.092         228.547          44.000  
  23250544.542     7914007.955       -3456.052          34.000  
  20629105.388     1281206.387       -1281.084          34.000  
  26018686.577    -1854956.927         532.273          34.000  
 18  9 27 19 57  4.0000000  0  6G30G28G 8G 7G 5G21
  21036419.192     4366845.929       -2321.291          52.000  
  21854017.594    -3635045.654         877.343          47.000  
  25807155.544     -339430.074         227.636          44.000  
  23251200.112     7917462.991       -3453.492          34.000  
  20629348.906     1282486.5303      -1278.302          34.000  
  26018585.034    -1855488.417         530.905          34.000  
 18  9 27 19 57  5.0000000  0  6G30G28G 8G 7G 5G21
  21036860.577     4369167.589       -2321.888          52.000  
  21853849.967    -3635922.347         876.305          47.000  
  25807111.621     -339657.355         226.992          44.000  
  23251856.292     7920918.261       -3456.546          34.000  
  20629592.982     1283767.4812      -1278.570          34.000  
  26018484.626    -1856019.350         530.387          34.000  
 18  9 27 19 57  6.0000000  0  6G30G28G 8G 7G 5G21
  21037302.382     4371489.663       -2322.252          51.000  
  21853683.352    -3636798.482         875.897          47.000  
  25807068.345     -339884.094         226.410          43.000  
  23252512.612     7924373.691       -3455.347          34.000  
  20629837.128     1285049.0122      -1281.687          34.000  
  26018383.641    -1856549.783         531.336          34.000  
 18  9 27 19 57  7.0000000  0  6G30G28G 8G 7G 5G21
  21037744.501     4373812.077       -2322.330          51.000  
  21853516.301    -3637674.127         875.555          47.000  
  25807024.737     -340110.379         226.737          43.000  
  23253169.613     7927829.257       -3456.601          34.000  
  20630081.239     1286331.1802      -1282.841          34.000  
  26018282.988    -1857079.852         530.665          34.000  
 18  9 27 19 57  8.0000000  0  6G30G28G 8G 7G 5G21
  21038186.358     4376134.780       -2323.343          51.000  
  21853348.989    -3638549.329         874.327          47.000  
  25806981.670     -340336.266         225.236          43.000  
  23253827.434     7931284.859       -3456.644          35.000  
  20630325.001     1287613.8302      -1284.351          34.000  
  26018182.283    -1857609.547         529.644          35.000  
 18  9 27 19 57  9.0000000  0  7G30G28G 8G 7G 5G21G13
  21038628.145     4378458.013       -2323.736          51.000  
  21853182.165    -3639423.849         874.001          46.000  
  25806938.376     -340561.495         224.922          43.000  
  23254485.848     7934740.712       -3456.465          36.000  
  20630569.234     1288897.2802      -1282.222          34.000  
  26018081.508    -1858138.693         529.577          34.000  
  21211000.401    -2361889.4413       1093.820          28.000  
 18  9 27 19 57 10.0000000  0  7G30G28G 8G 7G 5G21G13
  21039070.612     4380781.700       -2323.837          51.000  
  21853015.114    -3640297.772         873.909          46.000  
  25806895.657     -340786.168         224.656          43.000  
  23255144.890     7938196.787       -3456.516          36.000  
  20630813.171     1290181.3872      -1286.017          34.000  
  26017980.471    -1858667.279         529.940          34.000  
  21210791.068    -2362983.7663       1093.081          28.000  
 18  9 27 19 57 11.0000000  0  7G30G28G 8G 7G 5G21G13
  21039512.696     4383105.753       -2324.417          51.000  
  21852848.639    -3641171.194         873.281          46.000  
  25806852.712     -341010.362         223.662          43.000  
  23255802.921     7941652.958       -3456.637          36.000  
  20631056.776     1291466.1082      -1285.881          34.000  
  26017879.277    -1859195.509         527.513          34.000  
  21210583.271    -2364077.8393       1093.991          28.000  
 18  9 27 19 57 12.0000000  0  7G30G28G 8G 7G 5G21G13
  21039954.798     4385429.907       -2324.029          51.000  
  21852682.408    -3642044.361         873.102          46.000  
  25806810.361     -341234.320         223.833          43.000  
  23256460.689     7945109.016       -3455.798          37.000  
  20631301.376     1292751.0872      -1288.029          34.000  
  26017778.241    -1859723.557         531.066          33.000  
  21210374.671    -2365171.9203       1093.879          28.000  
 18  9 27 19 57 13.0000000  0  7G30G28G 8G 7G 5G21G13
  21040397.300     4387754.695       -2325.081          51.000  
  21852516.142    -3642916.749         872.409          46.000  
  25806767.765     -341457.541         223.185          43.000  
  23257119.330     7948565.393       -3456.252          37.000  
  20631546.342     1294037.081       -1285.585          35.000  
  26017677.187    -1860250.987         527.807          33.000  
  21210164.501    -2366265.5313       1093.286          28.000  
 18  9 27 19 57 14.0000000  0  7G30G28G 8G 7G 5G21G13
  21040838.895     4390080.011       -2325.631          51.000  
  21852350.295    -3643788.452         871.132          45.000  
  25806726.355     -341680.086         222.327          42.000  
  23257776.942     7952022.113       -3457.687          37.000  
  20631791.535     1295323.780       -1287.677          35.000  
  26017575.783    -1860777.772         526.920          32.000  
  21209954.958    -2367358.7313       1093.196          28.000  
 18  9 27 19 57 15.0000000  0  7G30G28G 8G 7G 5G21G13
  21041281.712     4392405.709       -2325.704          51.000  
  21852183.715    -3644659.642         870.875          45.000  
  25806684.039     -341902.130         221.792          43.000  
  23258434.431     7955478.935       -3457.955          36.000  
  20632035.995     1296611.071       -1288.298          35.000  
  26017474.747    -1861304.147         526.222          32.000  
  21209746.167    -2368451.7123       1092.785          28.000  
 18  9 27 19 57 16.0000000  0  8G30G28G15G 8G 7G 5G21G13
  21041724.599     4394731.741       -2326.462          51.000  
  21852018.008    -3645530.337         870.281          45.000  
  24070814.694    -4838738.4033       2506.993          28.000  
  25806641.530     -342123.729         221.305          43.000  
  23259091.833     7958935.905       -3457.745          35.000  
  20632281.153     1297899.000       -1288.116          35.000  
  26017373.623    -1861830.139         525.280          33.000  
  21209540.481    -2369544.4443       1092.244          29.000  
 18  9 27 19 57 17.0000000  0  8G30G28G15G 8G 7G 5G21G13
  21042166.857     4397058.165       -2326.794          51.000  
  21851851.603    -3646400.480         869.318          45.000  
  24070338.565    -4841244.6773       2506.951          29.000  
  25806599.667     -342344.787         220.493          43.000  
  23259748.293     7962393.044       -3457.030          34.000  
  20632526.241     1299187.509       -1288.562          35.000  
  26017272.656    -1862355.633         524.229          34.000  
  21209333.364    -2370636.9193       1092.229          29.000  
 18  9 27 19 57 18.0000000  0  8G30G28G15G 8G 7G 5G21G13
  21042609.377     4399385.037       -2326.902          51.000  
  21851685.616    -3647270.039         869.568          45.000  
  24069864.478    -4843750.8933       2506.151          29.000  
  25806557.961     -342565.308         220.542          43.000  
  23260403.461     7965850.380       -3456.777          33.000  
  20632771.469     1300476.689       -1287.474          35.000  
  26017171.828    -1862880.694         525.147          34.000  
  21209128.080    -2371729.0803       1092.095          29.000  
 18  9 27 19 57 19.0000000  0  8G30G28G15G 8G 7G 5G21G13
  21043052.072     4401712.023       -2327.021          51.000  
  21851519.368    -3648139.348         869.283          44.000  
  24069391.018    -4846257.0933       2505.973          30.000  
  25806515.871     -342785.565         219.857          43.000  
  23261058.525     7969307.557       -3457.813          34.000  
  20633016.435     1301766.259       -1290.359          35.000  
  26017071.961    -1863405.520         526.700          33.000  
  21208924.139    -2372821.2543       1091.915          29.000  
 18  9 27 19 57 20.0000000  0  8G30G28G15G 8G 7G 5G21G13
  21043495.569     4404039.471       -2327.354          52.000  
  21851354.673    -3649008.027         868.784          44.000  
  24068913.685    -4848763.3683       2505.350          30.000  
  25806474.566     -343005.236         220.099          44.000  
  23261715.037     7972764.918       -3459.159          35.000  
  20633262.396     1303056.521       -1292.091          35.000  
  26016972.459    -1863929.891         525.771          34.000  
  21208716.429    -2373913.0853       1091.416          30.000  
 18  9 27 19 57 21.0000000  0  8G30G28G15G 8G 7G 5G21G13
  21043938.787     4406367.187       -2328.073          52.000  
  21851189.681    -3649876.276         867.610          44.000  
  24068439.353    -4851269.7162       2504.844          30.000  
  25806433.506     -343224.510         218.944          44.000  
  23262373.050     7976222.341       -3457.526          37.000  
  20633507.886     1304347.298       -1292.476          35.000  
  26016873.325    -1864453.918         524.801          34.000  
  21208508.143    -2375004.7983       1091.282          30.000  
 18  9 27 19 57 22.0000000  0  8G30G28G15G 8G 7G 5G21G13
  21044382.145     4408695.436       -2328.477          51.000  
  21851024.114    -3650743.877         867.455          44.000  
  24067963.730    -4853775.8432       2506.679          30.000  
  25806392.131     -343443.100         218.551          44.000  
  23263031.848     7979679.998       -3458.072          38.000  
  20633752.904     1305638.823       -1290.748          34.000  
  26016773.963    -1864977.341         522.920          35.000  
  21208302.004    -2376095.8523       1091.666          30.000  
 18  9 27 19 57 23.0000000  0  8G30G28G15G 8G 7G 5G21G13
  21044824.560     4411024.134       -2328.988          51.000  
  21850858.755    -3651610.862         866.241          44.000  
  24067487.653    -4856281.8342       2506.647          30.000  
  25806350.478     -343661.140         217.932          44.000  
  23263691.239     7983137.882       -3457.478          40.000  
  20633998.132     1306931.094       -1293.341          35.000  
  26016675.387    -1865500.243         522.417          35.000  
  21208090.246    -2377186.7902       1089.600          31.000  
 18  9 27 19 57 24.0000000  0  8G30G28G15G 8G 7G 5G21G13
  21045267.778     4413353.266       -2329.326          51.000  
  21850693.257    -3652477.286         866.000          44.000  
  24067010.634    -4858787.6973       2506.221          30.000  
  25806309.191     -343878.643         217.157          43.000  
  23264350.334     7986595.916       -3458.286          40.000  
  20634243.657     1308223.946       -1293.297          35.000  
  26016576.182    -1866022.708         522.869          35.000  
  21207882.797    -2378277.4542       1091.940          31.000  
 18  9 27 19 57 25.0000000  0  8G30G28G15G 8G 7G 5G21G13
  21045711.031     4415682.702       -2329.784          51.000  
  21850527.288    -3653343.256         865.362          44.000  
  24066531.748    -4861293.5793       2506.727          30.000  
  25806268.322     -344095.681         217.165          43.000  
  23265009.306     7990054.028       -3458.470          40.000  
  20634488.955     1309517.381       -1294.407          34.000  
  26016476.315    -1866544.824         521.698          35.000  
  21207674.826    -2379367.9172       1087.691          31.000  
 18  9 27 19 57 26.0000000  0  8G30G28G15G 8G 7G 5G21G13
  21046154.808     4418012.602       -2329.813          51.000  
  21850362.349    -3654208.604         864.842          43.000  
  24066054.624    -4863799.3092       2504.772          30.000  
  25806227.000     -344312.154         216.062          43.000  
  23265668.366     7993512.362       -3458.274          40.000  
  20634734.915     1310811.516       -1293.455          35.000  
  26016376.657    -1867066.358         521.697          35.000  
  21207472.421    -2380458.0933       1090.245          31.000  
 18  9 27 19 57 27.0000000  0  8G30G28G15G 8G 7G 5G21G13
  21046598.008     4420342.906       -2330.604          51.000  
  21850197.758    -3655073.386         864.665          43.000  
  24065577.779    -4866304.9972       2504.108          30.000  
  25806185.573     -344528.081         215.550          43.000  
  23266325.664     7996970.874       -3458.764          40.000  
  20634981.190     1312106.301       -1295.895          34.000  
  26016277.190    -1867587.490         520.100          35.000  
  21207269.579    -2381547.9302       1088.708          32.000  
 18  9 27 19 57 28.0000000  0  8G30G28G15G 8G 7G 5G21G13
  21047040.877     4422673.731       -2330.801          51.000  
  21850033.657    -3655937.528         863.903          43.000  
  24065101.231    -4868810.4153       2506.229          30.000  
  25806144.687     -344743.389         215.192          43.000  
  23266982.507     8000429.664       -3458.996          40.000  
  20635227.709     1313401.852       -1295.253          34.000  
  26016178.248    -1868108.010         520.532          35.000  
  21207063.527    -2382637.4562       1088.408          32.000  
 18  9 27 19 57 29.0000000  0  8G30G28G15G 8G 7G 5G21G13
  21047484.130     4425005.018       -2331.564          51.000  
  21849868.560    -3656801.042         863.297          43.000  
  24064624.718    -4871315.6992       2504.890          31.000  
  25806103.522     -344958.109         214.427          43.000  
  23267639.002     8003888.652       -3458.774          40.000  
  20635473.740     1314698.075       -1294.283          34.000  
  26016079.113    -1868628.079         519.226          35.000  
  21206856.306    -2383726.5752       1089.568          32.000  
 18  9 27 19 57 30.0000000  0  8G30G28G15G 8G 7G 5G21G13
  21047928.046     4427336.815       -2331.483          51.000  
  21849703.970    -3657663.912         862.893          43.000  
  24064148.205    -4873820.8312       2504.510          31.000  
  25806062.654     -345172.207         213.748          44.000  
  23268296.945     8007347.926       -3458.605          41.000  
  20635719.753     1315995.013       -1295.806          33.000  
  26015980.292    -1869147.521         519.129          36.000  
  21206649.625    -2384815.3352       1088.617          33.000  
 18  9 27 19 57 31.0000000  0  7G30G28G15G 8G 7G21G13
  21048371.683     4429669.079       -2332.434          51.000  
  21849539.187    -3658526.153         862.165          43.000  
  24063671.535    -4876325.7472       2503.456          32.000  
  25806021.035     -345385.682         213.468          43.000  
  23268955.167     8010807.416       -3458.981          41.000  
  26015882.100    -1869666.431         518.230          36.000  
  21206441.950    -2385903.7152       1088.395          33.000  
 18  9 27 19 57 32.0000000  0  7G30G28G15G 8G 7G21G13
  21048816.105     4432001.554       -2332.630          51.000  
  21849374.981    -3659388.032         861.673          43.000  
  24063195.092    -4878830.8602       2503.005          31.000  
  25805980.638     -345598.811         213.156          43.000  
  23269614.716     8014266.861       -3459.736          41.000  
  26015783.838    -1870185.097         520.040          36.000  
  21206235.322    -2386992.0472       1087.888          33.000  
 18  9 27 19 57 33.0000000  0  7G30G28G15G 8G 7G21G13
  21049260.126     4434334.448       -2332.903          51.000  
  21849210.966    -3660249.333         860.935          43.000  
  24062717.968    -4881335.7632       2505.781          31.000  
  25805940.206     -345811.409         211.850          43.000  
  23270274.142     8017726.488       -3459.632          42.000  
  26015685.331    -1870703.293         517.935          36.000  
  21206028.241    -2388080.1012       1086.767          33.000  
 18  9 27 19 57 34.0000000  0  7G30G28G15G 8G 7G21G13
  21049703.536     4436667.914       -2333.966          51.000  
  21849047.109    -3661109.906         859.705          42.000  
  24062240.704    -4883840.5043       2503.981          31.000  
  25805899.250     -346023.310         210.607          42.000  
  23270932.783     8021186.445       -3459.831          42.000  
  26015587.366    -1871220.856         517.465          36.000  
  21205821.560    -2389167.6842       1086.927          33.000  
 18  9 27 19 57 35.0000000  0  7G30G28G15G 8G 7G21G13
  21050148.220     4439001.704       -2333.814          51.000  
  21848882.885    -3661970.026         860.067          42.000  
  24061763.057    -4886345.1412       2506.059          31.000  
  25805858.050     -346234.746         211.624          42.000  
  23271591.337     8024646.474       -3459.660          42.000  
  26015488.650    -1871738.040         518.027          36.000  
  21205615.752    -2390255.0912       1085.492          33.000  
 18  9 27 19 57 36.0000000  0  7G30G28G15G 8G 7G21G13
  21050591.962     4441335.795       -2334.135          51.000  
  21848719.341    -3662829.688         859.411          42.000  
  24061286.666    -4888849.8882       2505.011          30.000  
  25805817.374     -346445.789         210.555          42.000  
  23272249.349     8028106.550       -3460.097          42.000  
  26015390.650    -1872254.884         516.486          36.000  
  21205409.648    -2391342.2932       1086.290          33.000  
 18  9 27 19 57 37.0000000  0  7G30G28G15G 8G 7G21G13
  21051036.192     4443670.234       -2334.534          51.000  
  21848555.431    -3663688.848         859.223          42.000  
  24060809.315    -4891354.5403       2504.961          31.000  
  25805776.662     -346656.327         209.721          41.000  
  23272907.607     8031566.763       -3460.243          43.000  
  26015292.073    -1872771.296         515.953          36.000  
  21205203.945    -2392429.784        1086.797          33.000  
 18  9 27 19 57 38.0000000  0  7G30G28G15G 8G 7G21G13
  21051480.003     4446005.050       -2335.051          52.000  
  21848391.958    -3664547.482         858.020          42.000  
  24060332.488    -4893859.1472       2505.464          31.000  
  25805737.103     -346866.356         209.674          42.000  
  23273566.038     8035027.062       -3460.803          44.000  
  26015193.480    -1873287.303         516.083          36.000  
  21204997.997    -2393516.493        1087.538          33.000  
 18  9 27 19 57 39.0000000  0  8G30G28G15G 8G 7G 5G21G13
  21051924.373     4448340.280       -2335.062          51.000  
  21848228.187    -3665405.547         858.672          42.000  
  24059856.167    -4896363.6732       2504.822          31.000  
  25805697.508     -347075.852         209.430          41.000  
  23274224.592     8038487.563       -3460.384          44.000  
  20637943.277     1327692.8593      -1304.119          33.000  
  26015095.148    -1873802.827         515.921          36.000  
  21204792.032    -2394602.948        1085.740          33.000  
 18  9 27 19 57 40.0000000  0  7G30G28G15G 8G 7G21G13
  21052368.394     4450676.149       -2336.149          51.000  
  21848064.888    -3666262.853         856.907          42.000  
  24059379.829    -4898867.8683       2502.586          30.000  
  25805657.617     -347284.610         208.118          41.000  
  23274884.804     8041948.421       -3461.465          45.000  
  26014997.060    -1874317.674         512.612          36.000  
  21204584.706    -2395688.861        1086.511          33.000  
 18  9 27 19 57 41.0000000  0  8G30G28G15G 8G 7G 5G21G13
  21052812.624     4453012.376       -2336.636          51.000  
  21847902.357    -3667119.621         856.440          42.000  
  24058903.699    -4901372.0643       2504.387          30.000  
  25805618.319     -347492.847         208.270          40.000  
  23275543.951     8045409.404       -3461.486          45.000  
  20638437.363     1330300.1923      -1302.702          33.000  
  26014899.461    -1874832.096         514.466          36.000  
  21204378.096    -2396774.545        1085.343          33.000  
 18  9 27 19 57 42.0000000  0  8G30G28G15G 8G 7G 5G21G13
  21053257.395     4455349.137       -2336.908          51.000  
  21847739.721    -3667975.700         855.428          42.000  
  24058427.518    -4903875.9323       2503.355          30.000  
  25805578.759     -347700.429         207.363          40.000  
  23276203.516     8048870.689       -3461.250          45.000  
  20638686.552     1331604.9672      -1302.795          33.000  
  26014801.129    -1875345.908         513.426          36.000  
  21204170.630    -2397859.849        1086.359          33.000  
 18  9 27 19 57 43.0000000  0  8G30G28G15G 8G 7G 5G21G13
  21053701.573     4457686.351       -2337.514          50.000  
  21847577.172    -3668831.181         855.322          42.000  
  24057951.144    -4906379.7112       2506.498          30.000  
  25805538.886     -347907.419         207.194          40.000  
  23276861.617     8052332.172       -3461.569          45.000  
  20638936.544     1332910.4423      -1305.447          33.000  
  26014703.792    -1875859.244         513.196          36.000  
  21203963.478    -2398944.783        1084.994          33.000  
 18  9 27 19 57 44.0000000  0  8G30G28G15G 8G 7G 5G21G13
  21054145.978     4460023.985       -2337.569          50.000  
  21847414.466    -3669686.099         854.929          42.000  
  24057475.312    -4908883.4742       2504.122          30.000  
  25805499.727     -348113.904         206.370          40.000  
  23277519.490     8055793.837       -3461.834          45.000  
  20639186.466     1334216.5872      -1307.102          34.000  
  26014606.210    -1876372.095         512.599          36.000  
  21203757.304    -2400029.493        1085.832          33.000  
 18  9 27 19 57 45.0000000  0  8G30G28G15G 8G 7G 5G21G13
  21054590.382     4462362.071       -2338.326          50.000  
  21847252.581    -3670540.413         853.834          42.000  
  24056999.427    -4911386.9603       2503.004          30.000  
  25805460.935     -348319.793         205.561          41.000  
  23278177.066     8059255.691       -3461.394          44.000  
  20639436.981     1335523.4252      -1308.002          34.000  
  26014508.977    -1876884.454         510.817          36.000  
  21203551.915    -2401113.853        1084.062          33.000  
 18  9 27 19 57 46.0000000  0  8G30G28G15G 8G 7G 5G21G13
  21055035.031     4464700.725       -2338.813          50.000  
  21847090.259    -3671393.998         853.205          42.000  
  24056524.292    -4913890.2662       2503.487          31.000  
  25805422.807     -348524.998         204.570          41.000  
  23278835.027     8062717.874       -3462.082          45.000  
  20639685.664     1336831.0682      -1308.412          34.000  
  26014411.762    -1877396.190         511.314          35.000  
  21203346.439    -2402197.753        1084.559          34.000  
 18  9 27 19 57 47.0000000  0  8G30G28G15G 8G 7G 5G21G13
  21055479.977     4467039.933       -2339.419          49.000  
  21846928.443    -3672246.884         852.908          42.000  
  24056048.181    -4916393.3782       2501.428          31.000  
  25805384.277     -348729.502         204.509          41.000  
  23279494.052     8066180.353       -3462.744          45.000  
  20639934.347     1338139.4692      -1308.910          33.000  
  26014313.814    -1877907.319         510.467          34.000  
  21203140.683    -2403281.223        1082.751          34.000  
 18  9 27 19 57 48.0000000  0  8G30G28G15G 8G 7G 5G21G13
  21055924.923     4469379.421       -2339.528          50.000  
  21846766.138    -3673099.357         852.286          42.000  
  24055572.715    -4918896.4743       2504.131          31.000  
  25805346.549     -348933.636         203.971          41.000  
  23280152.867     8069642.879       -3462.454          45.000  
  20640182.734     1339448.4132      -1307.464          33.000  
  26014216.093    -1878418.072         512.052          34.000  
  21202935.312    -2404364.547        1084.061          34.000  
 18  9 27 19 57 49.0000000  0  8G30G28G15G 8G 7G 5G21G13
  21056369.799     4471719.281       -2340.317          50.000  
  21846603.991    -3673951.287         851.809          42.000  
  24055096.725    -4921399.5752       2502.669          31.000  
  25805307.932     -349137.252         202.780          41.000  
  23280811.718     8073105.541       -3463.084          45.000  
  20640431.190     1340757.9912      -1308.649          33.000  
  26014118.389    -1878928.410         509.966          34.000  
  21202729.766    -2405447.586        1082.351          33.000  
 18  9 27 19 57 50.0000000  0  8G30G28G15G 8G 7G 5G21G13
  21056815.530     4474059.604       -2341.270          49.000  
  21846441.721    -3674802.588         850.954          42.000  
  24054621.241    -4923902.4112       2503.872          32.000  
  25805269.158     -349340.254         202.969          41.000  
  23281470.882     8076568.410       -3463.596          45.000  
  20640680.536     1342068.2363      -1311.786          33.000  
  26014021.034    -1879438.273         508.218          34.000  
  21202523.783    -2406530.297        1083.081          33.000  
 18  9 27 19 57 51.0000000  0  8G30G28G15G 8G 7G 5G21G13
  21057260.615     4476400.509       -2341.376          49.000  
  21846280.359    -3675653.193         850.001          42.000  
  24054144.973    -4926405.0712       2503.781          32.000  
  25805230.453     -349542.579         201.710          41.000  
  23282129.925     8080031.596       -3464.028          46.000  
  20640930.353     1343379.2802      -1311.859          33.000  
  26013923.278    -1879947.506         508.701          33.000  
  21202317.085    -2407612.533        1082.668          32.000  
 18  9 27 19 57 52.0000000  0  8G30G28G15G 8G 7G 5G21G13
  21057705.613     4478741.734       -2341.537          49.000  
  21846118.561    -3676503.316         849.564          42.000  
  24053668.442    -4928907.7252       2501.177          32.000  
  25805191.923     -349744.442         201.428          41.000  
  23282789.665     8083494.884       -3462.918          46.000  
  20641180.258     1344690.9112      -1312.589          33.000  
  26013825.260    -1880456.307         509.144          33.000  
  21202109.986    -2408694.635        1083.591          32.000  
 18  9 27 19 57 53.0000000  0  8G30G28G15G 8G 7G 5G21G13
  21058151.762     4481083.201       -2341.986          49.000  
  21845956.972    -3677353.044         848.797          42.000  
  24053192.261    -4931410.4122       2502.672          32.000  
  25805153.672     -349945.939         200.639          41.000  
  23283448.777     8086958.165       -3463.965          45.000  
  20641429.290     1346003.0342      -1313.548          33.000  
  26013727.400    -1880964.858         505.940          33.000  
  21201903.882    -2409776.525        1083.342          32.000  
 18  9 27 19 57 54.0000000  0  8G30G28G15G 8G 7G 5G21G13
  21058596.952     4483425.312       -2342.671          50.000  
  21845794.702    -3678201.964         848.025          42.000  
  24052716.393    -4933912.8462       2501.356          32.000  
  25805116.381     -350146.679         200.032          41.000  
  23284107.296     8090421.837       -3464.294          45.000  
  20641678.497     1347315.9802      -1313.974          33.000  
  26013630.429    -1881472.688         507.011          34.000  
  21201697.795    -2410857.988        1079.953          32.000  
 18  9 27 19 57 55.0000000  0  8G30G28G15G 8G 7G 5G21G13
  21059043.364     4485767.909       -2343.116          50.000  
  21845633.392    -3679050.246         848.060          42.000  
  24052239.950    -4936415.535        2500.963          31.000  
  25805078.654     -350346.793         200.045          42.000  
  23284766.373     8093885.758       -3464.114          45.000  
  20641928.820     1348629.7152      -1315.344          32.000  
  26013534.191    -1881979.957         506.635          34.000  
  21201492.283    -2411939.061        1080.160          32.000  
 18  9 27 19 57 56.0000000  0  8G30G28G15G 8G 7G 5G21G13
  21059488.973     4488110.808       -2342.795          50.000  
  21845472.676    -3679898.053         847.917          42.000  
  24051763.803    -4938917.750        2501.707          31.000  
  25805041.223     -350546.478         199.362          42.000  
  23285425.381     8097349.726       -3464.109          45.000  
  20642178.672     1349943.9672      -1314.259          32.000  
  26013438.075    -1882486.879         506.885          33.000  
  21201287.453    -2413019.909        1081.376          32.000  
 18  9 27 19 57 57.0000000  0  8G30G28G15G 8G 7G 5G21G13
  21059935.227     4490453.916       -2343.065          50.000  
  21845312.116    -3680745.535         847.482          42.000  
  24051287.360    -4941420.103        2499.452          30.000  
  25805002.605     -350745.818         199.034          42.000  
  23286083.498     8100813.658       -3464.013          45.000  
  20642427.844     1351258.6512      -1316.383          32.000  
  26013342.221    -1882993.517         506.839          34.000  
  21201081.331    -2414100.666        1080.848          33.000  
 18  9 27 19 57 58.0000000  0  7G30G28G15G 8G 7G21G13
  21060380.871     4492797.629       -2344.035          50.000  
  21845151.051    -3681592.229         846.295          42.000  
  24050809.730    -4943922.160        2499.042          30.000  
  25804963.639     -350944.428         198.171          41.000  
  23286742.628     8104277.941       -3464.636          45.000  
  26013247.379    -1883499.548         505.872          34.000  
  21200875.628    -2415180.991        1079.908          33.000  
 18  9 27 19 57 59.0000000  0  7G30G28G15G 8G 7G21G13
  21060827.265     4495141.901       -2344.431          50.000  
  21844990.247    -3682438.210         845.903          42.000  
  24050332.152    -4946423.4243       2502.946          30.000  
  25804925.249     -351142.332         198.288          40.000  
  23287402.019     8107742.537       -3464.434          45.000  
  26013151.490    -1884004.935         505.074          35.000  
  21200669.785    -2416260.897        1079.450          33.000  
 18  9 27 19 58  0.0000000  0  7G30G28G15G 8G 7G21G13
  21061273.589     4497486.439       -2344.369          50.000  
  21844829.269    -3683283.791         845.162          43.000  
  24049853.912    -4948925.1823       2499.140          29.000  
  25804887.033     -351339.870         197.235          40.000  
  23288060.870     8111207.171       -3464.077          45.000  
  26013056.892    -1884509.986         505.921          36.000  
  21200464.047    -2417340.635        1079.801          33.000  
 18  9 27 19 58  1.0000000  0  7G30G28G15G 8G 7G21G13
  21061720.105     4499831.235       -2344.697          50.000  
  21844668.674    -3684128.953         845.657          43.000  
  24049375.601    -4951427.0643       2503.207          28.000  
  25804849.672     -351536.979         196.961          40.000  
  23288719.633     8114671.808       -3464.214          45.000  
  26012961.946    -1885014.728         504.591          37.000  
  21200258.658    -2418420.231        1080.434          33.000  
 18  9 27 19 58  2.0000000  0  7G30G28G15G 8G 7G21G13
  21062166.011     4502176.407       -2345.534          50.000  
  21844507.330    -3684973.577         843.686          43.000  
  24048898.216    -4953928.9003       2501.003          28.000  
  25804813.445     -351733.600         196.438          41.000  
  23289378.536     8118136.586       -3464.615          45.000  
  26012867.540    -1885519.026         504.243          38.000  
  21200052.640    -2419499.604        1077.307          33.000  
 18  9 27 19 58  3.0000000  0  7G30G28G 8G 7G 5G21G13
  21062612.230     4504522.118       -2345.870          50.000  
  21844346.788    -3685817.528         843.393          43.000  
  25804777.323     -351929.565         195.062          40.000  
  23290037.369     8121601.636       -3465.149          45.000  
  20643929.121     1359161.9893      -1319.506          32.000  
  26012772.454    -1886022.728         502.870          38.000  
  21199846.536    -2420578.551        1079.737          33.000  
 18  9 27 19 58  4.0000000  0  6G30G28G 8G 7G21G13
  21063058.659     4506868.430       -2346.494          50.000  
  21844186.595    -3686660.707         842.649          43.000  
  25804739.997     -352124.779         195.574          40.000  
  23290696.498     8125067.048       -3465.927          45.000  
  26012677.228    -1886525.792         502.887          38.000  
  21199641.391    -2421657.015        1079.268          33.000  
 18  9 27 19 58  5.0000000  0  7G30G28G 8G 7G 5G21G13
  21063505.228     4509215.133       -2346.921          50.000  
  21844026.349    -3687503.342         842.254          43.000  
  25804702.619     -352319.508         195.215          40.000  
  23291356.884     8128532.617       -3465.218          46.000  
  20644432.193     1361801.7612      -1321.224          32.000  
  26012581.723    -1887028.371         502.049          38.000  
  21199436.438    -2422735.190        1078.610          33.000  
 18  9 27 19 58  6.0000000  0  7G30G28G 8G 7G 5G21G13
  21063951.622     4511562.118       -2347.277          50.000  
  21843866.523    -3688345.512         842.442          43.000  
  25804665.101     -352513.808         193.893          39.000  
  23292016.468     8131998.228       -3465.634          45.000  
  20644684.052     1363122.5582      -1320.974          32.000  
  26012485.921    -1887530.626         502.849          37.000  
  21199231.520    -2423813.204        1076.464          33.000  
 18  9 27 19 58  7.0000000  0  7G30G28G 8G 7G 5G21G13
  21064398.452     4513909.646       -2347.970          50.000  
  21843706.801    -3689187.038         841.565          43.000  
  25804627.548     -352707.432         193.438          39.000  
  23292676.417     8135464.122       -3465.412          46.000  
  20644935.929     1364444.1062      -1321.127          33.000  
  26012391.184    -1888032.308         500.577          37.000  
  21199027.266    -2424890.830        1078.173          33.000  
 18  9 27 19 58  8.0000000  0  7G30G28G 8G 7G 5G21G13
  21064845.823     4516257.684       -2348.197          50.000  
  21843546.783    -3690027.888         840.618          43.000  
  25804590.257     -352900.429         193.156          38.000  
  23293335.250     8138930.254       -3466.651          46.000  
  20645188.119     1365766.3532      -1324.576          33.000  
  26012295.853    -1888533.370         500.946          37.000  
  21198822.924    -2425968.081        1075.403          34.000  
 18  9 27 19 58  9.0000000  0  7G30G28G 8G 7G 5G21G13
  21065292.915     4518605.956       -2348.020          50.000  
  21843386.659    -3690868.341         840.458          43.000  
  25804553.629     -353093.068         192.530          39.000  
  23293994.938     8142396.403       -3466.203          46.000  
  20645440.886     1367089.0982      -1324.366          34.000  
  26012199.807    -1889034.182         501.856          37.000  
  21198618.878    -2427045.210        1077.062          34.000  
 18  9 27 19 58 10.0000000  0  7G30G28G 8G 7G 5G21G13
  21065739.519     4520954.414       -2348.495          50.000  
  21843227.478    -3691708.452         839.453          43.000  
  25804517.856     -353285.378         192.195          39.000  
  23294654.469     8145862.483       -3466.112          46.000  
  20645692.954     1368412.2842      -1323.123          34.000  
  26012104.617    -1889534.743         501.020          36.000  
  21198414.920    -2428122.242        1076.562          34.000  
 18  9 27 19 58 11.0000000  0  7G30G28G 8G 7G 5G21G13
  21066186.663     4523303.248       -2348.597          50.000  
  21843068.071    -3692548.009         839.151          43.000  
  25804482.223     -353477.152         191.694          39.000  
  23295313.477     8149328.699       -3465.949          46.000  
  20645944.970     1369736.0732      -1324.505          34.000  
  26012009.391    -1890034.862         501.043          36.000  
  21198210.630    -2429199.038        1076.055          34.000  
 18  9 27 19 58 12.0000000  0  7G30G28G 8G 7G 5G21G13
  21066633.493     4525652.445       -2349.391          50.000  
  21842908.837    -3693387.076         838.642          43.000  
  25804446.170     -353668.457         191.405          39.000  
  23295972.083     8152795.045       -3466.451          46.000  
  20646197.824     1371060.4352      -1325.358          35.000  
  26011914.601    -1890534.579         499.167          37.000  
  21198006.480    -2430275.607        1075.609          35.000  
 18  9 27 19 58 13.0000000  0  7G30G28G 8G 7G 5G21G13
  21067080.655     4528001.986       -2350.122          50.000  
  21842750.058    -3694225.621         838.668          43.000  
  25804410.502     -353859.272         190.483          39.000  
  23296632.417     8156261.464       -3467.389          45.000  
  20646450.974     1372384.971       -1323.782          35.000  
  26011819.759    -1891033.882         498.930          37.000  
  21197802.417    -2431351.955        1075.803          34.000  
 18  9 27 19 58 14.0000000  0  7G30G28G 8G 7G 5G21G13
  21067527.799     4530351.893       -2350.123          50.000  
  21842591.331    -3695063.662         838.225          43.000  
  25804373.211     -354049.618         189.979          38.000  
  23297291.825     8159728.028       -3466.283          46.000  
  20646704.159     1373710.565       -1324.834          35.000  
  26011724.935    -1891532.754         499.691          37.000  
  21197598.006    -2432428.036        1077.588          34.000  
 18  9 27 19 58 15.0000000  0  8G30G28G15G 8G 7G 5G21G13
  21067975.712     4532702.187       -2350.482          50.000  
  21842432.324    -3695901.164         837.697          44.000  
  24042708.938    -4986448.8343       2501.468          27.000  
  25804335.623     -354239.431         189.681          38.000  
  23297951.426     8163194.713       -3466.803          45.000  
  20646956.891     1375036.803       -1325.646          35.000  
  26011630.215    -1892031.182         497.806          37.000  
  21197394.100    -2433503.887        1076.139          35.000  
 18  9 27 19 58 16.0000000  0  8G30G28G 8S27G 7G 5G21G13
  21068422.943     4535052.991       -2350.874          50.000  
  21842272.899    -3696737.992         836.804          44.000  
  25804299.292     -354428.597         188.499          38.000  
  39978869.913     1244389.3902       -686.204          36.000  
  23298610.922     8166661.672       -3466.811          45.000  
  20647210.059     1376363.685       -1327.418          35.000  
  26011535.478    -1892529.027         497.951          37.000  
  21197189.723    -2434579.288        1075.349          35.000  
 18  9 27 19 58 17.0000000  0  9G30G28G15G 8S27G 7G 5G21G13
  21068870.908     4537404.000       -2351.362          50.000  
  21842114.120    -3697574.453         836.239          44.000  
  24041761.007    -4991450.2793       2501.053          28.000  
  25804263.397     -354617.412         189.575          38.000  
  39978997.770     1245075.6992       -685.705          36.000  
  23299269.965     8170128.593       -3467.137          45.000  
  20647462.895     1377691.070       -1329.420          34.000  
  26011440.234    -1893026.615         497.259          37.000  
  21196985.800    -2435654.674        1074.874          35.000  
 18  9 27 19 58 18.0000000  0  9G30G28G15G 8S27G 7G 5G21G13
  21069318.419     4539755.610       -2351.592          50.000  
  21841955.497    -3698410.162         835.780          44.000  
  24041285.837    -4993950.6873       2501.319          29.000  
  25804227.484     -354805.519         187.584          38.000  
  39979124.808     1245761.9462       -685.854          36.000  
  23299928.571     8173595.878       -3466.977          45.000  
  20647715.347     1379019.314       -1327.299          34.000  
  26011344.974    -1893523.552         497.118          36.000  
  21196782.435    -2436729.516        1075.010          35.000  
 18  9 27 19 58 19.0000000  0  8G30G28G15G 8G 7G 5G21G13
  21069766.244     4542107.511       -2352.167          50.000  
  21841796.491    -3699245.428         834.980          44.000  
  24040810.144    -4996451.0583       2500.604          29.000  
  25804192.322     -354993.210         186.984          38.000  
  23300588.294     8177063.207       -3467.386          45.000  
  20647968.654     1380348.085       -1329.206          34.000  
  26011249.783    -1894020.160         496.436          35.000  
  21196578.564    -2437804.219        1074.068          36.000  
 18  9 27 19 58 20.0000000  0  8G30G28G15G 8G 7G 5G21G13
  21070214.383     4544459.926       -2352.426          51.000  
  21841638.514    -3700080.028         834.119          44.000  
  24040333.021    -4998951.2853       2500.247          28.000  
  25804157.003     -355180.278         186.491          38.000  
  23301247.580     8180530.788       -3467.641          45.000  
  20648222.119     1381677.605       -1329.447          34.000  
  26011154.731    -1894516.182         495.857          35.000  
  21196374.571    -2438878.556        1073.849          36.000  
 18  9 27 19 58 21.0000000  0  8G30G28G15G 8G 7G 5G21G13
  21070661.998     4546812.756       -2353.292          51.000  
  21841480.624    -3700914.050         833.329          44.000  
  24039859.736    -5001451.3873       2499.800          29.000  
  25804121.108     -355366.727         186.593          37.000  
  23301907.164     8183998.560       -3468.073          45.000  
  20648475.670     1383007.752       -1331.453          34.000  
  26011059.924    -1895011.745         495.422          35.000  
  21196170.281    -2439952.582        1072.845          36.000  
 18  9 27 19 58 22.0000000  0  8G30G28G15G 8G 7G 5G21G13
  21071110.015     4549166.078       -2353.379          51.000  
  21841323.049    -3701747.421         833.391          44.000  
  24039386.625    -5003951.2613       2500.684          28.000  
  25804085.213     -355552.644         184.664          37.000  
  23302567.271     8187466.569       -3467.801          45.000  
  20648728.838     1384338.709       -1331.387          35.000  
  26010965.135    -1895506.703         495.632          35.000  
  21195966.393    -2441026.218        1073.173          36.000  
 18  9 27 19 58 23.0000000  0  8G30G28G15G 8G 7G 5G21G13
  21071558.486     4551519.848       -2354.104          51.000  
  21841164.845    -3702580.175         832.419          44.000  
  24038912.102    -5006451.0123       2499.801          28.000  
  25804050.312     -355737.903         185.198          37.000  
  23303226.819     8190934.795       -3468.340          45.000  
  20648982.076     1385670.291       -1331.968          35.000  
  26010870.450    -1896001.187         494.436          35.000  
  21195763.010    -2442099.553        1072.047          36.000  
 18  9 27 19 58 24.0000000  0  8G30G28G15G 8G 7G 5G21G13
  21072006.502     4553874.118       -2354.583          50.000  
  21841006.659    -3703412.289         831.345          44.000  
  24038436.234    -5008950.6003       2499.722          28.000  
  25804014.208     -355922.609         184.387          36.000  
  23303886.507     8194403.264       -3468.563          43.000  
  20649235.889     1387002.609       -1332.929          34.000  
  26010776.969    -1896495.111         493.048          35.000  
  21195558.930    -2443172.463        1071.922          35.000  
 18  9 27 19 58 25.0000000  0  8G30G28G15G 8G 7G 5G21G13
  21072454.223     4556228.756       -2354.627          50.000  
  21840849.066    -3704243.875         831.337          44.000  
  24037958.622    -5011450.1413       2498.859          28.000  
  25803979.045     -356106.762         184.522          35.000  
  23304546.230     8197871.879       -3468.728          43.000  
  20649489.668     1388335.558       -1333.169          34.000  
  26010682.947    -1896988.602         493.167          35.000  
  21195355.042    -2444245.149        1072.970          35.000  
 18  9 27 19 58 26.0000000  0  8G30G28G15G 8G 7G 5G21G13
  21072902.170     4558583.609       -2354.953          50.000  
  21840690.932    -3705075.079         830.893          44.000  
  24037483.941    -5013949.7483       2500.310          28.000  
  25803944.267     -356290.603         184.280          35.000  
  23305205.202     8201340.452       -3468.420          44.000  
  20649743.446     1389668.981       -1332.915          35.000  
  26010589.117    -1897481.874         491.187          34.000  
  21195150.857    -2445317.759        1074.307          35.000  
 18  9 27 19 58 27.0000000  0  8G30G28G15G 8G 7G 5G21G13
  21073350.675     4560938.757       -2355.305          51.000  
  21840532.676    -3705905.821         830.750          45.000  
  24037007.707    -5016449.4033       2499.493          28.000  
  25803909.541     -356474.010         181.057          35.000  
  23305866.199     8204809.059       -3469.233          44.000  
  20649997.574     1391002.926       -1333.742          35.000  
  26010494.834    -1897974.719         491.741          34.000  
  21194946.131    -2446390.198        1072.221          35.000  
 18  9 27 19 58 28.0000000  0  8G30G28G15G 8G 7G 5G21G13
  21073798.989     4563294.153       -2355.765          51.000  
  21840374.717    -3706736.190         829.588          45.000  
  24036533.602    -5018949.0673       2500.355          28.000  
  25803875.182     -356656.999         182.669          35.000  
  23306526.987     8208277.697       -3469.165          44.000  
  20650252.103     1392337.340       -1335.229          35.000  
  26010400.812    -1898467.280         491.591          35.000  
  21194741.614    -2447462.484        1072.602          35.000  
 18  9 27 19 58 29.0000000  0  8G30G28G15G 8G 7G 5G21G13
  21074247.041     4565650.121       -2355.738          50.000  
  21840216.967    -3707565.807         829.680          45.000  
  24036059.829    -5021448.5593       2499.007          28.000  
  25803840.561     -356839.318         183.642          34.000  
  23307187.983     8211746.655       -3468.655          45.000  
  20650506.771     1393672.578       -1338.678          35.000  
  26010307.122    -1898959.169         492.607          35.000  
  21194537.499    -2448534.293        1071.911          34.000  
 18  9 27 19 58 30.0000000  0  8G30G28G15G 8G 7G 5G21G13
  21074694.464     4568006.370       -2356.596          50.000  
  21840059.339    -3708394.989         828.305          45.000  
  24035582.897    -5023948.0243       2499.274          28.000  
  25803805.870     -357021.184         179.824          34.000  
  23307849.207     8215215.611       -3469.589          45.000  
  20650761.509     1395008.374       -1335.731          36.000  
  26010213.275    -1899450.771         491.039          35.000  
  21194333.820    -2449606.002        1070.171          34.000  
 18  9 27 19 58 31.0000000  0  8G30G28G15G 8G 7G 5G21G13
  21075142.603     4570363.034       -2356.442          50.000  
  21839901.659    -3709223.608         829.367          45.000  
  24035110.327    -5026447.3823       2500.177          29.000  
  25803770.987     -357202.498         182.185          34.000  
  23308509.837     8218684.747       -3469.066          45.000  
  20651015.393     1396344.749       -1337.823          36.000  
  26010120.666    -1899941.895         491.059          35.000  
  21194129.722    -2450677.367        1071.556          34.000  
 18  9 27 19 58 32.0000000  0  8G30G28G15G 8G 7G 5G21G13
  21075591.440     4572720.165       -2357.647          50.000  
  21839743.700    -3710051.614         827.573          45.000  
  24034634.931    -5028946.6093       2499.049          30.000  
  25803736.906     -357383.231         180.270          34.000  
  23309170.346     8222154.102       -3470.023          45.000  
  20651270.148     1397681.889       -1337.559          37.000  
  26010028.267    -1900432.470         490.279          35.000  
  21193925.747    -2451748.370        1071.604          34.000  
 18  9 27 19 58 33.0000000  0  8G30G28G15G 8G 7G 5G21G13
  21076039.510     4575077.779       -2357.863          51.000  
  21839586.054    -3710878.964         827.096          45.000  
  24034155.888    -5031445.4563       2497.907          30.000  
  25803703.018     -357563.368         180.748          35.000  
  23309830.173     8225623.724       -3469.753          45.000  
  20651525.393     1399019.731       -1339.059          37.000  
  26009934.979    -1900922.477         491.192          35.000  
  21193721.579    -2452819.030        1070.874          34.000  
 18  9 27 19 58 34.0000000  0  8G30G28G15G 8G 7G 5G21G13
  21076488.312     4577435.602       -2357.963          50.000  
  21839429.020    -3711705.947         827.331          45.000  
  24033680.910    -5033944.6583       2500.577          31.000  
  25803669.269     -357743.196         178.845          36.000  
  23310490.036     8229093.306       -3469.712          45.000  
  20651780.812     1400358.050       -1337.764          36.000  
  26009841.027    -1901412.306         489.689          34.000  
  21193516.871    -2453889.628        1069.429          33.000  
 18  9 27 19 58 35.0000000  0  8G30G28G15G 8G 7G 5G21G13
  21076937.044     4579793.835       -2358.763          50.000  
  21839271.479    -3712532.372         825.619          45.000  
  24033209.702    -5036443.6202       2501.876          31.000  
  25803636.009     -357922.441         178.070          36.000  
  23311150.457     8232563.035       -3470.206          45.000  
  20652035.864     1401696.985       -1340.252          37.000  
  26009747.773    -1901901.5823        488.608          34.000  
  21193312.389    -2454959.924        1069.238          33.000  
 18  9 27 19 58 36.0000000  0  8G30G28G15G 8G 7G 5G21G13
  21077385.619     4582152.521       -2358.657          50.000  
  21839114.008    -3713358.201         825.691          45.000  
  24032736.313    -5038942.5143       2499.012          30.000  
  25803601.981     -358101.111         178.538          36.000  
  23311810.494     8236032.966       -3469.447          45.000  
  20652291.073     1403036.646       -1339.709          37.000  
  26009654.641    -1902390.3732        491.448          34.000  
  21193107.995    -2456029.857        1071.428          32.000  
 18  9 27 19 58 37.0000000  0  8G30G28G15G 8G 7G 5G21G13
  21077834.456     4584511.665       -2359.146          50.000  
  21838956.573    -3714183.404         825.065          45.000  
  24032261.091    -5041441.3463       2498.477          31.000  
  25803568.041     -358279.189         178.355          36.000  
  23312470.356     8239503.128       -3470.528          46.000  
  20652546.038     1404377.029       -1340.839          37.000  
  26009562.015    -1902878.6752        487.726          35.000  
  21192903.164    -2457099.521        1068.021          32.000  
 18  9 27 19 58 38.0000000  0  8G30G28G15G 8G 7G 5G21G13
  21078283.328     4586871.070       -2359.485          50.000  
  21838799.311    -3715008.178         824.403          45.000  
  24031790.598    -5043940.1243       2499.826          31.000  
  25803533.367     -358456.914         176.780          35.000  
  23313130.917     8242973.297       -3469.980          46.000  
  20652801.667     1405717.894       -1340.605          37.000  
  26009468.656    -1903366.6162        487.066          35.000  
  21192698.281    -2458168.4733       1069.691          31.000  
 18  9 27 19 58 39.0000000  0  8G30G28G15G 8G 7G 5G21G13
  21078732.654     4589230.854       -2359.804          50.000  
  21838642.032    -3715832.427         823.911          45.000  
  24031313.422    -5046438.9073       2498.215          31.000  
  25803498.711     -358634.083         175.692          36.000  
  23313792.664     8246443.591       -3470.207          46.000  
  20653057.330     1407059.400       -1340.542          37.000  
  26009376.258    -1903854.0992        486.775          36.000  
  21192493.119    -2459237.7312       1067.739          31.000  
 18  9 27 19 58 40.0000000  0  8G30G28G15G 8G 7G 5G21G13
  21079181.962     4591591.013       -2359.937          50.000  
  21838485.521    -3716656.118         824.058          45.000  
  24030836.752    -5048937.5692       2498.563          31.000  
  25803464.369     -358810.732         176.535          37.000  
  23314453.731     8249914.009       -3470.256          46.000  
  20653313.918     1408401.500       -1342.438          37.000  
  26009283.527    -1904341.1572        487.180          35.000  
  21192289.719    -2460306.7122       1069.631          31.000  
 18  9 27 19 58 41.0000000  0  8G30G28G15G 8G 7G 5G21G13
  21079631.811     4593951.530       -2361.109          50.000  
  21838329.551    -3717479.313         822.397          45.000  
  24030360.780    -5051436.2052       2498.974          31.000  
  25803431.213     -358986.934         175.394          38.000  
  23315114.344     8253384.539       -3471.314          47.000  
  20653569.808     1409744.168       -1344.095          36.000  
  26009190.238    -1904827.8142        486.706          34.000  
  21192085.482    -2461375.4263       1068.884          31.000  
 18  9 27 19 58 42.0000000  0  8G30G28G15G 8G 7G 5G21G13
  21080080.631     4596312.548       -2361.325          50.000  
  21838172.639    -3718301.841         822.758          45.000  
  24029884.738    -5053934.6272       2499.638          31.000  
  25803397.988     -359162.459         175.266          39.000  
  23315774.991     8256855.333       -3471.130          47.000  
  20653825.174     1411087.637       -1342.601          37.000  
  26009097.560    -1905313.9362        485.578          34.000  
  21191882.326    -2462443.7742       1067.182          31.000  
 18  9 27 19 58 43.0000000  0  8G30G28G15G 8G 7G 5G21G13
  21080530.480     4598673.966       -2361.451          50.000  
  21838015.692    -3719123.828         821.095          45.000  
  24029409.114    -5056432.9763       2499.958          31.000  
  25803364.711     -359337.500         174.685          39.000  
  23316435.028     8260326.266       -3471.395          47.000  
  20654080.488     1412431.716       -1344.477          36.000  
  26009004.516    -1905799.560         484.070          34.000  
  21191678.368    -2463511.8302       1065.970          30.000  
 18  9 27 19 58 44.0000000  0  8G30G28G15G 8G 7G 5G21G13
  21080980.242     4601035.599       -2361.648          51.000  
  21837859.355    -3719945.409         821.076          45.000  
  24028933.160    -5058931.4052       2498.954          31.000  
  25803330.683     -359512.159         174.178          39.000  
  23317094.821     8263797.190       -3471.211          47.000  
  20654336.378     1413776.265       -1344.355          36.000  
  26008912.448    -1906284.906         484.877          35.000  
  21191474.009    -2464579.7672       1068.040          30.000  
 18  9 27 19 58 45.0000000  0  8G30G28G15G 8G 7G 5G21G13
  21081429.829     4603397.795       -2362.353          51.000  
  21837702.739    -3720766.294         820.468          45.000  
  24028457.188    -5061429.5773       2499.378          30.000  
  25803297.108     -359686.123         172.992          39.000  
  23317754.963     8267268.442       -3471.539          47.000  
  20654592.094     1415121.618       -1345.915          36.000  
  26008819.979    -1906769.624         484.134          35.000  
  21191269.649    -2465647.3332       1067.379          30.000  
 18  9 27 19 58 46.0000000  0  8G30G28G15G 8G 7G 5G21G13
  21081879.469     4605760.343       -2362.733          51.000  
  21837546.665    -3721586.645         819.941          45.000  
  24027981.530    -5063927.7743       2497.487          30.000  
  25803263.813     -359859.581         172.852          40.000  
  23318415.576     8270739.799       -3471.298          47.000  
  20654848.490     1416467.530       -1346.082          36.000  
  26008728.750    -1907253.892         484.081          36.000  
  21191065.255    -2466714.7402       1065.505          30.000  
 18  9 27 19 58 47.0000000  0  7G30G28G 8G 7G 5G21G13
  21082329.545     4608123.011       -2362.964          51.000  
  21837390.555    -3722406.732         819.833          45.000  
  25803231.513     -360032.810         172.829          41.000  
  23319075.892     8274211.015       -3471.184          47.000  
  20655104.834     1417813.857       -1345.199          37.000  
  26008636.438    -1907738.030         482.649          36.000  
  21190861.332    -2467781.9642       1066.695          30.000  
 18  9 27 19 58 48.0000000  0  7G30G28G 8G 7G 5G21G13
  21082779.569     4610486.151       -2363.571          51.000  
  21837234.864    -3723226.186         818.492          45.000  
  25803199.719     -360205.405         172.242          41.000  
  23319736.278     8277682.476       -3471.788          48.000  
  20655361.526     1419160.817       -1348.291          37.000  
  26008543.935    -1908221.621         483.125          36.000  
  21190658.246    -2468848.8702       1068.495          30.000  
 18  9 27 19 58 49.0000000  0  7G30G28G 8G 7G 5G21G13
  21083229.296     4612849.753       -2363.790          51.000  
  21837078.685    -3724045.006         818.982          45.000  
  25803168.047     -360377.397         171.997          42.000  
  23320397.519     8281154.159       -3471.214          48.000  
  20655617.591     1420508.566       -1348.349          37.000  
  26008451.553    -1908704.661         483.887          36.000  
  21190454.584    -2469916.033        1067.716          30.000  
 18  9 27 19 58 50.0000000  0  7G30G28G 8G 7G 5G21G13
  21083678.901     4615213.666       -2363.721          51.000  
  21836922.924    -3724863.366         818.116          45.000  
  25803135.554     -360548.970         170.724          42.000  
  23321058.865     8284625.889       -3471.792          48.000  
  20655873.812     1421856.814       -1348.697          36.000  
  26008358.666    -1909187.409         483.086          35.000  
  21190251.097    -2470982.446        1068.958          31.000  
 18  9 27 19 58 51.0000000  0  7G30G28G 8G 7G 5G21G13
  21084129.012     4617577.864       -2364.101          51.000  
  21836766.588    -3725681.289         818.150          45.000  
  25803102.870     -360720.120         171.225          42.000  
  23321720.455     8288097.646       -3471.589          48.000  
  20656130.592     1423205.587       -1350.813          36.000  
  26008267.174    -1909669.787         481.959          35.000  
  21190048.308    -2472048.704        1065.495          31.000  
 18  9 27 19 58 52.0000000  0  7G30G28G 8G 7G 5G21G13
  21084579.053     4619942.386       -2364.862          50.000  
  21836611.403    -3726498.727         817.168          45.000  
  25803069.837     -360890.827         170.319          42.000  
  23322380.824     8291569.500       -3471.951          49.000  
  20656387.041     1424554.931       -1350.527          36.000  
  26008174.985    -1910151.767         481.446          35.000  
  21189844.752    -2473114.776        1064.171          31.000  
 18  9 27 19 58 53.0000000  0  7G30G28G 8G 7G 5G21G13
  21085029.600     4622307.490       -2365.447          51.000  
  21836455.887    -3727315.415         816.682          45.000  
  25803036.681     -361060.809         169.528          42.000  
  23323041.314     8295041.678       -3472.300          49.000  
  20656644.274     1425905.128       -1352.983          36.000  
  26008083.092    -1910633.128         481.040          34.000  
  21189642.050    -2474180.335        1064.347          32.000  
 18  9 27 19 58 54.0000000  0  7G30G28G 8G 7G 5G21G13
  21085479.484     4624672.872       -2365.308          51.000  
  21836300.423    -3728131.673         816.198          45.000  
  25803003.823     -361230.381         169.084          42.000  
  23323701.212     8298513.898       -3471.848          49.000  
  20656901.316     1427255.851       -1350.243          36.000  
  26007990.902    -1911114.079         481.409          35.000  
  21189439.209    -2475245.752        1067.055          32.000  
 18  9 27 19 58 55.0000000  0  7G30G28G 8G 7G 5G21G13
  21085929.089     4627038.572       -2365.944          51.000  
  21836145.063    -3728947.462         815.411          45.000  
  25802971.208     -361399.502         168.355          42.000  
  23324361.511     8301986.180       -3472.420          49.000  
  20657157.782     1428607.106       -1351.372          36.000  
  26007899.323    -1911594.731         480.943          34.000  
  21189237.205    -2476310.986        1065.521          32.000  
 18  9 27 19 58 56.0000000  0  7G30G28G 8G 7G 5G21G13
  21086379.217     4629404.792       -2366.284          51.000  
  21835989.669    -3729762.542         815.025          44.000  
  25802939.292     -361567.958         167.573          42.000  
  23325022.315     8305458.750       -3472.281          49.000  
  20657414.876     1429959.095       -1352.626          36.000  
  26007808.652    -1912074.765         479.683          35.000  
  21189034.957    -2477375.803        1064.211          32.000  
 18  9 27 19 58 57.0000000  0  7G30G28G 8G 7G 5G21G13
  21086830.270     4631771.412       -2366.711          51.000  
  21835834.135    -3730577.067         814.303          44.000  
  25802907.305     -361735.854         167.589          42.000  
  23325683.539     8308931.472       -3472.603          49.000  
  20657671.621     1431311.755       -1353.462          35.000  
  26007717.387    -1912554.322         479.956          35.000  
  21188833.145    -2478440.337        1066.740          32.000  
 18  9 27 19 58 58.0000000  0  7G30G28G 8G 7G 5G21G13
  21087280.521     4634138.405       -2367.423          51.000  
  21835678.916    -3731391.070         813.609          44.000  
  25802875.860     -361903.256         167.745          42.000  
  23326344.745     8312404.312       -3472.721          49.000  
  20657928.436     1432665.018       -1355.172          35.000  
  26007626.018    -1913033.498         477.530          35.000  
  21188631.176    -2479504.646        1066.148          32.000  
 18  9 27 19 58 59.0000000  0  7G30G28G 8G 7G 5G21G13
  21087731.243     4636505.993       -2368.199          51.000  
  21835523.818    -3732204.303         812.835          44.000  
  25802843.490     -362069.921         166.322          42.000  
  23327005.445     8315877.516       -3473.553          50.000  
  20658185.949     1434019.137       -1355.384          35.000  
  26007535.399    -1913511.978         477.987          35.000  
  21188429.556    -2480568.422        1065.053          32.000  
 18  9 27 19 59  0.0000000  0  7G30G28G 8G 7G 5G21G13
  21088181.580     4638874.316       -2368.499          51.000  
  21835368.354    -3733016.663         811.633          44.000  
  25802812.184     -362235.715         165.474          42.000  
  23327666.547     8319351.191       -3474.008          50.000  
  20658443.689     1435374.198       -1356.117          35.000  
  26007445.478    -1913989.679         477.056          35.000  
  21188227.500    -2481631.626        1062.981          32.000  
 18  9 27 19 59  1.0000000  0  7G30G28G 8G 7G 5G21G13
  21088632.581     4641242.968       -2369.018          51.000  
  21835213.431    -3733828.503         811.989          44.000  
  25802781.420     -362401.027         165.461          42.000  
  23328328.050     8322824.981       -3474.140          50.000  
  20658702.283     1436729.850       -1357.669          35.000  
  26007355.051    -1914466.906         477.740          35.000  
  21188025.409    -2482694.653        1063.605          32.000  
 18  9 27 19 59  2.0000000  0  7G30G28G 8G 7G 5G21G13
  21089084.141     4643611.944       -2369.155          51.000  
  21835059.398    -3734639.877         811.259          44.000  
  25802750.219     -362565.901         165.229          43.000  
  23328988.959     8326298.822       -3473.884          50.000  
  20658960.093     1438086.098       -1356.495          36.000  
  26007264.537    -1914943.843         477.680          35.000  
  21187822.865    -2483757.442        1062.063          32.000  
 18  9 27 19 59  3.0000000  0  7G30G28G 8G 7G 5G21G13
  21089535.456     4645981.397       -2370.125          51.000  
  21834904.946    -3735450.606         810.171          44.000  
  25802719.140     -362730.147         163.511          43.000  
  23329649.991     8329772.918       -3474.508          50.000  
  20659218.042     1439443.023       -1357.550          36.000  
  26007174.127    -1915420.207         476.264          35.000  
  21187621.105    -2484819.845        1061.562          32.000  
 18  9 27 19 59  4.0000000  0  7G30G28G 8G 7G 5G21G13
  21089986.858     4648351.527       -2370.633          51.000  
  21834749.866    -3736260.496         809.347          43.000  
  25802688.776     -362893.600         162.524          42.000  
  23330311.546     8333247.424       -3474.885          50.000  
  20659476.235     1440800.918       -1357.740          36.000  
  26007084.171    -1915895.801         475.694          35.000  
  21187418.561    -2485881.715        1062.047          32.000  
 18  9 27 19 59  5.0000000  0  7G30G28G 8G 7G 5G21G13
  21090437.737     4650722.206       -2370.468          51.000  
  21834596.164    -3737069.690         809.106          43.000  
  25802657.349     -363056.340         162.301          42.000  
  23330972.787     8336722.240       -3474.595          50.000  
  20659734.324     1442159.517       -1358.141          36.000  
  26006994.757    -1916370.827         474.916          36.000  
  21187216.714    -2486943.121        1060.151          32.000  
 18  9 27 19 59  6.0000000  0  7G30G28G 8G 7G 5G21G13
  21090889.086     4653093.084       -2371.072          51.000  
  21834442.166    -3737878.507         808.882          43.000  
  25802625.991     -363218.743         161.840          41.000  
  23331633.941     8340197.014       -3474.753          50.000  
  20659992.675     1443518.634       -1358.707          35.000  
  26006904.836    -1916845.574         473.580          36.000  
  21187015.059    -2488004.432        1062.515          32.000  
 18  9 27 19 59  7.0000000  0  7G30G28G 8G 7G 5G21G13
  21091340.925     4655464.454       -2371.642          51.000  
  21834288.203    -3738686.690         807.198          43.000  
  25802595.400     -363380.537         161.199          41.000  
  23332295.060     8343672.039       -3475.392          50.000  
  20660251.409     1444878.430       -1362.826          35.000  
  26006814.723    -1917319.763         474.136          36.000  
  21186813.544    -2489065.417        1060.656          32.000  
 18  9 27 19 59  8.0000000  0  7G30G28G 8G 7G 5G21G13
  21091792.170     4657836.382       -2372.399          51.000  
  21834134.153    -3739494.132         807.266          43.000  
  25802564.426     -363541.600         161.211          41.000  
  23332956.074     8347147.374       -3475.544          50.000  
  20660510.074     1446239.125       -1358.882          35.000  
  26006724.470    -1917793.303         472.045          35.000  
  21186612.099    -2490125.925        1059.994          32.000  
 18  9 27 19 59  9.0000000  0  7G30G28G 8G 7G 5G21G13
  21092243.886     4660208.767       -2372.620          52.000  
  21833980.311    -3740300.954         806.211          43.000  
  25802533.661     -363702.077         160.205          41.000  
  23333617.822     8350622.936       -3475.575          50.000  
  20660769.070     1447600.429       -1361.663          35.000  
  26006634.444    -1918266.312         472.398          36.000  
  21186410.898    -2491186.117        1058.864          31.000  
 18  9 27 19 59 10.0000000  0  7G30G28G 8G 7G 5G21G13
  21092695.481     4662581.515       -2373.058          52.000  
  21833826.819    -3741107.252         805.882          43.000  
  25802503.158     -363862.086         160.504          41.000  
  23334279.237     8354098.605       -3475.959          50.000  
  20661027.926     1448962.8423      -1362.708          35.000  
  26006543.686    -1918738.950         473.097          35.000  
  21186209.993    -2492245.4933       1061.762          31.000  
 18  9 27 19 59 11.0000000  0  7G30G28G 8G 7G 5G21G13
  21093146.796     4664954.702       -2373.455          52.000  
  21833673.851    -3741912.959         805.808          43.000  
  25802473.825     -364021.523         159.265          42.000  
  23334940.984     8357574.460       -3475.919          50.000  
  20661286.957     1450325.4542      -1363.189          36.000  
  26006454.027    -1919211.066         471.755          35.000  
  21186008.426    -2493305.1492       1057.783          31.000  
 18  9 27 19 59 12.0000000  0  7G30G28G 8G 7G 5G21G13
  21093598.704     4667328.313       -2374.027          52.000  
  21833521.039    -3742718.051         804.991          43.000  
  25802444.718     -364180.405         158.393          42.000  
  23335602.539     8361050.509       -3476.339          50.000  
  20661546.320     1451688.7642      -1362.936          36.000  
  26006364.612    -1919682.685         470.029          36.000  
  21185806.405    -2494364.4552       1058.260          31.000  
 18  9 27 19 59 13.0000000  0  7G30G28G 8G 7G 5G21G13
  21094050.839     4669702.358       -2373.789          52.000  
  21833367.896    -3743522.593         804.087          43.000  
  25802415.070     -364338.693         158.388          42.000  
  23336264.130     8364526.743       -3475.969          50.000  
  20661806.660     1453052.6882      -1364.391          36.000  
  26006275.459    -1920153.790         470.958          36.000  
  21185604.436    -2495423.4572       1060.361          31.000  
 18  9 27 19 59 14.0000000  0  7G30G28G 8G 7G 5G21G13
  21094502.486     4672076.636       -2374.292          52.000  
  21833214.683    -3744326.694         804.107          43.000  
  25802384.532     -364496.621         157.780          42.000  
  23336925.074     8368002.952       -3476.232          50.000  
  20662067.453     1454417.1402      -1365.310          37.000  
  26006186.131    -1920624.616         470.932          36.000  
  21185402.519    -2496482.2912       1060.603          31.000  
 18  9 27 19 59 15.0000000  0  7G30G28G 8G 7G 5G21G13
  21094954.917     4674451.563       -2375.413          51.000  
  21833061.994    -3745129.989         803.217          43.000  
  25802353.837     -364653.751         157.163          42.000  
  23337586.455     8371479.584       -3476.469          50.000  
  20662327.514     1455782.4412      -1365.173          36.000  
  26006096.367    -1921094.729         468.526          35.000  
  21185200.271    -2497540.6392       1057.773          31.000  
 18  9 27 19 59 16.0000000  0  7G30G28G 8G 7G 5G21G13
  21095406.808     4676826.915       -2375.301          52.000  
  21832909.269    -3745932.720         802.253          43.000  
  25802323.282     -364810.319         156.045          42.000  
  23338247.870     8374956.377       -3476.866          50.000  
  20662588.517     1457148.4302      -1367.664          36.000  
  26006006.952    -1921564.344         470.202          35.000  
  21184999.489    -2498598.7042       1058.788          32.000  
 18  9 27 19 59 17.0000000  0  7G30G28G 8G 7G 5G21G13
  21095858.612     4679202.657       -2375.960          52.000  
  21832756.022    -3746734.887         802.099          43.000  
  25802293.163     -364966.346         155.952          42.000  
  23338909.373     8378433.332       -3476.619          50.000  
  20662849.502     1458515.0802      -1366.133          36.000  
  26005917.502    -1922033.542         468.282          35.000  
  21184798.707    -2499656.5132       1057.744          32.000  
 18  9 27 19 59 18.0000000  0  7G30G28G 8G 7G 5G21G13
  21096310.433     4681578.958       -2376.551          52.000  
  21832603.454    -3747536.327         801.386          43.000  
  25802263.270     -365121.662         155.753          42.000  
  23339571.539     8381910.583       -3477.318          50.000  
  20663110.383     1459882.5162      -1368.455          37.000  
  26005828.663    -1922502.073         469.076          36.000  
  21184597.628    -2500713.7942       1056.100          32.000  
 18  9 27 19 59 19.0000000  0  7G30G28G 8G 7G 5G21G13
  21096763.004     4683955.411       -2376.374          51.000  
  21832450.852    -3748337.453         800.643          43.000  
  25802235.856     -365276.691         155.216          43.000  
  23340233.531     8385387.739       -3476.894          49.000  
  20663372.014     1461249.839       -1368.261          37.000  
  26005739.562    -1922970.368         468.191          36.000  
  21184396.741    -2501771.581        1058.547          32.000  
 18  9 27 19 59 20.0000000  0  7G30G28G 8G 7G 5G21G13
  21097214.302     4686332.008       -2376.678          51.000  
  21832298.756    -3749138.269         800.461          43.000  
  25802207.255     -365431.455         154.455          43.000  
  23340894.876     8388864.796       -3477.249          49.000  
  20663632.668     1462618.073       -1368.149          37.000  
  26005650.252    -1923438.508         468.440          36.000  
  21184195.121    -2502828.873        1056.626          32.000  
 18  9 27 19 59 21.0000000  0  7G30G28G 8G 7G 5G21G13
  21097666.594     4688709.228       -2377.554          51.000  
  21832147.026    -3749938.307         799.238          44.000  
  25802179.213     -365585.454         153.514          44.000  
  23341556.397     8392342.242       -3477.705          49.000  
  20663894.124     1463987.175       -1369.705          38.000  
  26005561.221    -1923905.916         465.950          35.000  
  21183994.235    -2503885.629        1055.466          33.000  
 18  9 27 19 59 22.0000000  0  7G30G28G 8G 7G 5G21G13
  21098118.398     4691086.944       -2378.307          51.000  
  21831995.401    -3750737.673         799.030          44.000  
  25802150.577     -365738.874         152.967          45.000  
  23342217.568     8395819.928       -3477.844          49.000  
  20664154.429     1465356.958       -1368.759          38.000  
  26005472.400    -1924372.824         467.430          35.000  
  21183793.295    -2504942.021        1055.330          33.000  
 18  9 27 19 59 23.0000000  0  7G30G28G 8G 7G 5G21G13
  21098570.376     4693465.148       -2378.441          52.000  
  21831843.131    -3751536.402         798.469          44.000  
  25802120.719     -365891.631         152.864          45.000  
  23342879.333     8399297.861       -3478.297          50.000  
  20664414.996     1466728.0473      -1372.494          38.000  
  26005383.491    -1924839.148         465.562          35.000  
  21183591.658    -2505997.990        1056.966          33.000  
 18  9 27 19 59 24.0000000  0  7G30G28G 8G 7G 5G21G13
  21099023.279     4695843.927       -2378.958          51.000  
  21831691.331    -3752334.382         797.692          44.000  
  25802091.961     -366043.650         152.031          45.000  
  23343540.801     8402776.119       -3478.031          49.000  
  20664675.720     1468099.4382      -1368.730          38.000  
  26005295.105    -1925304.820         466.007          36.000  
  21183390.387    -2507053.519        1056.512          33.000  
 18  9 27 19 59 25.0000000  0  7G30G28G 8G 7G 5G21G13
  21099475.396     4698222.917       -2379.372          51.000  
  21831539.200    -3753132.001         796.785          44.000  
  25802062.488     -366195.336         151.238          45.000  
  23344202.984     8406254.357       -3478.361          49.000  
  20664937.229     1469471.2032      -1372.356          38.000  
  26005207.086    -1925770.225         465.742          36.000  
  21183189.064    -2508109.007        1054.825          32.000  
 18  9 27 19 59 26.0000000  0  7G30G28G 8G 7G 5G21G13
  21099928.177     4700602.117       -2379.444          51.000  
  21831387.488    -3753929.219         797.062          43.000  
  25802033.364     -366346.673         151.155          45.000  
  23344865.202     8409732.552       -3478.027          48.000  
  20665198.581     1470843.4802      -1371.951          37.000  
  26005118.422    -1926235.323         465.305          36.000  
  21182987.654    -2509164.313        1054.652          33.000  
 18  9 27 19 59 27.0000000  0  7G30G28G 8G 7G 5G21G13
  21100381.586     4702981.784       -2379.455          51.000  
  21831235.479    -3754725.827         796.597          43.000  
  25802005.531     -366497.409         150.285          45.000  
  23345527.054     8413210.972       -3478.642          48.000  
  20665459.671     1472216.5042      -1373.542          37.000  
  26005029.757    -1926699.910         465.629          36.000  
  21182786.627    -2510219.342        1053.993          32.000  
 18  9 27 19 59 28.0000000  0  7G30G28G 8G 7G 5G21G13
  21100834.716     4705361.951       -2380.274          50.000  
  21831084.169    -3755521.773         795.690          43.000  
  25801976.842     -366647.523         149.845          44.000  
  23346188.679     8416689.640       -3478.708          47.000  
  20665720.482     1473590.2062      -1372.775          36.000  
  26004941.581    -1927163.945         463.594          35.000  
  21182585.845    -2511273.932        1054.891          32.000  
 18  9 27 19 59 29.0000000  0  7G30G28G 8G 7G 5G21G13
  21101287.060     4707742.534       -2380.478          51.000  
  21830932.317    -3756317.137         795.714          43.000  
  25801948.067     -366797.085         149.501          45.000  
  23346850.566     8420168.497       -3478.641          48.000  
  20665981.485     1474964.5812      -1374.593          36.000  
  26004853.423    -1927627.497         463.939          35.000  
  21182385.691    -2512328.269        1054.492          33.000  
 18  9 27 19 59 30.0000000  0  7G30G28G 8G 7G 5G21G13
  21101739.579     4710123.097       -2380.582          51.000  
  21830780.936    -3757112.359         794.447          43.000  
  25801919.152     -366946.513         149.090          45.000  
  23347512.313     8423647.079       -3478.580          47.000  
  20666242.365     1476339.2012      -1374.686          36.000  
  26004765.352    -1928090.996         464.202          35.000  
  21182185.502    -2513382.716        1054.552          33.000  
 18  9 27 19 59 31.0000000  0  7G30G28G 8G 7G 5G21G13
  21102192.413     4712504.066       -2381.276          51.000  
  21830630.236    -3757907.012         794.243          43.000  
  25801890.464     -367095.408         148.805          45.000  
  23348174.322     8427125.823       -3478.976          48.000  
  20666504.084     1477713.951       -1376.831          36.000  
  26004677.804    -1928554.075         462.221          35.000  
  21181985.261    -2514436.850        1053.652          33.000  
 18  9 27 19 59 32.0000000  0  7G30G28G 8G 7G 5G21G13
  21102645.682     4714885.511       -2382.095          50.000  
  21830479.414    -3758701.013         793.497          43.000  
  25801861.793     -367243.661         148.088          44.000  
  23348836.488     8430604.792       -3479.124          48.000  
  20666765.540     1479089.931       -1374.516          36.000  
  26004589.384    -1929016.522         461.599          36.000  
  21181785.316    -2515490.659        1053.262          34.000  
 18  9 27 19 59 33.0000000  0  7G30G28G 8G 7G 5G21G13
  21103098.812     4717267.329       -2382.069          50.000  
  21830328.190    -3759494.488         793.629          43.000  
  25801833.594     -367391.431         147.567          44.000  
  23349498.532     8434083.898       -3479.118          48.000  
  20667026.997     1480466.507       -1377.343          36.000  
  26004501.923    -1929478.600         460.760          36.000  
  21181585.197    -2516544.218        1053.022          34.000  
 18  9 27 19 59 34.0000000  0  7G30G28G 8G 7G 5G21G13
  21103551.593     4719649.404       -2382.426          51.000  
  21830177.682    -3760287.533         792.929          44.000  
  25801805.726     -367538.803         146.361          44.000  
  23350160.645     8437562.995       -3479.417          48.000  
  20667288.768     1481843.625       -1377.869          36.000  
  26004414.340    -1929940.316         461.925          36.000  
  21181384.520    -2517597.603        1053.350          34.000  
 18  9 27 19 59 35.0000000  0  7G30G28G 8G 7G 5G21G13
  21104004.635     4722031.851       -2382.705          51.000  
  21830026.738    -3761080.047         791.879          44.000  
  25801777.456     -367685.637         146.734          45.000  
  23350823.300     8441042.230       -3479.754          48.000  
  20667551.132     1483221.315       -1379.610          36.000  
  26004326.514    -1930401.627         460.976          36.000  
  21181184.174    -2518650.739        1052.225          34.000  
 18  9 27 19 59 36.0000000  0  7G30G28G 8G 7G 5G21G13
  21104458.288     4724414.722       -2383.341          51.000  
  21829876.334    -3761871.965         791.316          44.000  
  25801749.867     -367831.911         145.982          45.000  
  23351486.094     8444521.651       -3479.771          49.000  
  20667813.618     1484599.729       -1378.717          36.000  
  26004238.879    -1930862.411         459.005          35.000  
  21180983.810    -2519703.528        1051.515          33.000  
 18  9 27 19 59 37.0000000  0  7G30G28G 8G 7G 5G21G13
  21104911.977     4726798.051       -2383.355          51.000  
  21829725.617    -3762663.261         791.046          44.000  
  25801722.610     -367977.584         145.812          45.000  
  23352149.604     8448001.276       -3479.743          49.000  
  20668076.209     1485978.805       -1379.149          36.000  
  26004150.807    -1931322.644         460.189          35.000  
  21180784.145    -2520756.011        1054.205          33.000  
 18  9 27 19 59 38.0000000  0  7G30G28G 8G 7G 5G21G13
  21105365.560     4729181.890       -2383.868          51.000  
  21829575.615    -3763453.871         790.496          45.000  
  25801694.986     -368122.646         144.616          45.000  
  23352812.276     8451481.174       -3479.903          49.000  
  20668338.992     1487358.656       -1380.130          37.000  
  26004062.614    -1931782.296         459.055          34.000  
  21180583.956    -2521808.082        1052.468          33.000  
 18  9 27 19 59 39.0000000  0  7G30G28G 8G 7G 5G21G13
  21105818.899     4731566.125       -2384.555          51.000  
  21829425.525    -3764243.923         789.879          45.000  
  25801666.473     -368267.114         143.579          45.000  
  23353474.389     8454961.206       -3480.657          49.000  
  20668601.774     1488739.121       -1380.659          37.000  
  26003974.700    -1932241.527         457.610          33.000  
  21180383.819    -2522859.918        1051.052          33.000  
 18  9 27 19 59 40.0000000  0  7G30G28G 8G 7G 5G21G13
  21106272.500     4733950.832       -2384.828          51.000  
  21829275.523    -3765033.333         789.578          45.000  
  25801638.640     -368410.988         143.846          45.000  
  23354136.032     8458441.494       -3480.217          49.000  
  20668865.151     1490120.325       -1380.787          37.000  
  26003886.506    -1932700.275         458.822          33.000  
  21180183.526    -2523911.361        1051.836          34.000  
 18  9 27 19 59 41.0000000  0  7G30G28G 8G 7G 5G21G13
  21106726.433     4736335.849       -2385.377          51.000  
  21829125.940    -3765822.287         788.434          45.000  
  25801611.260     -368554.408         142.829          44.000  
  23354797.779     8461921.829       -3480.176          49.000  
  20669128.090     1491502.060       -1382.159          37.000  
  26003797.353    -1933158.534         458.570          32.000  
  21179983.442    -2524962.593        1052.079          34.000  
 18  9 27 19 59 42.0000000  0  7G30G28G 8G 7G 5G21G13
  21107180.330     4738721.314       -2386.125          50.000  
  21828975.973    -3766610.610         787.573          45.000  
  25801583.916     -368697.239         142.293          43.000  
  23355459.962     8465402.372       -3481.159          48.000  
  20669391.048     1492884.499       -1383.413          37.000  
  26003708.706    -1933616.391         455.932          32.000  
  21179783.986    -2526013.480        1049.396          34.000  
 18  9 27 19 59 43.0000000  0  7G30G28G 8G 7G 5G21G13
  21107634.246     4741107.223       -2386.081          50.000  
  21828826.965    -3767398.335         787.002          45.000  
  25801557.426     -368839.492         142.510          44.000  
  23356122.547     8468883.104       -3480.507          48.000  
  20669654.546     1494267.615       -1383.896          36.000  
  26003621.123    -1934073.660         457.308          31.000  
  21179585.123    -2527064.061        1050.175          34.000  
 18  9 27 19 59 44.0000000  0  7G30G28G 8G 7G 5G21G13
  21108088.387     4743493.385       -2386.315          50.000  
  21828677.347    -3768185.615         787.284          45.000  
  25801530.728     -368981.342         141.798          44.000  
  23356784.347     8472363.855       -3480.704          49.000  
  20669917.730     1495651.311       -1384.140          36.000  
  26003533.244    -1934530.604         460.861          31.000  
  21179385.527    -2528114.512        1051.541          34.000  
 18  9 27 19 59 45.0000000  0  7G30G28G 8G 7G 5G21G13
  21108542.826     4745879.827       -2386.722          50.000  
  21828527.485    -3768972.473         786.495          45.000  
  25801503.732     -369122.771         141.240          44.000  
  23357447.717     8475844.625       -3480.763          49.000  
  20670181.246     1497035.450       -1383.915          37.000  
  26003446.115    -1934987.276         457.422          32.000  
  21179185.757    -2529164.773        1049.902          34.000  
 18  9 27 19 59 46.0000000  0  7G30G28G 8G 7G 5G21G13
  21108997.020     4748266.713       -2386.991          51.000  
  21828378.530    -3769758.705         785.943          45.000  
  25801477.068     -369263.623         140.896          44.000  
  23358110.860     8479325.616       -3481.139          50.000  
  20670444.273     1498420.312       -1385.108          36.000  
  26003359.231    -1935443.379         455.929          33.000  
  21178985.900    -2530214.718        1050.327          34.000  
 18  9 27 19 59 47.0000000  0  7G30G28G 8G 7G 5G21G13
  21109451.372     4750654.029       -2387.276          51.000  
  21828229.505    -3770544.357         785.511          45.000  
  25801449.532     -369403.911         140.268          44.000  
  23358773.410     8482806.767       -3480.827          50.000  
  20670706.689     1499805.784       -1386.064          36.000  
  26003272.573    -1935898.970         454.440          34.000  
  21178786.287    -2531264.327        1050.441          34.000  
 18  9 27 19 59 48.0000000  0  7G30G28G 8G 7G 5G21G13
  21109905.828     4753041.678       -2387.465          51.000  
  21828080.655    -3771329.504         785.528          46.000  
  25801422.676     -369543.733         139.234          44.000  
  23359436.623     8486288.000       -3481.033          51.000  
  20670970.554     1501191.894       -1383.729          36.000  
  26003185.950    -1936354.182         454.117          35.000  
  21178586.744    -2532313.739        1049.656          34.000  
 18  9 27 19 59 49.0000000  0  7G30G28G 8G 7G 5G21G13
  21110360.388     4755429.613       -2387.920          52.000  
  21827931.630    -3772114.189         784.807          47.000  
  25801396.448     -369683.110         138.928          45.000  
  23360099.574     8489769.290       -3481.098          52.000  
  20671232.918     1502578.459       -1388.020          36.000  
  26003099.746    -1936809.037         454.510          35.000  
  21178386.851    -2533362.983        1049.804          34.000  
 18  9 27 19 59 50.0000000  0  7G30G28G 8G 7G 5G21G13
  21110814.757     4757818.087       -2388.699          51.000  
  21827783.198    -3772898.172         783.640          46.000  
  25801370.343     -369821.794         138.230          44.000  
  23360762.124     8493250.873       -3481.965          51.000  
  20671496.608     1503965.858       -1387.801          35.000  
  26003014.100    -1937263.265         453.523          36.000  
  21178186.558    -2534411.770        1050.404          33.000  
 18  9 27 19 59 51.0000000  0  7G30G28G 8G 7G 5G21G13
  21111269.998     4760206.909       -2388.978          51.000  
  21827634.679    -3773681.629         783.078          46.000  
  25801344.289     -369959.984         137.572          45.000  
  23361424.360     8496732.562       -3481.887          51.000  
  20671761.119     1505353.903       -1387.472          35.000  
  26002928.402    -1937717.105         453.762          36.000  
  21177985.758    -2535460.338        1048.164          32.000  
 18  9 27 19 59 52.0000000  0  7G30G28G 8G 7G 5G21G13
  21111724.228     4762596.399       -2389.481          51.000  
  21827485.811    -3774464.257         782.341          46.000  
  25801318.132     -370097.361         136.918          45.000  
  23362086.229     8500214.673       -3482.404          51.000  
  20672024.094     1506742.848       -1390.828          35.000  
  26002842.163    -1938170.188         454.122          35.000  
  21177785.203    -2536508.383        1047.603          31.000  
 18  9 27 19 59 53.0000000  0  7G30G28G 8G 7G 5G21G13
  21112179.347     4764986.175       -2389.598          51.000  
  21827337.101    -3775246.412         782.287          46.000  
  25801291.607     -370234.292         137.243          45.000  
  23362748.098     8503696.844       -3481.990          51.000  
  20672288.028     1508132.241       -1389.570          35.000  
  26002756.535    -1938622.915         454.291          36.000  
  21177584.892    -2537556.220        1046.944          30.000  
 18  9 27 19 59 54.0000000  0  7G30G28G 8G 7G 5G21G13
  21112634.204     4767376.218       -2389.884          51.000  
  21827188.250    -3776028.139         781.917          47.000  
  25801265.170     -370370.841         136.281          45.000  
  23363409.444     8507179.017       -3481.885          51.000  
  20672551.579     1509522.232       -1389.895          36.000  
  26002669.999    -1939075.363         451.711          35.000  
  21177384.092    -2538603.910        1047.155          30.000  
 18  9 27 19 59 55.0000000  0  7G30G28G 8G 7G 5G21G13
  21113089.498     4769766.643       -2390.315          51.000  
  21827039.400    -3776809.336         780.611          47.000  
  25801239.798     -370506.863         135.795          45.000  
  23364071.924     8510661.328       -3482.568          51.000  
  20672816.281     1510912.829       -1390.519          36.000  
  26002583.184    -1939527.295         453.013          35.000  
  21177183.554    -2539650.7933       1045.793          29.000  
 18  9 27 19 59 56.0000000  0  7G30G28G 8G 7G 5G21G13
  21113544.634     4772157.648       -2391.250          51.000  
  21826890.968    -3777589.776         779.648          47.000  
  25801214.442     -370642.167         135.188          45.000  
  23364734.352     8514143.978       -3482.874          51.000  
  20673080.582     1512304.220       -1392.411          36.000  
  26002497.050    -1939978.627         451.213          35.000  
  21176983.644    -2540697.7323       1049.080          28.000  
 18  9 27 19 59 57.0000000  0  6G30G28G 8G 7G 5G21
  21113999.649     4774548.892       -2391.929          51.000  
  21826742.572    -3778369.793         779.009          47.000  
  25801188.005     -370777.088         134.196          45.000  
  23365396.692     8517626.646       -3483.167          51.000  
  20673345.843     1513696.148       -1391.207          36.000  
  26002411.370    -1940429.595         451.081          35.000  
 18  9 27 19 59 58.0000000  0  6G30G28G 8G 7G 5G21
  21114454.646     4776940.605       -2392.053          51.000  
  21826594.437    -3779149.187         779.199          47.000  
  25801161.394     -370911.407         134.083          45.000  
  23366059.103     8521109.514       -3482.924          51.000  
  20673610.894     1515088.752       -1392.755          35.000  
  26002326.457    -1940880.052         450.280          36.000  
 18  9 27 19 59 59.0000000  0  6G30G28G 8G 7G 5G21
  21114909.765     4779332.803       -2392.314          51.000  
  21826446.599    -3779927.918         778.478          47.000  
  25801135.480     -371045.102         133.676          45.000  
  23366722.054     8524592.626       -3483.251          51.000  
  20673875.946     1516482.074       -1393.737          35.000  
  26002241.160    -1941329.952         450.951          36.000  
 18  9 27 20  0  0.0000000  0  7G30G28G 8G 7G 5G21G13
  21115365.425     4781725.435       -2392.882          51.000  
  21826298.446    -3780706.056         777.733          47.000  
  25801110.299     -371178.216         132.638          45.000  
  23367385.406     8528075.929       -3483.363          51.000  
  20674141.416     1517876.050       -1393.918          35.000  
  26002155.951    -1941779.356         449.050          36.000  
  21176180.202    -2544882.8683       1043.824          28.000  
 18  9 27 20  0  1.0000000  0  7G30G28G 8G 7G 5G21G13
  21115821.033     4784118.458       -2392.881          51.000  
  21826150.137    -3781483.637         777.729          47.000  
  25801085.154     -371310.795         133.053          45.000  
  23368048.724     8531559.359       -3483.041          51.000  
  20674406.362     1519270.728       -1395.340          35.000  
  26002070.794    -1942228.313         449.338          36.000  
  21175980.833    -2545928.2723       1044.722          28.000  
 18  9 27 20  0  2.0000000  0  6G30G28G 8G 7G 5G21
  21116276.658     4786511.715       -2393.350          51.000  
  21826002.526    -3782260.811         776.820          47.000  
  25801060.200     -371442.990         131.856          45.000  
  23368711.885     8535042.786       -3483.244          52.000  
  20674672.025     1520665.783       -1395.273          35.000  
  26001985.759    -1942676.944         448.663          36.000  
 18  9 27 20  0  3.0000000  0  5G30G28G 8G 7G21
  21116732.196     4788905.429       -2393.772          51.000  
  21825854.914    -3783037.372         776.447          47.000  
  25801035.298     -371574.583         131.129          45.000  
  23369374.766     8538526.421       -3483.458          52.000  
  26001900.340    -1943125.078         448.225          35.000  
 18  9 27 20  0  4.0000000  0  7G30G28G 8G 7G 5G21G13
  21117187.420     4791299.544       -2393.984          51.000  
  21825707.669    -3783813.334         775.729          47.000  
  25801009.891     -371705.610         131.006          45.000  
  23370037.281     8542010.224       -3483.991          52.000  
  20675204.291     1523458.158       -1396.777          36.000  
  26001814.886    -1943572.742         447.184          35.000  
  21175390.789    -2549063.3673       1044.792          29.000  
 18  9 27 20  0  5.0000000  0  7G30G28G 8G 7G 5G21G13
  21117642.748     4793693.974       -2394.520          51.000  
  21825559.814    -3784588.827         775.322          47.000  
  25800985.147     -371836.214         130.265          45.000  
  23370699.656     8545494.090       -3483.927          52.000  
  20675471.088     1524855.182       -1396.721          36.000  
  26001729.118    -1944019.998         447.051          35.000  
  21175190.687    -2550108.0053       1044.578          30.000  
 18  9 27 20  0  6.0000000  0  7G30G28G 8G 7G 5G21G13
  21118098.618     4796088.728       -2394.680          51.000  
  21825412.499    -3785363.822         774.814          48.000  
  25800960.664     -371966.347         130.260          45.000  
  23371362.712     8548978.044       -3483.791          52.000  
  20675737.395     1526252.852       -1397.360          36.000  
  26001644.188    -1944466.888         446.750          35.000  
  21174992.679    -2551152.2862       1041.919          30.000  
 18  9 27 20  0  7.0000000  0  7G30G28G 8G 7G 5G21G13
  21118554.871     4798483.844       -2395.807          51.000  
  21825265.638    -3786138.286         774.243          48.000  
  25800935.379     -372095.980         128.814          45.000  
  23372025.419     8552462.116       -3484.565          52.000  
  20676003.930     1527651.109       -1398.975          36.000  
  26001559.293    -1944913.314         446.827          35.000  
  21174795.474    -2552196.4363       1042.556          30.000  
 18  9 27 20  0  8.0000000  0  7G30G28G 8G 7G 5G21G13
  21119010.200     4800879.442       -2395.653          51.000  
  21825118.480    -3786912.092         773.652          47.000  
  25800909.971     -372224.963         128.794          45.000  
  23372689.051     8555946.420       -3484.452          52.000  
  20676270.290     1529050.013       -1397.955          38.000  
  26001474.450    -1945359.203         447.045          35.000  
  21174592.668    -2553240.0123       1046.116          30.000  
 18  9 27 20  0  9.0000000  0  7G30G28G 8G 7G 5G21G13
  21119466.331     4803275.436       -2396.275          51.000  
  21824971.287    -3787685.294         772.856          47.000  
  25800885.610     -372353.408         128.166          45.000  
  23373352.543     8559430.880       -3484.566          51.000  
  20676536.092     1530450.1623      -1401.068          36.000  
  26001389.118    -1945804.608         447.032          35.000  
  21174397.103    -2554283.4662       1043.953          29.000  
 18  9 27 20  0 10.0000000  0  7G30G28G 8G 7G 5G21G13
  21119922.689     4805671.721       -2396.728          52.000  
  21824824.426    -3788458.056         772.790          48.000  
  25800861.791     -372481.431         127.783          46.000  
  23374015.599     8562915.371       -3484.643          52.000  
  20676802.574     1531850.2852      -1400.300          36.000  
  26001304.886    -1946249.692         445.861          36.000  
  21174195.885    -2555326.7533       1044.246          29.000  
 18  9 27 20  0 11.0000000  0  7G30G28G 8G 7G 5G21G13
  21120378.611     4808068.373       -2397.071          51.000  
  21824676.972    -3789230.274         772.113          47.000  
  25800838.041     -372608.953         127.355          46.000  
  23374678.760     8566399.993       -3484.798          52.000  
  20677069.615     1533251.0032      -1402.000          36.000  
  26001220.654    -1946694.367         442.705          36.000  
  21173996.394    -2556369.6833       1042.526          29.000  
 18  9 27 20  0 12.0000000  0  6G30G28G 8G 7G 5G21
  21120834.742     4810465.440       -2396.900          51.000  
  21824529.762    -3790001.909         771.639          47.000  
  25800813.419     -372735.906         127.059          45.000  
  23375342.182     8569884.796       -3484.417          52.000  
  20677336.062     1534652.4482      -1400.410          36.000  
  26001135.375    -1947138.465         445.024          36.000  
 18  9 27 20  0 13.0000000  0  6G30G28G 8G 7G 5G21
  21121290.629     4812862.744       -2397.197          51.000  
  21824382.761    -3790773.150         771.320          46.000  
  25800789.250     -372862.500         126.263          45.000  
  23376005.151     8573369.578       -3484.713          51.000  
  20677603.155     1536054.3372      -1402.482          35.000  
  26001051.404    -1947582.315         443.172          36.000  
 18  9 27 20  0 14.0000000  0  6G30G28G 8G 7G 5G21
  21121747.092     4815260.631       -2398.046          51.000  
  21824235.167    -3791543.643         770.148          47.000  
  25800764.872     -372988.367         125.493          45.000  
  23376667.910     8576854.697       -3485.312          52.000  
  20677869.672     1537457.0892      -1400.788          35.000  
  26000967.469    -1948025.508         443.518          37.000  
 18  9 27 20  0 15.0000000  0  7G30G28G 8G 7G 5G21G13
  21122203.781     4817659.076       -2398.344          51.000  
  21824088.655    -3792313.401         769.691          46.000  
  25800741.280     -373113.495         125.245          45.000  
  23377331.018     8580340.140       -3484.898          51.000  
  20678136.085     1538860.5242      -1402.951          35.000  
  26000883.551    -1948468.061         441.166          37.000  
  21173204.747    -2560538.5343       1041.914          28.000  
 18  9 27 20  0 16.0000000  0  7G30G28G 8G 7G 5G21G13
  21122660.506     4820057.874       -2398.943          51.000  
  21823941.847    -3793082.650         768.979          46.000  
  25800718.472     -373238.137         124.537          46.000  
  23377993.655     8583825.680       -3485.621          51.000  
  20678402.672     1540264.7412      -1402.585          35.000  
  26000799.790    -1948910.187         442.055          37.000  
  21173007.106    -2561580.0063       1038.493          28.000  
 18  9 27 20  0 17.0000000  0  7G30G28G 8G 7G 5G21G13
  21123117.422     4822456.957       -2398.959          51.000  
  21823795.143    -3793851.438         769.050          46.000  
  25800694.740     -373362.366         123.957          46.000  
  23378656.589     8587311.267       -3485.588          51.000  
  20678669.381     1541669.3582      -1404.538          35.000  
  26000715.941    -1949351.969         441.680          36.000  
  21172809.221    -2562620.5923       1040.728          28.000  
 18  9 27 20  0 18.0000000  0  7G30G28G 8G 7G 5G21G13
  21123573.327     4824856.270       -2399.377          51.000  
  21823648.718    -3794619.826         767.976          46.000  
  25800671.130     -373486.199         123.418          46.000  
  23379318.999     8590796.853       -3485.818          51.000  
  20678936.614     1543074.4682      -1408.320          35.000  
  26000632.285    -1949793.467         441.437          36.000  
  21172615.506    -2563661.6793       1040.618          28.000  
 18  9 27 20  0 19.0000000  0  7G30G28G 8G 7G 5G21G13
  21124030.034     4827255.950       -2399.883          51.000  
  21823501.997    -3795387.681         767.417          46.000  
  25800647.973     -373609.515         123.037          46.000  
  23379982.527     8594282.554       -3485.780          50.000  
  20679203.584     1544479.774       -1405.047          35.000  
  26000548.175    -1950234.524         440.461          37.000  
  21172417.132    -2564702.5323       1041.211          28.000  
 18  9 27 20  0 20.0000000  0  7G30G28G 8G 7G 5G21G13
  21124486.375     4829656.035       -2399.716          51.000  
  21823355.921    -3796154.956         767.472          46.000  
  25800624.573     -373732.300         123.261          46.000  
  23380646.036     8597768.406       -3485.511          50.000  
  20679472.039     1545886.6293      -1405.237          35.000  
  26000464.728    -1950675.086         440.860          37.000  
  21172219.351    -2565743.0743       1039.689          28.000  
 18  9 27 20  0 21.0000000  0  7G30G28G 8G 7G 5G21G13
  21124942.733     4832056.282       -2400.351          51.000  
  21823209.950    -3796921.916         766.267          46.000  
  25800601.207     -373854.814         121.795          46.000  
  23381309.720     8601254.165       -3486.167          50.000  
  20679739.899     1547293.4652      -1409.035          35.000  
  26000381.944    -1951115.428         439.276          38.000  
  21172020.209    -2566783.5653       1040.403          28.000  
 18  9 27 20  0 22.0000000  0  7G30G28G 8G 7G 5G21G13
  21125399.440     4834457.011       -2401.297          51.000  
  21823064.275    -3797688.209         765.365          46.000  
  25800578.591     -373976.662         121.443          46.000  
  23381973.596     8604740.186       -3486.247          50.000  
  20680007.656     1548701.0322      -1407.959          35.000  
  26000299.562    -1951555.186         438.544          38.000  
  21171821.765    -2567823.6493       1039.831          28.000  
 18  9 27 20  0 23.0000000  0  7G30G28G 8G 7G 5G21G13
  21125856.688     4836858.302       -2401.325          51.000  
  21822918.392    -3798453.751         765.619          46.000  
  25800555.924     -374097.807         121.381          46.000  
  23382637.350     8608226.516       -3486.487          50.000  
  20680276.720     1550109.3332      -1409.528          35.000  
  26000216.411    -1951994.324         438.849          38.000  
  21171623.391    -2568863.2873       1040.271          28.000  
 18  9 27 20  0 24.0000000  0  7G30G28G 8G 7G 5G21G13
  21126313.430     4839259.899       -2401.952          50.000  
  21822772.665    -3799218.840         764.797          46.000  
  25800532.575     -374218.510         120.200          46.000  
  23383300.284     8611712.908       -3486.589          50.000  
  20680544.895     1551518.2492      -1408.803          35.000  
  26000132.877    -1952433.074         439.198          38.000  
  21171427.338    -2569902.7573       1038.901          28.000  
 18  9 27 20  0 25.0000000  0  7G30G28G 8G 7G 5G21G13
  21126770.713     4841661.891       -2401.917          51.000  
  21822626.868    -3799983.363         763.953          46.000  
  25800509.663     -374338.660         119.729          46.000  
  23383963.026     8615199.428       -3486.848          49.000  
  20680813.158     1552927.7902      -1410.136          35.000  
  26000048.872    -1952871.384         438.119          37.000  
  21171233.204    -2570941.9743       1038.948          28.000  
 18  9 27 20  0 26.0000000  0  7G30G28G 8G 7G 5G21G13
  21127227.402     4844064.318       -2402.296          51.000  
  21822481.054    -3800747.250         764.531          46.000  
  25800487.117     -374458.221         119.980          46.000  
  23384626.291     8618686.188       -3486.227          49.000  
  20681081.402     1554338.0232      -1409.971          35.000  
  25999965.477    -1953309.168         439.267          37.000  
  21171037.867    -2571980.7773       1039.144          29.000  
 18  9 27 20  0 27.0000000  0  7G30G28G 8G 7G 5G21G13
  21127684.668     4846467.087       -2403.150          51.000  
  21822335.450    -3801510.638         763.118          46.000  
  25800464.607     -374577.287         118.604          46.000  
  23385289.539     8622173.015       -3487.208          49.000  
  20681349.630     1555748.8842      -1410.992          35.000  
  25999882.501    -1953746.565         437.332          37.000  
  21170837.573    -2573019.4213       1038.481          29.000  
 18  9 27 20  0 28.0000000  0  7G30G28G 8G 7G 5G21G13
  21128142.090     4848870.381       -2403.823          51.000  
  21822189.985    -3802273.332         762.420          46.000  
  25800441.276     -374695.709         117.739          47.000  
  23385952.333     8625660.136       -3487.434          48.000  
  20681618.154     1557160.3712      -1412.827          35.000  
  25999799.508    -1954183.328         436.650          37.000  
  21170639.932    -2574057.6283       1037.852          29.000  
 18  9 27 20  0 29.0000000  0  7G30G28G 8G 7G 5G21G13
  21128599.862     4851274.319       -2404.095          51.000  
  21822044.694    -3803035.225         761.433          46.000  
  25800418.835     -374813.335         117.177          47.000  
  23386615.180     8629147.654       -3487.243          48.000  
  20681886.451     1558572.8832      -1413.339          35.000  
  25999716.480    -1954619.408         435.662          38.000  
  21170444.088    -2575095.2963       1037.076          29.000  
 18  9 27 20  0 30.0000000  0  7G30G28G 8G 7G 5G21G13
  21129056.970     4853678.476       -2404.189          51.000  
  21821899.787    -3803796.696         761.660          46.000  
  25800397.161     -374930.583         117.175          47.000  
  23387277.869     8632635.161       -3487.527          48.000  
  20682155.306     1559985.7702      -1414.878          35.000  
  25999633.504    -1955055.177         435.927          38.000  
  21170244.440    -2576132.8353       1036.710          29.000  
 18  9 27 20  0 31.0000000  0  7G30G28G 8G 7G 5G21G13
  21129514.498     4856083.020       -2405.055          51.000  
  21821754.759    -3804557.633         760.235          46.000  
  25800375.837     -375047.294         116.277          47.000  
  23387940.698     8636122.803       -3488.116          47.000  
  20682424.197     1561398.950       -1413.432          34.000  
  25999550.755    -1955490.502         434.007          37.000  
  21170046.642    -2577170.1253       1036.965          30.000  
 18  9 27 20  0 32.0000000  0  7G30G28G 8G 7G 5G21G13
  21129971.868     4858487.988       -2404.979          52.000  
  21821609.887    -3805317.977         760.232          46.000  
  25800353.815     -375163.446         115.979          48.000  
  23388604.871     8639610.597       -3487.812          48.000  
  20682693.035     1562813.163       -1416.523          35.000  
  25999468.251    -1955925.349         434.889          38.000  
  21169849.734    -2578207.1023       1037.095          30.000  
 18  9 27 20  0 33.0000000  0  8G30G28G 8G 7G 5G21G13G 2
  21130429.081     4860893.399       -2405.655          51.000  
  21821464.928    -3806077.703         759.226          46.000  
  25800332.037     -375278.979         115.182          48.000  
  23389268.171     8643098.620       -3487.976          47.000  
  20682962.518     1564228.197       -1413.676          35.000  
  25999385.694    -1956359.654         434.286          38.000  
  21169653.907    -2579243.7103       1035.942          30.000  
  24994823.216     7192972.6813      -3522.508          28.000  
 18  9 27 20  0 34.0000000  0  7G30G28G 8G 7G 5G21G13
  21130887.481     4863299.273       -2406.375          51.000  
  21821320.266    -3806836.792         758.696          45.000  
  25800309.998     -375393.911         114.704          48.000  
  23389931.611     8646586.848       -3488.129          47.000  
  20683231.601     1565644.3213      -1415.826          35.000  
  25999302.753    -1956793.436         433.470          38.000  
  21169457.575    -2580280.0173       1034.706          30.000  
 18  9 27 20  0 35.0000000  0  7G30G28G 8G 7G 5G21G13
  21131345.078     4865705.500       -2406.371          51.000  
  21821175.603    -3807595.356         758.587          45.000  
  25800287.714     -375508.344         114.450          48.000  
  23390594.807     8650075.167       -3488.311          47.000  
  20683501.119     1567060.6052      -1415.815          35.000  
  25999220.266    -1957226.785         433.329          37.000  
  21169258.451    -2581316.0402       1036.539          31.000  
 18  9 27 20  0 36.0000000  0  7G30G28G 8G 7G 5G21G13
  21131802.780     4868112.131       -2407.177          51.000  
  21821031.657    -3808353.339         757.856          45.000  
  25800265.726     -375622.241         113.382          48.000  
  23391258.386     8653563.667       -3488.898          47.000  
  20683770.603     1568477.5072      -1416.816          35.000  
  25999137.185    -1957659.659         432.119          37.000  
  21169067.615    -2582351.7532       1036.577          31.000  
 18  9 27 20  0 37.0000000  0  7G30G28G 8G 7G 5G21G13
  21132260.935     4870519.274       -2406.669          51.000  
  21820887.186    -3809110.648         757.309          45.000  
  25800244.367     -375735.474         113.099          47.000  
  23391922.280     8657052.424       -3488.588          46.000  
  20684040.855     1569895.2252      -1413.698          34.000  
  25999055.047    -1958091.972         432.010          37.000  
  21168865.681    -2583387.1232       1034.358          31.000  
