     2.11           OBSERVATION DATA    M (MIXED)           RINEX VERSION / TYPE
RTKCONV 2.4.2       Liu.TY              20181007 183200 UTC PGM / RUN BY / DATE 
log: C:\Users\time0\Desktop\PVT  Project\DataFile\WalkArou  COMMENT             
format: u-blox                                              COMMENT             
Antenna in CA548                                            COMMENT             
LIU                                                         MARKER NAME         
                                                            MARKER NUMBER       
Liu.TY              Liu.TY                                  OBSERVER / AGENCY   
u-blox              AEK-4T                                  REC # / TYPE / VERS 
                                                            ANT # / TYPE        
        0.0000        0.0000        0.0000                  APPROX POSITION XYZ 
        0.0000        0.0000        0.0000                  ANTENNA: DELTA H/E/N
     1     1                                                WAVELENGTH FACT L1/2
     4    C1    L1    D1    S1                              # / TYPES OF OBSERV 
  2018    10     7    17    56   27.0000000     GPS         TIME OF FIRST OBS   
  2018    10     7    18    30   31.0000000     GPS         TIME OF LAST OBS    
                                                            END OF HEADER       
 18 10  7 17 56 27.0000000  0  6G30G 2G 5G 7G 9G13
  20540263.505      -78484.429         351.012          52.000  
  22572864.025      444174.321       -2174.757          49.000  
  21359052.605     -340855.354        1638.265          53.000  
  21231171.884      364894.958       -1787.234          48.000  
  23314991.863      665233.766       -3216.841          35.000  
  23258922.339     -471037.430        2297.133          44.000  
 18 10  7 17 56 28.0000000  0  6G30G 2G 5G 7G 9G13
  20540196.976      -78834.681         349.628          51.000  
  22573278.322      446350.044       -2176.354          50.000  
  21358741.871     -342492.861        1636.910          52.000  
  21231512.820      366682.639       -1788.599          48.000  
  23315605.334      668451.183       -3218.057          41.000  
  23258484.419     -473333.531        2296.090          46.000  
 18 10  7 17 56 29.0000000  0  7G30G 2G 5G 7G 9G28G13
  20540130.194      -79183.938         349.014          50.000  
  22573691.621      448526.511       -2176.627          48.000  
  21358430.023     -344129.689        1636.630          52.000  
  21231853.006      368471.252       -1788.971          48.000  
  23316219.645      671669.201       -3218.147          39.000  
  24098762.396      -28841.7623       2637.154          35.000  
  23258045.932     -475629.280        2295.642          46.000  
 18 10  7 17 56 30.0000000  0  6G30G 2G 5G 7G 9G13
  20540063.407      -79532.547         348.285          50.000  
  22574104.930      450703.668       -2177.409          48.000  
  21358118.314     -345765.880        1636.048          51.000  
  21232193.385      370260.400       -1789.224          47.000  
  23316833.762      674887.283       -3218.830          41.000  
  23257608.562     -477924.624        2294.939          43.000  
 18 10  7 17 56 31.0000000  0  7G30G 2G 5G 7G 9G28G13
  20539997.531      -79880.606         347.749          51.000  
  22574519.990      452881.189       -2177.513          48.000  
  21357806.358     -347401.811        1635.703          51.000  
  21232534.561      372049.937       -1789.886          47.000  
  23317447.896      678105.468       -3218.127          41.000  
  24097760.341      -34117.6482       2637.503          38.000  
  23257170.998     -480219.930        2295.953          42.000  
 18 10  7 17 56 32.0000000  0  7G30G 2G 5G 7G 9G28G13
  20539931.348      -80228.707         348.287          50.000  
  22574933.603      455058.490       -2177.161          47.000  
  21357494.885     -349037.973        1636.478          51.000  
  21232874.537      373839.333       -1789.506          48.000  
  23318061.533      681323.119       -3217.183          41.000  
  24097255.548      -36756.1172       2639.237          37.000  
  23256734.160     -482515.778        2296.319          43.000  
 18 10  7 17 56 33.0000000  0  7G30G 2G 5G 7G 9G28G13
  20539865.387      -80576.341         347.503          50.000  
  22575347.852      457236.201       -2177.860          47.000  
  21357183.325     -350673.830        1635.632          51.000  
  21233215.287      375629.105       -1790.061          48.000  
  23318674.764      684540.765       -3217.764          41.000  
  24096748.277      -39394.6762       2638.611          36.000  
  23256298.232     -484811.497        2295.887          44.000  
 18 10  7 17 56 34.0000000  0  7G30G 2G 5G 7G 9G28G13
  20539799.327      -80923.123         346.251          51.000  
  22575762.316      459414.719       -2178.924          48.000  
  21356872.202     -352308.918        1635.025          51.000  
  21233556.520      377419.653       -1790.509          48.000  
  23319287.901      687758.827       -3218.643          41.000  
  24096247.165      -42032.9682       2638.201          35.000  
  23255862.214     -487106.711        2295.035          44.000  
 18 10  7 17 56 35.0000000  0  8G30G 2G 5G 6G 7G 9G28G13
  20539733.467      -81269.195         346.034          50.000  
  22576176.964      461593.733       -2178.819          48.000  
  21356561.394     -353943.553        1634.676          51.000  
  24228177.368      862761.7333      -4059.845          30.000  
  21233896.952      379210.784       -1791.323          48.000  
  23319900.214      690977.105       -3218.448          41.000  
  24095743.694      -44670.9852       2638.406          36.000  
  23255424.661     -489401.746        2296.241          44.000  
 18 10  7 17 56 36.0000000  0  7G30G 2G 5G 7G 9G28G13
  20539667.907      -81615.252         345.728          51.000  
  22576591.621      463772.730       -2179.727          46.000  
  21356250.674     -355578.265        1634.308          50.000  
  21234236.995      381001.800       -1791.215          48.000  
  23320511.406      694194.925       -3217.880          41.000  
  24095241.529      -47309.5222       2637.394          33.000  
  23254988.235     -491697.171        2295.036          45.000  
 18 10  7 17 56 37.0000000  0  7G30G 2G 5G 6G 7G 9G13
  20539601.618      -81960.757         345.183          49.000  
  22577006.011      465952.207       -2179.230          46.000  
  21355939.109     -357212.564        1634.424          53.000  
  24229706.695      870879.6903      -4059.533          33.000  
  21234577.552      382793.259       -1791.808          46.000  
  23321123.699      697412.855       -3218.628          39.000  
  23254550.353     -493992.282        2295.866          40.000  
 18 10  7 17 56 38.0000000  0  7G30G 2G 5G 6G 7G 9G13
  20539535.959      -82305.728         345.551          50.000  
  22577419.965      468132.062       -2179.434          46.000  
  21355627.561     -358846.475        1634.285          52.000  
  24230467.385      874939.4273      -4059.077          33.000  
  21234918.437      384585.187       -1791.322          46.000  
  23321736.293      700630.801       -3217.396          38.000  
  23254112.167     -496287.345        2294.575          38.000  
 18 10  7 17 56 39.0000000  0  7G30G 2G 5G 6G 7G 9G13
  20539470.508      -82650.134         343.915          50.000  
  22577834.739      470312.399       -2180.542          45.000  
  21355317.006     -360480.076        1633.509          52.000  
  24231229.597      878999.1043      -4059.694          35.000  
  21235258.967      386377.481       -1792.588          46.000  
  23322348.970      703848.810       -3218.240          38.000  
  23253674.960     -498582.360        2294.494          41.000  
 18 10  7 17 56 40.0000000  0  7G30G 2G 5G 6G 7G 9G13
  20539405.685      -82993.913         344.034          49.000  
  22578249.531      472493.305       -2180.059          38.000  
  21355005.856     -362113.159        1633.527          52.000  
  24232005.137      883058.7602      -4059.344          34.000  
  21235599.918      388170.266       -1792.316          45.000  
  23322960.793      707066.880       -3217.514          38.000  
  23253240.731     -500877.048        2295.747          42.000  
 18 10  7 17 56 41.0000000  0  7G30G 2G 5G 6G 7G 9G13
  20539340.159      -83337.920         343.615          50.000  
  22578664.285      474673.719       -2180.682          48.000  
  21354694.535     -363746.682        1633.325          51.000  
  24232776.816      887117.7943      -4059.037          28.000  
  21235942.041      389962.937       -1792.411          45.000  
  23323572.946      710284.488       -3217.135          39.000  
  23252804.243     -503172.673        2295.751          44.000  
 18 10  7 17 56 42.0000000  0  8G30G 2G 5G 6G 7G 9G28G13
  20539275.133      -83681.088         343.195          50.000  
  22579079.191      476854.854       -2180.299          43.000  
  21354383.241     -365379.471        1633.491          52.000  
  24233562.813      891176.9593      -4059.356          34.000  
  21236282.599      391756.118       -1793.349          47.000  
  23324184.799      713502.189       -3217.681          37.000  
  24092232.289      -63141.0342       2638.672          39.000  
  23252367.542     -505467.650        2297.486          39.000  
 18 10  7 17 56 43.0000000  0  8G30G 2G 5G 6G 7G 9G28G13
  20539210.441      -84024.055         342.737          52.000  
  22579493.834      479035.893       -2181.152          46.000  
  21354074.372     -367012.524        1632.517          51.000  
  24234354.410      895236.0413      -4058.999          36.000  
  21236624.198      393549.566       -1793.574          49.000  
  23324798.769      716721.4343      -3216.941          37.000  
  24091731.274      -65779.6092       2640.176          35.000  
  23251930.301     -507763.252        2295.003          43.000  
 18 10  7 17 56 44.0000000  0  8G30G 2G 5G 6G 7G 9G28G13
  20539144.132      -84367.095         343.038          51.000  
  22579908.519      481217.049       -2181.002          47.000  
  21353764.637     -368645.478        1632.909          50.000  
  24235117.612      899294.3182      -4056.852          33.000  
  21236967.195      395342.777       -1793.335          50.000  
  23325404.634      719938.3993      -3217.200          39.000  
  24091230.158      -68419.1122       2641.062          33.000  
  23251492.974     -510058.865        2295.828          42.000  
 18 10  7 17 56 45.0000000  0  7G30G 2G 5G 6G 7G 9G13
  20539079.368      -84709.681         342.448          51.000  
  22580323.025      483398.477       -2181.796          45.000  
  21353454.313     -370278.363        1632.616          52.000  
  24235890.386      903352.4632      -4058.583          31.000  
  21237308.687      397136.200       -1794.311          51.000  
  23326022.313      723155.1663      -3217.902          39.000  
  23251055.447     -512354.882        2296.056          44.000  
 18 10  7 17 56 46.0000000  0  8G30G 2G 5G 6G 7G 9G28G13
  20539014.800      -85051.337         342.196          49.000  
  22580738.828      485580.806       -2181.757          44.000  
  21353143.774     -371910.365        1632.446          50.000  
  24236659.605      907410.8982      -4057.437          34.000  
  21237649.946      398930.383       -1793.898          52.000  
  23326635.012      726372.5152      -3216.279          43.000  
  24090226.672      -73698.0283       2639.670          33.000  
  23250619.368     -514649.977        2296.096          39.000  
 18 10  7 17 56 47.0000000  0  7G30G 2G 5G 6G 7G 9G13
  20538949.455      -85393.040         341.034          50.000  
  22581153.987      487763.209       -2183.261          46.000  
  21352833.504     -373542.436        1631.247          51.000  
  24237426.830      911469.0222      -4057.902          30.000  
  21237991.080      400724.522       -1794.944          51.000  
  23327233.860      729589.1853      -3215.606          28.000  
  23250183.189     -516945.483        2294.556          41.000  
 18 10  7 17 56 48.0000000  0  7G30G 2G 5G 6G 7G 9G13
  20538884.693      -85734.073         341.435          48.000  
  22581568.889      489946.129       -2182.701          46.000  
  21352522.771     -375173.875        1631.708          50.000  
  24238197.462      915526.9642      -4058.815          31.000  
  21238332.577      402519.316       -1794.819          49.000  
  23327854.734      732806.2173      -3216.615          40.000  
  23249747.202     -519240.525        2296.086          37.000  
 18 10  7 17 56 49.0000000  0  7G30G 2G 5G 6G 7G 9G13
  20538819.665      -86075.210         341.721          48.000  
  22581984.632      492128.779       -2182.207          47.000  
  21352212.349     -376805.670        1632.237          49.000  
  24238968.498      919584.4002      -4055.730          36.000  
  21238673.982      404313.895       -1793.545          46.000  
  23328462.768      736022.8062      -3215.740          45.000  
  23249311.287     -521536.417        2297.141          36.000  
 18 10  7 17 56 50.0000000  0  7G30G 2G 5G 6G 7G 9G13
  20538755.239      -86416.498         340.384          48.000  
  22582400.301      494311.067       -2183.040          46.000  
  21351901.966     -378437.859        1631.711          49.000  
  24239740.240      923641.0832      -4057.206          37.000  
  21239015.417      406108.110       -1795.154          46.000  
  23329077.244      739238.6762      -3216.317          43.000  
  23248875.237     -523832.3413       2297.021          34.000  
 18 10  7 17 56 51.0000000  0  7G30G 2G 5G 6G 7G 9G13
  20538690.922      -86756.682         339.932          51.000  
  22582815.132      496494.145       -2183.191          46.000  
  21351591.463     -380069.228        1630.771          50.000  
  24240514.995      927698.2352      -4057.618          35.000  
  21239356.455      407903.356       -1795.651          48.000  
  23329689.413      742455.1992      -3216.850          44.000  
  23248440.691     -526128.2352       2295.727          44.000  
 18 10  7 17 56 52.0000000  0  6G30G 2G 5G 7G 9G13
  20538624.888      -87096.001         339.501          50.000  
  22583230.853      498677.987       -2183.859          47.000  
  21351281.055     -381699.838        1630.804          47.000  
  21239697.834      409699.560       -1796.114          51.000  
  23330300.075      745672.6782      -3217.178          42.000  
  23248001.762     -528423.7032       2296.034          42.000  
 18 10  7 17 56 53.0000000  0  7G30G 2G 5G 6G 7G 9G13
  20538558.778      -87435.187         338.668          51.000  
  22583646.530      500861.881       -2184.380          47.000  
  21350969.978     -383330.525        1629.934          47.000  
  24242055.352      935811.4623      -4057.907          30.000  
  21240040.628      411495.620       -1796.621          51.000  
  23330911.393      748889.3082      -3216.630          44.000  
  23247564.378     -530719.5662       2295.443          42.000  
 18 10  7 17 56 54.0000000  0  8G30G 2G 5G 6G 7G 9G28G13
  20538495.558      -87773.729         337.841          51.000  
  22584061.496      503046.418       -2185.513          48.000  
  21350660.599     -384960.774        1629.505          49.000  
  24242817.811      939868.7943      -4058.052          32.000  
  21240384.426      413292.116       -1797.239          51.000  
  23331524.986      752106.1092      -3217.752          45.000  
  24086233.275      -94806.3343       2640.957          36.000  
  23247127.599     -533015.0242       2294.725          44.000  
 18 10  7 17 56 55.0000000  0  7G30G 2G 5G 7G 9G28G13
  20538432.246      -88110.620         335.587          52.000  
  22584478.578      505232.796       -2187.621          47.000  
  21350351.327     -386589.380        1626.939          48.000  
  21240726.880      415090.044       -1799.087          50.000  
  23332139.162      755323.807       -3217.992          37.000  
  24085715.252      -97446.2243       2638.811          35.000  
  23246690.240     -535308.8332       2293.965          39.000  
 18 10  7 17 56 56.0000000  0  7G30G 2G 5G 6G 7G 9G13
  20538368.705      -88446.570         336.409          52.000  
  22584894.626      507419.578       -2185.877          47.000  
  21350041.217     -388217.079        1628.328          49.000  
  24244354.564      947986.4513      -4057.831          32.000  
  21241069.233      416889.096       -1798.467          51.000  
  23332748.936      758542.2263      -3217.499          40.000  
  23246253.974     -537602.5172       2295.218          39.000  
 18 10  7 17 56 57.0000000  0  7G30G 2G 5G 6G 7G 9G13
  20538304.268      -88782.590         336.053          52.000  
  22585309.575      509606.299       -2186.547          46.000  
  21349730.952     -389845.185        1628.368          49.000  
  24245129.204      952044.4413      -4057.726          33.000  
  21241410.411      418687.856       -1798.727          51.000  
  23333359.181      761760.0832      -3218.391          40.000  
  23245814.599     -539896.7492       2293.937          36.000  
 18 10  7 17 56 58.0000000  0  7G30G 2G 5G 6G 7G 9G13
  20538240.880      -89118.156         335.261          52.000  
  22585724.993      511793.465       -2187.406          46.000  
  21349421.145     -391473.003        1627.241          49.000  
  24245897.081      956102.2653      -4056.828          32.000  
  21241752.647      420486.898       -1799.137          51.000  
  23333970.840      764977.8932      -3218.132          41.000  
  23245376.852     -542190.8112       2294.319          37.000  
 18 10  7 17 56 59.0000000  0  7G30G 2G 5G 6G 7G 9G13
  20538177.250      -89453.299         334.883          52.000  
  22586140.718      513980.917       -2187.684          45.000  
  21349111.242     -393100.551        1627.473          49.000  
  24246667.700      960160.2043      -4059.707          30.000  
  21242094.931      422286.268       -1799.880          50.000  
  23334582.430      768195.6592      -3217.841          41.000  
  23244939.272     -544484.9602       2294.454          36.000  
 18 10  7 17 57  0.0000000  0  7G30G 2G 5G 6G 7G 9G13
  20538113.531      -89787.969         334.234          52.000  
  22586557.407      516168.712       -2188.255          46.000  
  21348801.335     -394727.794        1626.965          50.000  
  24247436.792      964217.9563      -4059.201          29.000  
  21242437.285      424086.000       -1800.133          50.000  
  23335193.659      771413.4232      -3217.060          40.000  
  23244502.825     -546778.9952       2295.130          36.000  
 18 10  7 17 57  1.0000000  0  7G30G 2G 5G 6G 7G 9G13
  20538049.452      -90122.278         334.292          52.000  
  22586974.241      518356.800       -2187.698          46.000  
  21348492.095     -396354.784        1627.275          50.000  
  24248207.745      968275.7033      -4056.060          29.000  
  21242780.314      425886.001       -1799.804          51.000  
  23335804.894      774631.0592      -3216.742          39.000  
  23244067.001     -549073.543        2294.624          38.000  
 18 10  7 17 57  2.0000000  0  7G30G 2G 5G 6G 7G 9G13
  20537985.558      -90456.873         334.499          51.000  
  22587391.580      520544.877       -2187.306          49.000  
  21348182.042     -397982.132        1627.417          49.000  
  24248999.817      972333.2963      -4056.389          33.000  
  21243122.965      427685.505       -1800.091          45.000  
  23336417.500      777847.6332      -3217.482          43.000  
  23243631.322     -551368.077        2295.036          43.000  
 18 10  7 17 57  3.0000000  0  7G30G 2G 5G 6G 7G 9G13
  20537921.718      -90790.933         333.363          52.000  
  22587809.050      522732.828       -2188.544          48.000  
  21347872.807     -399609.282        1626.353          49.000  
  24249793.195      976389.8083      -4057.155          34.000  
  21243466.311      429485.567       -1800.659          51.000  
  23337031.078      781064.5642      -3217.868          36.000  
  23243197.418     -553662.839        2294.114          41.000  
 18 10  7 17 57  4.0000000  0  7G30G 2G 5G 6G 7G 9G13
  20537858.245      -91123.656         332.196          52.000  
  22588225.733      524922.101       -2189.289          48.000  
  21347563.140     -401235.257        1625.556          49.000  
  24250562.471      980447.3043      -4057.287          37.000  
  21243809.803      431286.806       -1801.668          51.000  
  23337641.800      784282.5323      -3219.207          32.000  
  23242760.416     -555956.779        2292.425          38.000  
 18 10  7 17 57  5.0000000  0  7G30G 2G 5G 6G 7G 9G13
  20537794.689      -91455.324         332.052          52.000  
  22588642.322      527112.289       -2189.770          47.000  
  21347253.752     -402860.317        1625.383          49.000  
  24251333.781      984505.4272      -4057.592          33.000  
  21244152.412      433088.999       -1801.837          51.000  
  23338250.119      787501.0322      -3218.825          31.000  
  23242322.806     -558249.953        2293.593          38.000  
 18 10  7 17 57  6.0000000  0  7G30G 2G 5G 6G 7G 9G13
  20537731.493      -91787.129         331.798          51.000  
  22589059.921      529302.316       -2189.919          47.000  
  21346944.946     -404485.682        1625.498          49.000  
  24252112.026      988562.9572      -4058.451          32.000  
  21244495.206      434890.907       -1801.682          51.000  
  23338861.184      790718.8552      -3218.083          31.000  
  23241886.581     -560543.647        2293.536          40.000  
 18 10  7 17 57  7.0000000  0  6G30G 2G 5G 7G 9G13
  20537668.631      -92118.962         331.551          51.000  
  22589476.052      531492.202       -2190.451          47.000  
  21346634.764     -406111.122        1625.004          49.000  
  21244838.384      436692.742       -1802.104          51.000  
  23339472.928      793936.0702      -3215.602          33.000  
  23241450.134     -562837.742        2293.743          38.000  
 18 10  7 17 57  8.0000000  0  6G30G 2G 5G 7G 9G13
  20537605.474      -92449.822         330.239          52.000  
  22589893.415      533683.014       -2191.430          47.000  
  21346324.970     -407735.769        1623.842          49.000  
  21245181.628      438495.402       -1803.366          51.000  
  23340083.860      797153.7342      -3217.650          34.000  
  23241014.319     -565131.224        2292.857          40.000  
 18 10  7 17 57  9.0000000  0  6G30G 2G 5G 7G 9G13
  20537542.390      -92779.647         329.091          52.000  
  22590310.092      535874.697       -2192.627          47.000  
  21346016.581     -409359.600        1623.151          49.000  
  21245524.457      440298.906       -1804.152          51.000  
  23340694.264      800372.0932      -3221.656          30.000  
  23240579.914     -567424.194        2292.198          41.000  
 18 10  7 17 57 10.0000000  0  7G30G 2G 5G 6G 7G 9G13
  20537479.045      -93109.045         329.495          51.000  
  22590727.019      538066.722       -2191.923          46.000  
  21345707.802     -410983.146        1623.936          49.000  
  24255215.039     1004794.2953      -4057.494          28.000  
  21245867.230      442102.760       -1803.739          51.000  
  23341306.063      803590.3902      -3218.649          30.000  
  23240145.056     -569717.160        2293.520          42.000  
 18 10  7 17 57 11.0000000  0  7G30G 2G 5G 6G 7G 9G13
  20537416.065      -93438.328         329.561          51.000  
  22591143.907      540258.704       -2191.647          47.000  
  21345398.964     -412606.741        1623.915          49.000  
  24255992.062     1008851.5733      -4057.363          28.000  
  21246210.606      443906.646       -1803.623          51.000  
  23341919.453      806808.3222      -3218.436          32.000  
  23239709.305     -572010.436        2293.509          42.000  
 18 10  7 17 57 12.0000000  0  7G30G 2G 5G 6G 7G 9G13
  20537353.251      -93767.423         328.394          51.000  
  22591561.011      542450.805       -2192.837          47.000  
  21345089.920     -414230.271        1623.078          49.000  
  24256765.665     1012908.3333      -4057.095          30.000  
  21246553.636      445710.618       -1804.469          51.000  
  23342533.729      810025.9412      -3217.182          35.000  
  23239273.573     -574303.891        2293.376          42.000  
 18 10  7 17 57 13.0000000  0  8G30G 2G 5G 6G 7G 9G28G13
  20537291.078      -94095.184         327.244          51.000  
  22591977.949      544644.153       -2193.578          47.000  
  21344781.145     -415852.614        1621.864          49.000  
  24257531.285     1016966.2093      -4057.997          30.000  
  21246896.884      447515.843       -1805.504          51.000  
  23343147.058      813244.363       -3219.645          34.000  
  24076661.268     -144940.3033       2637.488          32.000  
  23238837.520     -576596.392        2292.675          43.000  
 18 10  7 17 57 14.0000000  0  8G30G 2G 5G 6G 7G 9G28G13
  20537229.239      -94422.301         326.763          51.000  
  22592395.133      546837.814       -2193.522          46.000  
  21344471.367     -417474.556        1621.620          47.000  
  24258311.092     1021024.2002      -4056.415          29.000  
  21247240.625      449321.646       -1806.008          52.000  
  23343759.773      816463.065       -3217.870          39.000  
  24076162.355     -147578.8412       2639.559          32.000  
  23238399.760     -578888.980        2292.875          40.000  
 18 10  7 17 57 15.0000000  0  8G30G 2G 5G 6G 7G 9G28G13
  20537168.512      -94749.644         327.917          52.000  
  22592811.825      549031.260       -2192.803          45.000  
  21344161.756     -419096.850        1623.341          46.000  
  24259069.103     1025081.2672      -4057.576          31.000  
  21247583.989      451127.054       -1804.849          52.000  
  23344375.375      819681.029       -3216.585          39.000  
  24075667.009     -150218.2262       2639.366          35.000  
  23237962.165     -581182.005        2293.800          45.000  
 18 10  7 17 57 16.0000000  0  8G30G 2G 5G 6G 7G 9G28G13
  20537107.083      -95076.608         326.463          51.000  
  22593229.976      551224.978       -2194.490          46.000  
  21343853.655     -420718.952        1621.824          46.000  
  24259815.246     1029138.0932      -4057.484          36.000  
  21247927.354      452932.704       -1805.952          52.000  
  23344988.168      822898.954       -3217.619          36.000  
  24075159.482     -152857.8242       2638.489          36.000  
  23237527.068     -583475.049        2292.423          45.000  
 18 10  7 17 57 17.0000000  0  8G30G 2G 5G 6G 7G 9G28G13
  20537045.072      -95402.022         324.796          51.000  
  22593647.470      553420.362       -2197.290          46.000  
  21343545.257     -422339.599        1619.907          50.000  
  24260590.099     1033195.4262      -4059.755          34.000  
  21248270.615      454739.708       -1807.334          51.000  
  23345601.523      826117.611       -3219.426          40.000  
  24074656.681     -155496.2722       2639.733          33.000  
  23237090.849     -585766.947        2290.626          46.000  
 18 10  7 17 57 18.0000000  0  7G30G 2G 5G 6G 7G 9G13
  20536983.710      -95726.365         324.818          52.000  
  22594066.432      555616.790       -2195.786          50.000  
  21343238.544     -423959.279        1620.330          51.000  
  24261357.001     1037253.8192      -4057.974          36.000  
  21248613.248      456547.570       -1808.110          46.000  
  23346213.439      829337.028       -3220.591          36.000  
  23236654.747     -588057.925        2291.504          45.000  
 18 10  7 17 57 19.0000000  0  7G30G 2G 5G 6G 7G 9G13
  20536921.341      -96050.955         324.638          52.000  
  22594484.812      557812.742       -2196.530          50.000  
  21342931.431     -425579.265        1619.705          52.000  
  24262126.344     1041311.4512      -4058.424          33.000  
  21248956.328      458355.281       -1807.102          47.000  
  23346824.157      832555.688       -3217.114          33.000  
  23236218.072     -590349.572        2291.317          44.000  
 18 10  7 17 57 20.0000000  0  7G30G 2G 5G 7G 9G28G13
  20536859.611      -96375.178         323.194          52.000  
  22594902.306      560008.943       -2197.148          49.000  
  21342623.797     -427199.052        1618.892          52.000  
  21249301.186      460163.230       -1808.510          48.000  
  23347438.124      835774.346       -3219.045          39.000  
  24073145.723     -163411.8453       2637.263          37.000  
  23235780.321     -592641.299        2291.442          42.000  
 18 10  7 17 57 21.0000000  0  7G30G 2G 5G 7G 9G28G13
  20536799.852      -96698.605         323.274          52.000  
  22595320.719      562205.864       -2196.542          50.000  
  21342315.222     -428818.317        1619.393          49.000  
  21249645.917      461971.832       -1808.597          47.000  
  23348053.870      838993.341       -3218.717          41.000  
  24072647.048     -166050.3852       2638.376          39.000  
  23235343.967     -594932.753        2291.842          41.000  
 18 10  7 17 57 22.0000000  0  7G30G 2G 5G 6G 7G 9G13
  20536737.900      -97020.853         321.908          49.000  
  22595739.147      564403.660       -2197.138          48.000  
  21342007.235     -430436.668        1619.072          51.000  
  24264457.460     1053485.5623      -4058.053          31.000  
  21249991.621      463781.401       -1809.823          47.000  
  23348666.913      842212.714       -3219.454          41.000  
  23234907.731     -597223.562        2292.053          40.000  
 18 10  7 17 57 23.0000000  0  6G30G 2G 5G 6G 7G13
  20536674.599      -97343.504         322.546          50.000  
  22596155.125      566600.925       -2197.286          44.000  
  21341699.930     -432055.556        1618.801          52.000  
  24265228.471     1057543.2013      -4056.807          30.000  
  21250334.965      465590.657       -1809.085          52.000  
  23234470.104     -599515.357        2291.177          39.000  
 18 10  7 17 57 24.0000000  0  7G30G 2G 5G 6G 7G 9G13
  20536613.187      -97665.833         321.501          51.000  
  22596572.807      568798.352       -2197.306          45.000  
  21341392.387     -433674.309        1617.987          52.000  
  24266006.524     1061600.2113      -4058.314          31.000  
  21250679.655      467400.111       -1810.615          50.000  
  23349892.331      848651.4123      -3219.448          32.000  
  23234033.770     -601807.207        2292.324          37.000  
 18 10  7 17 57 25.0000000  0  7G30G 2G 5G 6G 7G 9G13
  20536552.448      -97987.725         321.482          51.000  
  22596991.813      570995.784       -2198.386          44.000  
  21341081.668     -435292.889        1618.292          49.000  
  24266771.936     1065656.4173      -4058.340          31.000  
  21251023.304      469210.035       -1809.887          51.000  
  23350498.137      851870.4743      -3218.124          31.000  
  23233597.654     -604099.395        2291.737          41.000  
 18 10  7 17 57 26.0000000  0  6G30G 2G 5G 7G 9G13
  20536491.151      -98309.450         321.857          51.000  
  22597409.866      573193.919       -2198.201          44.000  
  21340773.242     -436911.172        1617.837          50.000  
  21251368.179      471019.691       -1810.000          52.000  
  23351112.790      855088.6513      -3218.770          37.000  
  23233161.623     -606391.100        2291.302          40.000  
 18 10  7 17 57 27.0000000  0  7G30G 2G 5G 6G 7G 9G13
  20536430.464      -98630.883         320.896          51.000  
  22597830.416      575392.567       -2198.932          46.000  
  21340465.554     -438529.119        1618.715          49.000  
  24268289.968     1073769.6333      -4057.558          35.000  
  21251713.053      472829.396       -1809.441          52.000  
  23351733.704      858306.2742      -3219.182          37.000  
  23232727.193     -608682.492        2292.965          41.000  
 18 10  7 17 57 28.0000000  0  6G30G 2G 5G 7G 9G13
  20536369.356      -98952.074         320.984          50.000  
  22598249.110      577590.624       -2195.315          49.000  
  21340158.044     -440147.656        1618.363          48.000  
  21252056.990      474639.473       -1812.228          47.000  
  23352335.625      861524.3663      -3219.257          37.000  
  23232290.325     -610975.165        2295.134          41.000  
 18 10  7 17 57 29.0000000  0  6G30G 2G 5G 7G 9G13
  20536307.837      -99272.715         319.712          50.000  
  22598666.988      579789.021       -2200.200          47.000  
  21339851.262     -441765.553        1616.400          52.000  
  21252401.461      476449.989       -1811.080          51.000  
  23352952.661      864742.4072      -3218.194          39.000  
  23231855.424     -613267.638        2290.104          42.000  
 18 10  7 17 57 30.0000000  0  7G30G 2G 5G 6G 7G28G13
  20536245.804      -99591.891         321.800          50.000  
  22599085.547      581989.391       -2198.010          46.000  
  21339543.454     -443381.752        1618.170          51.000  
  24270635.016     1085940.8943      -4055.867          31.000  
  21252745.287      478261.764       -1810.041          50.000  
  24068127.758     -189795.2433       2642.802          32.000  
  23231417.339     -615557.7553       2295.470          36.000  
 18 10  7 17 57 31.0000000  0  6G30G 2G 5G 7G 9G13
  20536185.904      -99910.403         318.199          50.000  
  22599503.554      584189.658       -2199.460          48.000  
  21339235.992     -444997.851        1616.047          51.000  
  21253091.354      480074.392       -1813.247          49.000  
  23354180.240      871179.6943      -3218.916          40.000  
  23230982.414     -617849.0243       2292.329          36.000  
 18 10  7 17 57 32.0000000  0  7G30G 2G 5G 6G 7G28G13
  20536126.597     -100229.511         319.517          50.000  
  22599923.572      586389.545       -2200.212          45.000  
  21338927.059     -446614.413        1617.005          49.000  
  24272178.836     1094054.2453      -4055.686          42.000  
  21253436.883      481886.233       -1811.001          52.000  
  24067128.628     -195071.3273       2641.003          35.000  
  23230547.648     -620140.4842       2291.889          42.000  
 18 10  7 17 57 33.0000000  0  8G30G 2G 5G 6G 7G 9G28G13
  20536065.973     -100547.405         317.389          51.000  
  22600342.093      588590.787       -2201.219          46.000  
  21338618.609     -448230.124        1615.548          47.000  
  24272924.798     1098110.9783      -4056.849          34.000  
  21253780.995      483698.869       -1813.194          50.000  
  23355410.727      877616.9983      -3218.525          42.000  
  24066630.608     -197710.4873       2639.308          34.000  
  23230112.699     -622431.3942       2290.470          43.000  
 18 10  7 17 57 34.0000000  0  8G30G 2G 5G 6G 7G 9G28G13
  20536005.436     -100864.351         316.864          51.000  
  22600760.648      590792.638       -2201.762          46.000  
  21338310.295     -449844.979        1614.504          48.000  
  24273687.028     1102167.8162      -4056.776          34.000  
  21254126.492      485512.482       -1813.871          50.000  
  23356024.750      880836.2583      -3218.801          39.000  
  24066130.269     -200349.3343       2638.833          34.000  
  23229677.201     -624721.8552       2291.113          44.000  
 18 10  7 17 57 35.0000000  0  8G30G 2G 5G 6G 7G 9G28G13
  20535945.416     -101180.636         316.654          51.000  
  22601179.446      592994.845       -2202.402          45.000  
  21338003.971     -451459.349        1614.396          51.000  
  24274474.868     1106224.6342      -4056.637          42.000  
  21254471.424      487326.777       -1813.995          51.000  
  23356640.273      884055.6692      -3219.055          39.000  
  24065627.480     -202987.9332       2638.838          36.000  
  23229241.386     -627012.1832       2290.384          46.000  
 18 10  7 17 57 36.0000000  0  7G30G 2G 5G 6G 7G 9G13
  20535885.420     -101497.240         316.856          52.000  
  22601598.282      595196.987       -2201.665          47.000  
  21337697.153     -453074.217        1615.410          49.000  
  24275234.476     1110280.8702      -4055.753          34.000  
  21254817.054      489140.401       -1813.708          50.000  
  23357252.636      887274.3882      -3219.448          39.000  
  23228805.294     -629303.0902       2291.745          44.000  
 18 10  7 17 57 37.0000000  0  7G30G 2G 5G 6G 7G 9G13
  20535823.901     -101813.652         315.482          51.000  
  22602018.235      597398.912       -2202.383          46.000  
  21337388.249     -454689.287        1614.257          46.000  
  24276029.585     1114336.6962      -4056.167          40.000  
  21255162.819      490954.186       -1814.512          50.000  
  23357859.191      890492.7252      -3218.811          41.000  
  23228369.313     -631594.5632       2290.720          42.000  
 18 10  7 17 57 38.0000000  0  8G30G 2G 5G 6G 7G 9G28G13
  20535763.063     -102128.246         313.319          50.000  
  22602437.600      599602.660       -2204.826          46.000  
  21337081.976     -456302.429        1612.130          49.000  
  24276809.474     1118393.6172      -4057.775          39.000  
  21255508.488      492769.647       -1816.521          50.000  
  23358471.342      893712.3502      -3220.126          41.000  
  24064117.270     -210904.8722       2638.049          35.000  
  23227933.392     -633884.3462       2289.117          43.000  
 18 10  7 17 57 39.0000000  0  7G30G 2G 5G 6G 7G 9G13
  20535703.706     -102441.539         312.750          51.000  
  22602856.454      601807.659       -2205.188          46.000  
  21336776.178     -457914.526        1611.604          48.000  
  24277576.592     1122451.5272      -4057.229          33.000  
  21255852.556      494586.288       -1817.423          50.000  
  23359083.352      896932.8392      -3220.764          39.000  
  23227498.240     -636173.2832       2289.346          44.000  
 18 10  7 17 57 40.0000000  0  8G30G 2G 5G 6G 7G 9G28G13
  20535643.623     -102754.328         313.273          48.000  
  22603275.852      604012.683       -2204.782          46.000  
  21336468.732     -459526.252        1612.090          50.000  
  24278351.094     1126509.0272      -4057.761          40.000  
  21256199.429      496403.455       -1817.100          49.000  
  23359698.928      900153.3512      -3221.073          37.000  
  24063113.983     -216179.6783       2637.072          39.000  
  23227062.382     -638462.3042       2290.265          42.000  
 18 10  7 17 57 41.0000000  0  7G30G 2G 5G 6G 7G28G13
  20535585.917     -103067.256         313.125          50.000  
  22603695.803      606217.744       -2204.965          47.000  
  21336162.243     -461138.211        1612.075          49.000  
  24279123.009     1130566.1372      -4057.704          36.000  
  21256544.658      498220.422       -1816.395          50.000  
  24062608.507     -218817.5853       2639.133          39.000  
  23226626.268     -640751.7122       2289.981          42.000  
 18 10  7 17 57 42.0000000  0  7G30G 2G 5G 6G 7G28G13
  20535526.028     -103379.476         312.345          49.000  
  22604115.690      608423.470       -2205.108          48.000  
  21335855.557     -462749.605        1611.357          50.000  
  24279900.634     1134623.3752      -4055.842          36.000  
  21256890.578      500037.793       -1817.279          50.000  
  24062128.253     -221455.4852       2638.112          34.000  
  23226190.813     -643040.7942       2289.489          42.000  
 18 10  7 17 57 43.0000000  0  7G30G 2G 5G 6G 7G28G13
  20535466.645     -103690.887         311.462          50.000  
  22604536.066      610629.884       -2207.183          48.000  
  21335549.018     -464360.366        1610.461          50.000  
  24280692.346     1138680.9263      -4057.825          37.000  
  21257236.016      501855.912       -1818.120          50.000  
  24061625.294     -224092.9762       2636.044          36.000  
  23225755.133     -645329.937        2288.594          42.000  
 18 10  7 17 57 44.0000000  0  7G30G 2G 5G 6G 7G28G13
  20535407.986     -104001.925         310.551          49.000  
  22604956.184      612837.048       -2207.467          48.000  
  21335243.907     -465970.835        1610.387          48.000  
  24281432.536     1142738.4273      -4057.341          41.000  
  21257582.028      503673.898       -1818.134          50.000  
  24061108.637     -226730.7022       2637.491          29.000  
  23225318.631     -647618.203        2288.629          42.000  
 18 10  7 17 57 45.0000000  0  7G30G 2G 5G 6G 7G 9G13
  20535348.688     -104313.023         312.351          50.000  
  22605374.025      615043.673       -2205.131          45.000  
  21334937.503     -467581.638        1612.046          47.000  
  24282231.056     1146795.0583      -4055.116          35.000  
  21257928.240      505492.014       -1817.025          50.000  
  23362762.942      916254.5033      -3218.128          39.000  
  23224882.252     -649907.316        2290.378          41.000  
 18 10  7 17 57 46.0000000  0  8G30G 2G 5G 6G 7G 9G28G13
  20535289.311     -104624.284         310.695          50.000  
  22605794.292      617250.059       -2206.994          48.000  
  21334630.785     -469192.494        1610.471          47.000  
  24282955.718     1150851.1462      -4056.637          38.000  
  21258274.334      507309.957       -1818.475          48.000  
  23363373.728      919473.5693      -3218.361          37.000  
  24060172.188     -232007.6253       2638.590          31.000  
  23224447.154     -652196.876        2289.731          42.000  
 18 10  7 17 57 47.0000000  0  7G30G 2G 5G 6G 7G 9G13
  20535230.369     -104934.511         309.583          50.000  
  22606214.364      619457.215       -2207.529          48.000  
  21334323.877     -470802.793        1609.754          49.000  
  24283724.585     1154907.6502      -4055.894          34.000  
  21258621.136      509128.720       -1819.147          47.000  
  23363980.356      922693.1892      -3221.813          33.000  
  23224012.009     -654486.050        2289.066          42.000  
 18 10  7 17 57 48.0000000  0  7G30G 2G 5G 6G 7G 9G13
  20535171.514     -105244.287         309.897          50.000  
  22606634.777      621664.676       -2206.878          48.000  
  21334018.082     -472412.782        1610.787          49.000  
  24284501.002     1158963.9622      -4056.592          34.000  
  21258967.180      510947.875       -1818.502          47.000  
  23364599.968      925912.8942      -3219.896          36.000  
  23223576.947     -656775.243        2290.206          43.000  
 18 10  7 17 57 49.0000000  0  7G30G 2G 5G 6G 7G 9G13
  20535112.667     -105553.995         310.210          50.000  
  22607054.834      623872.009       -2206.994          48.000  
  21333711.462     -474022.826        1610.262          49.000  
  24285278.019     1163019.8362      -4056.407          35.000  
  21259313.030      512766.986       -1818.838          47.000  
  23365213.153      929132.2812      -3219.434          36.000  
  23223142.175     -659064.785        2290.068          44.000  
 18 10  7 17 57 50.0000000  0  7G30G 2G 5G 6G 7G 9G13
  20535054.599     -105863.651         309.239          50.000  
  22607475.020      626079.125       -2207.585          47.000  
  21333405.739     -475633.061        1609.780          49.000  
  24286061.019     1167075.1442      -4055.204          40.000  
  21259658.839      514586.150       -1819.547          47.000  
  23365825.671      932351.2742      -3218.653          41.000  
  23222706.668     -661354.946        2290.172          40.000  
 18 10  7 17 57 51.0000000  0  7G30G 2G 5G 6G 7G 9G13
  20534995.275     -106172.730         308.554          50.000  
  22607895.440      628287.130       -2208.503          47.000  
  21333099.873     -477242.771        1609.104          49.000  
  24286844.510     1171130.5862      -4055.582          33.000  
  21260004.473      516405.534       -1819.840          48.000  
  23366437.473      935570.1452      -3219.544          41.000  
  23222271.385     -663644.490        2289.426          42.000  
 18 10  7 17 57 52.0000000  0  7G30G 2G 5G 6G 7G 9G13
  20534936.590     -106480.649         307.624          50.000  
  22608315.951      630495.952       -2209.440          47.000  
  21332793.275     -478851.443        1608.295          48.000  
  24287621.834     1175186.5972      -4054.371          35.000  
  21260350.897      518226.137       -1820.838          48.000  
  23367050.602      938789.8422      -3219.434          40.000  
  23221836.113     -665933.492        2288.948          42.000  
 18 10  7 17 57 53.0000000  0  7G30G 2G 5G 6G 7G 9G13
  20534878.623     -106788.125         307.224          50.000  
  22608736.235      632705.158       -2209.343          47.000  
  21332486.350     -480459.809        1608.137          48.000  
  24288392.383     1179242.4792      -4056.042          36.000  
  21260697.836      520047.032       -1821.077          48.000  
  23367663.013      942009.4932      -3219.946          38.000  
  23221399.707     -668222.410        2289.325          42.000  
 18 10  7 17 57 54.0000000  0  7G30G 2G 5G 6G 7G 9G13
  20534820.710     -107095.106         306.220          50.000  
  22609156.170      634914.733       -2210.202          47.000  
  21332179.920     -482067.871        1607.547          48.000  
  24289161.314     1183298.3382      -4056.348          36.000  
  21261044.522      521868.312       -1821.400          47.000  
  23368275.583      945229.1942      -3220.624          38.000  
  23220963.825     -670511.287        2288.619          42.000  
 18 10  7 17 57 55.0000000  0  7G30G 2G 5G 6G 7G 9G13
  20534762.221     -107401.138         305.541          50.000  
  22609576.831      637125.112       -2210.582          47.000  
  21331873.867     -483675.187        1606.785          47.000  
  24289930.744     1187354.5642      -4056.232          36.000  
  21261391.504      523690.422       -1822.977          47.000  
  23368887.493      948449.3012      -3222.087          37.000  
  23220527.694     -672799.646        2289.055          43.000  
 18 10  7 17 57 56.0000000  0  7G30G 2G 5G 6G 7G 9G13
  20534704.293     -107706.339         305.296          50.000  
  22609997.901      639336.263       -2210.989          47.000  
  21331568.255     -485281.798        1606.826          48.000  
  24290700.630     1191411.0972      -4056.058          36.000  
  21261738.318      525513.235       -1822.494          47.000  
  23369499.843      951669.8282      -3220.539          37.000  
  23220092.544     -675087.598        2287.913          43.000  
 18 10  7 17 57 57.0000000  0  7G30G 2G 5G 6G 7G 9G13
  20534646.568     -108011.470         305.099          50.000  
  22610419.699      641547.322       -2211.315          47.000  
  21331262.093     -486888.499        1606.692          48.000  
  24291471.086     1195467.1352      -4055.560          36.000  
  21262085.309      527336.013       -1823.173          47.000  
  23370112.167      954889.8982      -3219.643          37.000  
  23219656.631     -677375.871        2288.373          43.000  
 18 10  7 17 57 58.0000000  0  7G30G 2G 5G 6G 7G 9G13
  20534588.508     -108316.443         304.438          50.000  
  22610840.605      643758.448       -2211.301          48.000  
  21330956.740     -488495.196        1606.462          49.000  
  24292241.578     1199522.7712      -4055.388          36.000  
  21262432.326      529158.820       -1823.196          47.000  
  23370724.929      958109.6912      -3220.725          37.000  
  23219220.858     -679664.402        2288.333          43.000  
 18 10  7 17 57 59.0000000  0  7G30G 2G 5G 6G 7G 9G13
  20534530.877     -108620.682         304.051          51.000  
  22611261.798      645970.204       -2212.314          48.000  
  21330651.560     -490101.317        1605.909          49.000  
  24293013.118     1203578.6072      -4055.846          35.000  
  21262779.361      530982.266       -1823.905          47.000  
  23371337.316      961329.6582      -3220.494          37.000  
  23218785.427     -681952.623        2288.677          43.000  
 18 10  7 17 58  0.0000000  0  7G30G 2G 5G 6G 7G 9G13
  20534473.213     -108924.133         303.063          51.000  
  22611682.879      648182.651       -2212.611          48.000  
  21330346.253     -491706.827        1604.969          50.000  
  24293784.583     1207634.7252      -4056.619          35.000  
  21263126.029      532806.360       -1824.549          47.000  
  23371950.793      964550.0292      -3220.712          36.000  
  23218350.472     -684240.508        2287.875          43.000  
 18 10  7 17 58  1.0000000  0  7G30G 2G 5G 6G 7G 9G13
  20534415.771     -109227.224         302.641          50.000  
  22612103.512      650395.332       -2213.003          48.000  
  21330040.320     -493312.068        1605.073          49.000  
  24294555.591     1211690.5612      -4056.246          36.000  
  21263472.772      534630.746       -1824.423          46.000  
  23372564.496      967770.2562      -3221.466          36.000  
  23217915.374     -686528.413        2287.423          43.000  
 18 10  7 17 58  2.0000000  0  7G30G 2G 5G 6G 7G 9G13
  20534358.222     -109529.851         302.434          51.000  
  22612524.415      652608.338       -2213.492          48.000  
  21329734.658     -494917.030        1604.678          49.000  
  24295325.861     1215746.3192      -4055.641          36.000  
  21263820.688      536455.446       -1824.838          46.000  
  23373177.363      970990.4392      -3222.161          34.000  
  23217480.541     -688816.262        2287.739          43.000  
 18 10  7 17 58  3.0000000  0  7G30G 2G 5G 6G 7G 9G13
  20534301.461     -109832.115         302.251          50.000  
  22612945.709      654821.610       -2213.259          48.000  
  21329429.493     -496521.794        1604.732          48.000  
  24296095.509     1219801.8722      -4056.756          35.000  
  21264167.753      538280.380       -1824.725          45.000  
  23373789.872      974210.4562      -3219.914          34.000  
  23217045.335     -691104.153        2288.254          43.000  
 18 10  7 17 58  4.0000000  0  7G30G 2G 5G 6G 7G 9G13
  20534243.385     -110133.636         301.133          51.000  
  22613366.353      657035.528       -2214.095          47.000  
  21329124.291     -498126.045        1604.319          49.000  
  24296866.606     1223857.6762      -4057.059          34.000  
  21264514.955      540105.880       -1825.803          48.000  
  23374402.289      977430.6822      -3220.843          34.000  
  23216610.545     -693391.815        2286.721          43.000  
 18 10  7 17 58  5.0000000  0  7G30G 2G 5G 6G 7G 9G13
  20534185.533     -110434.417         300.856          50.000  
  22613789.286      659249.952       -2214.833          48.000  
  21328819.745     -499729.692        1603.864          48.000  
  24297637.969     1227913.5262      -4054.901          35.000  
  21264861.089      541932.082       -1826.079          51.000  
  23375014.129      980651.3612      -3219.579          37.000  
  23216176.133     -695679.200        2286.917          42.000  
 18 10  7 17 58  6.0000000  0  7G30G 2G 5G 6G 7G 9G13
  20534129.049     -110735.424         300.375          51.000  
  22614209.517      661464.171       -2214.252          47.000  
  21328514.519     -501333.602        1603.936          49.000  
  24298410.891     1231968.7252      -4054.724          37.000  
  21265208.610      543757.989       -1826.317          47.000  
  23375628.113      983871.3132      -3219.633          36.000  
  23215740.460     -697967.017        2288.359          42.000  
 18 10  7 17 58  7.0000000  0  7G30G 2G 5G 6G 7G 9G13
  20534071.997     -111036.129         300.129          51.000  
  22614630.227      663678.572       -2214.608          47.000  
  21328208.881     -502937.428        1603.397          49.000  
  24299182.191     1236023.664       -4055.048          37.000  
  21265556.406      545584.001       -1826.097          47.000  
  23376240.517      987091.009       -3219.892          35.000  
  23215304.377     -700255.047        2287.804          42.000  
 18 10  7 17 58  8.0000000  0  7G30G 2G 5G 6G 7G 9G13
  20534014.990     -111335.952         299.024          51.000  
  22615052.016      665893.707       -2215.661          48.000  
  21327903.639     -504540.511        1602.651          48.000  
  24299952.603     1240078.875       -4054.998          37.000  
  21265904.045      547410.841       -1827.508          47.000  
  23376852.728      990311.137       -3221.576          36.000  
  23214868.710     -702542.602        2286.857          42.000  
 18 10  7 17 58  9.0000000  0  7G30G 2G 5G 6G 7G 9G13
  20533957.692     -111634.745         298.217          50.000  
  22615473.456      668109.778       -2216.218          47.000  
  21327598.681     -506142.765        1602.147          48.000  
  24300724.223     1244134.557       -4056.562          36.000  
  21266252.109      549238.545       -1827.681          45.000  
  23377466.384      993531.808       -3222.060          36.000  
  23214432.629     -704829.541        2286.837          40.000  
 18 10  7 17 58 10.0000000  0  7G30G 2G 5G 6G 7G 9G13
  20533901.051     -111932.766         297.952          49.000  
  22615895.215      670326.536       -2216.754          47.000  
  21327293.979     -507744.379        1601.674          48.000  
  24301495.987     1248190.564       -4055.436          36.000  
  21266600.078      551066.906       -1828.523          45.000  
  23378079.982      996752.809       -3221.445          35.000  
  23213996.887     -707116.124        2286.594          40.000  
 18 10  7 17 58 11.0000000  0  7G30G 2G 5G 6G 7G 9G13
  20533844.257     -112230.835         298.393          50.000  
  22616316.729      672543.087       -2216.210          47.000  
  21326988.772     -509346.182        1602.116          48.000  
  24302267.507     1252245.868       -4054.773          37.000  
  21266947.884      552895.141       -1827.896          45.000  
  23378692.927      999973.241       -3219.884          36.000  
  23213561.861     -709403.187        2287.119          40.000  
 18 10  7 17 58 12.0000000  0  8G30G 2G 5G 6G 7G 9G28G13
  20533787.563     -112528.235         296.449          50.000  
  22616738.543      674760.206       -2218.054          47.000  
  21326684.406     -510947.475        1600.477          48.000  
  24303038.785     1256301.293       -4056.053          38.000  
  21267295.624      554723.902       -1830.176          46.000  
  23379305.849     1003193.847       -3222.096          37.000  
  24047124.447     -300583.3703       2636.326          31.000  
  23213126.888     -711690.007        2286.461          41.000  
 18 10  7 17 58 13.0000000  0  8G30G 2G 5G 6G 7G 9G28G13
  20533731.057     -112823.827         294.760          51.000  
  22617160.886      676979.034       -2219.486          47.000  
  21326379.644     -512547.116        1598.909          48.000  
  24303809.965     1260358.028       -4056.973          39.000  
  21267643.588      556554.357       -1831.279          46.000  
  23379918.792     1006415.833       -3223.070          37.000  
  24046618.820     -303219.6583       2636.786          31.000  
  23212692.206     -713975.395        2285.786          41.000  
 18 10  7 17 58 14.0000000  0  8G30G 2G 5G 6G 7G 9G28G13
  20533675.356     -113118.882         294.298          51.000  
  22617582.900      679198.268       -2219.768          47.000  
  21326075.114     -514146.344        1598.715          47.000  
  24304580.828     1264414.713       -4057.169          37.000  
  21267991.418      558385.242       -1830.872          46.000  
  23380532.106     1009637.845       -3222.082          38.000  
  24046097.591     -305856.1313       2637.081          31.000  
  23212257.545     -716260.681        2284.435          41.000  
 18 10  7 17 58 15.0000000  0  8G30G 2G 5G 6G 7G 9G28G13
  20533619.363     -113413.131         293.733          52.000  
  22618005.612      681418.156       -2220.328          48.000  
  21325771.275     -515745.002        1598.320          48.000  
  24305350.640     1268471.585       -4057.716          39.000  
  21268340.279      560216.789       -1831.261          48.000  
  23381144.744     1012860.184       -3222.852          39.000  
  24045587.094     -308492.4443       2635.564          31.000  
  23211822.493     -718545.630        2284.256          43.000  
 18 10  7 17 58 16.0000000  0  8G30G 2G 5G 6G 7G 9G28G13
  20533562.957     -113706.789         293.215          52.000  
  22618428.869      683638.604       -2220.881          48.000  
  21325467.519     -517343.169        1597.704          48.000  
  24306120.570     1272528.586       -4056.882          39.000  
  21268689.106      562048.779       -1832.531          48.000  
  23381757.175     1016082.572       -3223.275          38.000  
  24045104.194     -311128.7163       2635.791          29.000  
  23211386.851     -720830.298        2284.421          42.000  
 18 10  7 17 58 17.0000000  0  7G30G 2G 5G 6G 7G 9G13
  20533506.682     -113999.688         292.294          52.000  
  22618852.071      685859.672       -2221.248          48.000  
  21325163.431     -518940.692        1597.256          47.000  
  24306891.566     1276585.742       -4057.099          38.000  
  21269037.533      563881.466       -1832.870          48.000  
  23382369.769     1019305.321       -3222.841          39.000  
  23210951.145     -723114.665        2284.533          41.000  
 18 10  7 17 58 18.0000000  0  7G30G 2G 5G 6G 7G 9G13
  20533451.212     -114292.078         292.544          52.000  
  22619274.890      688081.146       -2221.356          48.000  
  21324859.468     -520537.836        1597.465          47.000  
  24307662.266     1280642.896       -4056.570          37.000  
  21269385.983      565714.544       -1832.688          48.000  
  23382981.850     1022528.025       -3222.789          39.000  
  23210515.036     -725398.928        2283.031          41.000  
 18 10  7 17 58 19.0000000  0  7G30G 2G 5G 6G 7G 9G13
  20533395.832     -114584.310         292.364          52.000  
  22619696.149      690302.561       -2221.531          47.000  
  21324556.044     -522135.068        1597.341          46.000  
  24308431.685     1284699.573       -4056.606          37.000  
  21269734.483      567547.670       -1832.710          48.000  
  23383595.564     1025750.522       -3221.938          40.000  
  23210079.707     -727683.541        2285.039          41.000  
 18 10  7 17 58 20.0000000  0  7G30G 2G 5G 6G 7G 9G13
  20533340.150     -114875.922         291.149          51.000  
  22620119.082      692524.615       -2222.382          48.000  
  21324251.581     -523731.843        1596.171          46.000  
  24309202.392     1288756.370       -4055.910          37.000  
  21270083.603      569381.215       -1834.165          49.000  
  23384208.380     1028973.076       -3222.903          40.000  
  23209644.702     -729967.906        2281.947          39.000  
 18 10  7 17 58 21.0000000  0  7G30G 2G 5G 6G 7G 9G13
  20533284.190     -115166.718         290.327          51.000  
  22620543.305      694747.315       -2222.877          48.000  
  21323947.311     -525327.899        1595.201          44.000  
  24309973.366     1292813.471       -4057.354          36.000  
  21270432.994      571215.532       -1834.521          49.000  
  23384820.733     1032195.986       -3222.999          39.000  
  23209209.917     -732251.839        2283.631          39.000  
 18 10  7 17 58 22.0000000  0  7G30G 2G 5G 6G 7G 9G13
  20533228.299     -115457.005         289.958          51.000  
  22620966.418      696970.396       -2223.212          48.000  
  21323643.402     -526923.602        1595.465          45.000  
  24310745.364     1296870.451       -4056.552          36.000  
  21270782.055      573050.184       -1834.874          49.000  
  23385433.309     1035418.934       -3221.932          37.000  
  23208774.850     -734535.664        2284.032          40.000  
 18 10  7 17 58 23.0000000  0  7G30G 2G 5G 6G 7G 9G13
  20533173.265     -115746.805         289.520          51.000  
  22621390.275      699193.882       -2223.468          48.000  
  21323340.455     -528519.075        1594.920          46.000  
  24311518.023     1300927.372       -4056.446          32.000  
  21271131.382      574885.241       -1835.354          50.000  
  23386046.486     1038642.002       -3221.806          34.000  
  23208340.117     -736819.457        2283.886          41.000  
 18 10  7 17 58 24.0000000  0  7G30G 2G 5G 6G 7G 9G13
  20533118.581     -116036.157         288.898          52.000  
  22621813.386      701417.683       -2224.249          48.000  
  21323037.290     -530114.137        1594.850          46.000  
  24312289.996     1304984.176       -4057.269          33.000  
  21271481.102      576720.632       -1835.916          50.000  
  23386659.663     1041864.917       -3222.263          34.000  
  23207905.454     -739103.243        2283.033          41.000  
 18 10  7 17 58 25.0000000  0  7G30G 2G 5G 6G 7G 9G13
  20533064.166     -116324.914         288.940          51.000  
  22622236.727      703641.915       -2224.178          47.000  
  21322734.156     -531708.817        1594.887          46.000  
  24313061.931     1309041.028       -4056.564          33.000  
  21271830.178      578556.523       -1835.904          50.000  
  23387273.164     1045087.925       -3223.122          35.000  
  23207471.050     -741386.873        2284.383          41.000  
 18 10  7 17 58 26.0000000  0  8G30G 2G 5G 6G 7G 9G28G13
  20533008.300     -116613.192         287.366          50.000  
  22622660.078      705866.559       -2225.378          46.000  
  21322430.466     -533303.175        1593.759          45.000  
  24313835.078     1313097.783       -4057.477          35.000  
  21272179.536      580392.786       -1836.907          50.000  
  23387887.471     1048311.008       -3224.101          37.000  
  24040108.410     -337482.8823       2635.957          31.000  
  23207036.876     -743670.412        2282.506          42.000  
 18 10  7 17 58 27.0000000  0  8G30G 2G 5G 6G 7G 9G28G13
  20532953.491     -116900.842         287.848          51.000  
  22623083.352      708091.758       -2224.830          46.000  
  21322127.209     -534897.009        1594.422          46.000  
  24314609.357     1317154.677       -4055.939          36.000  
  21272529.267      582229.569       -1836.389          50.000  
  23388501.101     1051534.224       -3222.349          36.000  
  24039609.046     -340118.3393       2636.880          29.000  
  23206603.055     -745953.700        2284.224          42.000  
 18 10  7 17 58 28.0000000  0  7G30G 2G 5G 6G 7G 9G13
  20532898.618     -117188.463         287.758          51.000  
  22623505.390      710316.746       -2225.324          46.000  
  21321824.217     -536491.007        1594.163          47.000  
  24315383.252     1321210.970       -4056.408          37.000  
  21272878.227      584066.248       -1836.592          50.000  
  23389115.334     1054756.938       -3222.475          39.000  
  23206168.608     -748237.449        2284.112          40.000  
 18 10  7 17 58 29.0000000  0  7G30G 2G 5G 6G 7G 9G13
  20532844.028     -117475.607         286.452          51.000  
  22623927.592      712542.198       -2226.286          46.000  
  21321521.087     -538084.670        1592.490          46.000  
  24316156.125     1325267.240       -4056.152          37.000  
  21273227.736      585903.293       -1837.575          51.000  
  23389729.457     1057979.698       -3223.537          40.000  
  23205734.457     -750521.055        2283.177          41.000  
 18 10  7 17 58 30.0000000  0  7G30G 2G 5G 6G 7G 9G13
  20532789.267     -117761.028         284.378          51.000  
  22624351.481      714769.288       -2228.181          46.000  
  21321218.164     -539676.806        1590.977          47.000  
  24316929.551     1329324.624       -4058.682          37.000  
  21273578.162      587741.877       -1839.350          51.000  
  23390343.124     1061203.669       -3226.241          38.000  
  23205300.490     -752803.349        2282.095          41.000  
 18 10  7 17 58 31.0000000  0  8G30G 2G 5G 6G 7G 9G28G13
  20532734.748     -118045.607         284.001          50.000  
  22624775.927      716997.003       -2228.413          46.000  
  21320915.510     -541268.287        1590.829          47.000  
  24317704.714     1333382.260       -4058.391          38.000  
  21273928.148      589581.206       -1839.727          51.000  
  23390956.803     1064428.047       -3223.896          38.000  
  24037604.701     -350657.2273       2634.042          34.000  
  23204866.468     -755085.352        2281.911          42.000  
 18 10  7 17 58 32.0000000  0  8G30G 2G 5G 6G 7G 9G28G13
  20532681.232     -118329.796         284.560          50.000  
  22625199.198      719224.990       -2227.620          45.000  
  21320612.980     -542859.451        1591.616          48.000  
  24318480.435     1337439.787       -4056.518          39.000  
  21274278.505      591420.860       -1839.750          51.000  
  23391570.368     1067652.282       -3223.808          39.000  
  24037067.116     -353291.8503       2636.100          35.000  
  23204433.197     -757367.335        2282.435          42.000  
 18 10  7 17 58 33.0000000  0  8G30G 2G 5G 6G 7G 9G28G13
  20532626.969     -118613.568         283.206          50.000  
  22625621.318      721453.319       -2228.666          43.000  
  21320309.512     -544450.300        1590.292          46.000  
  24319253.082     1341497.218       -4057.442          39.000  
  21274628.774      593260.832       -1840.315          51.000  
  23392184.269     1070876.516       -3224.440          40.000  
  24036521.422     -355926.5172       2635.535          34.000  
  23204000.182     -759649.192        2281.643          42.000  
 18 10  7 17 58 34.0000000  0  8G30G 2G 5G 6G 7G 9G28G13
  20532572.585     -118896.234         281.875          50.000  
  22626045.088      723682.411       -2229.086          44.000  
  21320006.465     -546040.388        1589.601          48.000  
  24320027.754     1345555.033       -4057.632          37.000  
  21274979.716      595101.754       -1841.583          51.000  
  23392797.277     1074101.437       -3225.836          40.000  
  24036024.339     -358560.6302       2633.313          35.000  
  23203566.909     -761930.774        2281.493          45.000  
 18 10  7 17 58 35.0000000  0  8G30G 2G 5G 6G 7G 9G28G13
  20532520.099     -119178.224         282.582          50.000  
  22626470.607      725912.434       -2229.276          45.000  
  21319702.853     -547629.790        1589.830          49.000  
  24320821.078     1349613.0863      -4057.677          37.000  
  21275329.708      596943.163       -1840.774          51.000  
  23393409.163     1077326.367       -3224.281          40.000  
  24035537.838     -361194.5103       2633.779          36.000  
  23203132.569     -764211.618        2281.642          44.000  
 18 10  7 17 58 36.0000000  0  8G30G 2G 5G 6G 7G 9G28G13
  20532465.792     -119460.348         282.859          50.000  
  22626895.200      728142.114       -2228.738          47.000  
  21319401.457     -549219.338        1590.165          48.000  
  24321571.549     1353670.5133      -4056.806          40.000  
  21275680.008      598784.425       -1840.859          50.000  
  23394024.736     1080550.822       -3223.817          41.000  
  24035024.089     -363829.0013       2644.514          27.000  
  23202699.570     -766492.984        2282.225          41.000  
 18 10  7 17 58 37.0000000  0  8G30G 2G 5G 6G 7G 9G28G13
  20532412.569     -119742.600         281.768          50.000  
  22627320.802      730371.460       -2229.669          48.000  
  21319100.035     -550809.260        1589.624          47.000  
  24322333.201     1357727.1533      -4056.490          38.000  
  21276030.520      600625.527       -1841.322          49.000  
  23394641.261     1083774.636       -3224.229          40.000  
  24034518.975     -366464.2043       2635.395          29.000  
  23202265.147     -768775.042        2282.046          43.000  
 18 10  7 17 58 38.0000000  0  8G30G 2G 5G 6G 7G 9G28G13
  20532359.287     -120023.888         281.240          50.000  
  22627746.168      732601.768       -2229.974          48.000  
  21318797.998     -552398.419        1589.250          48.000  
  24323097.208     1361784.3172      -4056.360          38.000  
  21276380.375      602467.293       -1841.734          49.000  
  23395256.318     1086998.929       -3223.962          40.000  
  24034008.807     -369098.8183       2634.560          30.000  
  23201830.619     -771056.551        2281.379          43.000  
 18 10  7 17 58 39.0000000  0  8G30G 2G 5G 6G 7G 9G28G13
  20532305.957     -120304.165         280.021          50.000  
  22628171.055      734832.926       -2231.770          48.000  
  21318496.052     -553986.812        1588.244          48.000  
  24323875.047     1365841.8942      -4057.077          38.000  
  21276731.246      604309.965       -1842.361          50.000  
  23395870.086     1090223.748       -3225.037          40.000  
  24033506.273     -371732.8633       2633.895          29.000  
  23201396.148     -773337.455        2280.275          42.000  
 18 10  7 17 58 40.0000000  0  8G30G 2G 5G 6G 7G 9G28G13
  20532251.876     -120585.150         281.103          50.000  
  22628594.550      737063.316       -2229.870          47.000  
  21318194.342     -555576.037        1589.769          48.000  
  24324654.900     1369898.1852      -4054.889          37.000  
  21277082.238      606151.827       -1841.618          50.000  
  23396482.632     1093447.402       -3222.979          40.000  
  24033004.285     -374368.0833       2635.858          30.000  
  23200961.764     -775619.444        2283.277          42.000  
 18 10  7 17 58 41.0000000  0  8G30G 2G 5G 6G 7G 9G28G13
  20532199.164     -120865.222         279.556          50.000  
  22629018.776      739294.366       -2231.023          47.000  
  21317891.389     -557164.484        1588.321          47.000  
  24325425.922     1373954.8152      -4057.237          37.000  
  21277432.976      607994.532       -1843.228          50.000  
  23397096.435     1096671.452       -3224.339          40.000  
  24032503.405     -377002.9903       2635.283          30.000  
  23200528.049     -777901.063        2282.737          43.000  
 18 10  7 17 58 42.0000000  0  8G30G 2G 5G 6G 7G 9G28G13
  20532145.262     -121144.335         278.772          50.000  
  22629443.786      741526.117       -2232.748          47.000  
  21317589.684     -558752.194        1587.188          49.000  
  24326201.009     1378011.6732      -4056.957          35.000  
  21277784.313      609838.076       -1844.122          51.000  
  23397707.664     1099896.032       -3224.336          37.000  
  24032002.394     -379637.3773       2633.131          34.000  
  23200093.862     -780182.372        2280.711          48.000  
 18 10  7 17 58 43.0000000  0  8G30G 2G 5G 6G 7G 9G28G13
  20532092.575     -121422.649         277.984          50.000  
  22629868.719      743758.671       -2232.984          48.000  
  21317288.135     -560339.112        1587.124          49.000  
  24326976.248     1382068.8962      -4056.793          34.000  
  21278135.322      611682.407       -1844.571          51.000  
  23398319.159     1103121.109       -3225.166          40.000  
  24031501.354     -382271.4762       2633.245          31.000  
  23199659.572     -782463.002        2280.827          47.000  
 18 10  7 17 58 44.0000000  0  8G30G 2G 5G 6G 7G 9G28G13
  20532040.052     -121701.168         278.762          51.000  
  22630293.370      745991.041       -2232.442          47.000  
  21316985.858     -561926.433        1587.506          49.000  
  24327751.964     1386125.3862      -4056.477          37.000  
  21278485.622      613526.315       -1843.676          51.000  
  23398931.480     1106345.282       -3223.808          40.000  
  24030998.923     -384906.2563       2639.194          32.000  
  23199225.755     -784744.235        2280.766          46.000  
 18 10  7 17 58 45.0000000  0  8G30G 2G 5G 6G 7G 9G28G13
  20531987.475     -121979.161         277.213          50.000  
  22630717.903      748223.760       -2233.587          47.000  
  21316684.687     -563513.381        1586.150          49.000  
  24328527.703     1390181.8572      -4057.441          37.000  
  21278836.860      615370.626       -1844.964          51.000  
  23399544.720     1109569.533       -3223.294          39.000  
  24030496.442     -387541.0293       2634.736          33.000  
  23198792.523     -787025.369        2279.855          46.000  
 18 10  7 17 58 46.0000000  0  8G30G 2G 5G 6G 7G 9G28G13
  20531934.917     -122256.186         277.018          50.000  
  22631142.720      750457.293       -2233.509          47.000  
  21316382.421     -565099.549        1586.140          48.000  
  24329303.590     1394238.8012      -4056.684          37.000  
  21279188.021      617215.754       -1845.468          51.000  
  23400158.309     1112794.248       -3225.776          40.000  
  24029993.601     -390175.3812       2636.446          32.000  
  23198358.244     -789305.991        2280.208          46.000  
 18 10  7 17 58 47.0000000  0  8G30G 2G 5G 6G 7G 9G28G13
  20531882.137     -122532.377         275.764          50.000  
  22631567.973      752691.626       -2234.795          47.000  
  21316080.696     -566685.052        1585.054          48.000  
  24330078.739     1398295.9692      -4057.971          37.000  
  21279538.906      619061.578       -1846.279          51.000  
  23400772.518     1116019.309       -3226.268          40.000  
  24029491.056     -392809.2793       2631.643          30.000  
  23197923.648     -791586.116        2279.411          47.000  
 18 10  7 17 58 48.0000000  0  8G30G 2G 5G 6G 7G 9G28G13
  20531830.201     -122808.116         275.570          50.000  
  22631993.691      754926.315       -2233.854          45.000  
  21315779.003     -568270.224        1585.063          46.000  
  24330870.209     1402353.0183      -4056.942          35.000  
  21279890.115      620907.717       -1846.298          50.000  
  23401387.662     1119244.251       -3225.067          40.000  
  24028990.154     -395443.2952       2633.936          32.000  
  23197488.874     -793866.175        2280.656          44.000  
 18 10  7 17 58 49.0000000  0  8G30G 2G 5G 6G 7G 9G28G13
  20531777.808     -123083.558         275.299          51.000  
  22632419.175      757161.016       -2233.944          48.000  
  21315476.809     -569855.262        1585.086          50.000  
  24331623.208     1406409.9273      -4055.568          33.000  
  21280242.067      622754.218       -1846.608          50.000  
  23402000.361     1122469.430       -3224.379          39.000  
  24028490.467     -398077.2563       2634.385          33.000  
  23197055.860     -796146.467        2281.047          46.000  
 18 10  7 17 58 50.0000000  0  8G30G 2G 5G 6G 7G 9G28G13
  20531725.019     -123358.438         274.607          49.000  
  22632843.909      759396.238       -2235.853          46.000  
  21315175.023     -571439.694        1583.523          50.000  
  24332357.225     1410466.4773      -4056.850          35.000  
  21280593.656      624601.043       -1847.178          51.000  
  23402613.649     1125694.281       -3223.837          40.000  
  24027992.201     -400711.3513       2632.713          32.000  
  23196622.124     -798426.568        2279.062          45.000  
 18 10  7 17 58 51.0000000  0  7G30G 2G 5G 6G 7G 9G13
  20531673.199     -123632.507         273.402          51.000  
  22633268.575      761632.408       -2236.628          46.000  
  21314873.237     -573023.605        1584.183          49.000  
  24333144.328     1414523.6702      -4058.328          37.000  
  21280945.149      626448.401       -1848.258          51.000  
  23403228.461     1128919.3963      -3225.384          32.000  
  23196185.419     -800706.073        2280.040          41.000  
 18 10  7 17 58 52.0000000  0  8G30G 2G 5G 6G 7G 9G28G13
  20531620.975     -123905.913         272.992          50.000  
  22633692.795      763868.588       -2236.066          43.000  
  21314571.503     -574607.268        1582.963          45.000  
  24333913.634     1418580.5732      -4057.445          37.000  
  21281296.487      628296.571       -1848.147          49.000  
  23403841.869     1132144.9792      -3225.022          33.000  
  24026990.329     -405978.8813       2633.830          34.000  
  23195752.638     -802986.015        2279.181          40.000  
 18 10  7 17 58 53.0000000  0  8G30G 2G 5G 6G 7G 9G28G13
  20531568.238     -124178.900         272.367          50.000  
  22634119.249      766105.426       -2236.196          42.000  
  21314269.555     -576190.518        1582.283          46.000  
  24334688.788     1422637.7092      -4055.444          36.000  
  21281648.258      630144.826       -1849.267          51.000  
  23404454.038     1135369.7073      -3226.893          28.000  
  24026488.221     -408612.5163       2632.898          34.000  
  23195319.650     -805265.390        2279.679          46.000  
 18 10  7 17 58 54.0000000  0  8G30G 2G 5G 6G 7G 9G28G13
  20531516.923     -124452.211         272.181          51.000  
  22634547.249      768342.158       -2239.245          41.000  
  21313969.030     -577773.849        1582.489          48.000  
  24335449.975     1426694.1002      -4056.465          38.000  
  21281999.600      631992.693       -1848.562          50.000  
  23405067.537     1138594.4233      -3224.850          38.000  
  24025974.944     -411247.0293       2631.259          31.000  
  23194885.953     -807545.122        2278.835          43.000  
 18 10  7 17 58 55.0000000  0  8G30G 2G 5G 6G 7G 9G28G13
  20531464.586     -124724.015         271.441          51.000  
  22634970.286      770579.962       -2237.270          39.000  
  21313667.743     -579356.170        1581.978          47.000  
  24336223.932     1430751.1502      -4057.491          36.000  
  21282351.342      633841.920       -1849.465          51.000  
  23405681.246     1141819.8583      -3225.284          38.000  
  24025479.280     -413880.6773       2633.224          30.000  
  23194451.890     -809824.221        2278.592          42.000  
 18 10  7 17 58 56.0000000  0  7G30G 2G 5G 6G 7G 9G13
  20531413.468     -124994.535         269.495          50.000  
  22635396.776      772818.840       -2240.077          46.000  
  21313366.024     -580937.491        1580.673          47.000  
  24336996.891     1434808.8862      -4057.858          37.000  
  21282703.208      635692.335       -1851.224          51.000  
  23406289.733     1145046.1082      -3226.648          33.000  
  23194017.901     -812102.700        2277.636          40.000  
 18 10  7 17 58 57.0000000  0  6G30G 2G 5G 6G 7G13
  20531362.035     -125264.658         270.515          49.000  
  22635824.685      775058.094       -2238.947          46.000  
  21313064.720     -582518.390        1581.500          49.000  
  24337767.449     1438866.8172      -4057.628          34.000  
  21283054.848      637542.894       -1850.673          51.000  
  23193584.143     -814380.805        2279.389          38.000  
 18 10  7 17 58 58.0000000  0  6G30G 2G 5G 7G 9G13
  20531310.289     -125534.721         268.972          49.000  
  22636251.893      777297.183       -2240.845          47.000  
  21312763.542     -584099.582        1580.092          46.000  
  21283407.438      639393.620       -1851.445          51.000  
  23407518.588     1151497.8883      -3226.765          32.000  
  23193152.250     -816659.651        2276.358          41.000  
 18 10  7 17 58 59.0000000  0  8G30G 2G 5G 6G 7G 9G28G13
  20531258.928     -125804.270         268.677          49.000  
  22636677.196      779536.751       -2241.037          48.000  
  21312463.017     -585679.948        1579.843          49.000  
  24339309.741     1446979.9193      -4057.545          34.000  
  21283759.566      641244.756       -1851.315          50.000  
  23408133.966     1154723.9233      -3225.018          30.000  
  24023476.547     -424412.5523       2635.162          27.000  
  23192717.908     -818937.826        2277.550          43.000  
 18 10  7 17 59  0.0000000  0  7G30G 2G 5G 6G 7G28G13
  20531207.535     -126072.804         268.675          47.000  
  22637104.918      781777.051       -2240.701          46.000  
  21312162.435     -587260.003        1579.865          51.000  
  24340066.116     1451037.7473      -4058.242          30.000  
  21284112.211      643096.607       -1851.877          49.000  
  24022975.656     -427045.3003       2626.817          28.000  
  23192284.344     -821216.067        2277.848          46.000  
 18 10  7 17 59  1.0000000  0  8G30G 2G 5G 6G 7G 9G28G13
  20531157.737     -126341.571         268.506          49.000  
  22637531.105      784017.322       -2239.953          48.000  
  21311861.534     -588840.001        1580.005          50.000  
  24340855.433     1455094.8353      -4056.224          36.000  
  21284464.273      644948.173       -1851.630          49.000  
  23409358.677     1161175.9562      -3225.481          37.000  
  24022473.187     -429679.0153       2633.777          32.000  
  23191849.938     -823494.323        2278.972          47.000  
 18 10  7 17 59  2.0000000  0  7G30G 2G 5G 6G 7G 9G13
  20531107.109     -126610.266         267.807          51.000  
  22637957.266      786257.8833      -2242.525          47.000  
  21311561.648     -590420.176        1579.819          52.000  
  24341628.639     1459151.0202      -4056.691          38.000  
  21284816.467      646799.652       -1852.367          50.000  
  23409974.888     1164401.2582      -3227.083          37.000  
  23191416.695     -825773.230        2278.433          45.000  
 18 10  7 17 59  3.0000000  0  8G30G 2G 5G 6G 7G 9G28G13
  20531056.604     -126878.146         268.026          50.000  
  22638382.735      788498.5712      -2241.120          49.000  
  21311261.936     -591999.788        1579.566          52.000  
  24342392.695     1463207.3532      -4056.376          35.000  
  21285169.099      648651.995       -1852.012          48.000  
  23410586.932     1167627.0562      -3224.344          37.000  
  24021471.885     -434946.6233       2633.533          35.000  
  23190983.302     -828051.833        2278.091          44.000  
 18 10  7 17 59  4.0000000  0  8G30G 2G 5G 6G 7G 9G28G13
  20531005.566     -127144.948         266.679          50.000  
  22638810.021      790740.2032      -2241.551          49.000  
  21310961.133     -593578.514        1578.813          51.000  
  24343155.112     1467264.2333      -4055.268          30.000  
  21285521.397      650505.236       -1853.091          50.000  
  23411200.179     1170853.4212      -3227.183          34.000  
  24020983.037     -437579.4793       2633.211          34.000  
  23190549.771     -830329.726        2278.843          42.000  
 18 10  7 17 59  5.0000000  0  7G30G 2G 5G 6G 7G28G13
  20530954.727     -127411.111         265.658          50.000  
  22639237.575      792982.4352      -2242.509          49.000  
  21310661.018     -595156.736        1577.995          51.000  
  24343923.827     1471321.5352      -4056.603          31.000  
  21285874.698      652358.902       -1853.818          50.000  
  24020477.101     -440212.1993       2631.735          32.000  
  23190116.196     -832607.396        2275.842          40.000  
 18 10  7 17 59  6.0000000  0  8G30G 2G 5G 6G 7G 9G28G13
  20530904.179     -127677.313         265.765          50.000  
  22639664.298      795224.5322      -2242.597          49.000  
  21310361.212     -596735.112        1577.973          49.000  
  24344703.941     1475377.9952      -4057.695          37.000  
  21286227.888      654212.534       -1853.584          50.000  
  23412593.546     1177306.5053      -3226.694          30.000  
  24019977.822     -442845.5152       2634.863          35.000  
  23189682.855     -834885.581        2276.814          38.000  
 18 10  7 17 59  7.0000000  0  7G30G 2G 5G 6G 7G 9G13
  20530853.534     -127943.296         266.567          51.000  
  22640091.229      797466.7312      -2241.512          48.000  
  21310060.163     -598313.444        1578.989          49.000  
  24345479.290     1479434.2612      -4056.814          34.000  
  21286581.089      656066.087       -1853.420          51.000  
  23413042.880     1180532.7253      -3226.052          35.000  
  23189248.373     -837163.798        2280.674          41.000  
 18 10  7 17 59  8.0000000  0  8G30G 2G 5G 6G 7G 9G28G13
  20530802.692     -128208.905         264.678          51.000  
  22640517.996      799709.1682      -2243.219          47.000  
  21309759.295     -599891.529        1577.325          50.000  
  24346251.230     1483490.3482      -4056.958          32.000  
  21286933.950      657920.006       -1854.522          51.000  
  23413665.107     1183758.5593      -3225.537          33.000  
  24018969.657     -448112.3233       2632.800          31.000  
  23188813.413     -839442.087        2278.035          40.000  
 18 10  7 17 59  9.0000000  0  7G30G 2G 5G 6G 7G 9G13
  20530752.368     -128473.815         264.384          50.000  
  22640943.665      801952.0542      -2243.353          46.000  
  21309460.242     -601469.009        1577.490          50.000  
  24347021.400     1487546.1212      -4057.090          32.000  
  21287286.222      659774.671       -1854.339          50.000  
  23414271.733     1186984.6223      -3226.477          29.000  
  23188380.469     -841720.277        2277.936          40.000  
 18 10  7 17 59 10.0000000  0  6G30G 2G 5G 6G 7G13
  20530702.245     -128738.735         265.058          50.000  
  22641369.071      804195.0072      -2242.165          47.000  
  21309160.238     -603046.625        1578.308          50.000  
  24347789.550     1491601.7583      -4055.027          29.000  
  21287638.734      661629.023       -1853.912          50.000  
  23187946.794     -843998.601        2279.327          39.000  
 18 10  7 17 59 11.0000000  0  7G30G 2G 5G 6G 7G 9G13
  20530651.495     -129003.640         265.062          50.000  
  22641794.704      806437.7592      -2243.021          47.000  
  21308860.419     -604624.450        1578.278          51.000  
  24348566.399     1495656.6803      -4055.340          33.000  
  21287991.211      663483.335       -1853.757          51.000  
  23415485.686     1193434.3093      -3223.844          29.000  
  23187512.909     -846277.503        2278.465          37.000  
 18 10  7 17 59 12.0000000  0  7G30G 2G 5G 6G 7G 9G13
  20530601.832     -129267.517         262.623          51.000  
  22642220.856      808681.5112      -2244.917          45.000  
  21308560.710     -606201.389        1576.073          51.000  
  24349341.260     1499712.0373      -4055.323          35.000  
  21288343.930      665338.434       -1855.991          50.000  
  23416105.884     1196659.5723      -3225.922          33.000  
  23187079.801     -848555.656        2277.920          45.000  
 18 10  7 17 59 13.0000000  0  7G30G 2G 5G 6G 7G 9G13
  20530550.596     -129530.054         260.477          51.000  
  22642647.893      810925.726       -2247.018          46.000  
  21308260.693     -607777.311        1573.788          51.000  
  24350123.377     1503767.7373      -4057.631          35.000  
  21288697.927      667194.878       -1858.339          51.000  
  23416722.769     1199885.9883      -3226.920          29.000  
  23186647.278     -850833.236        2274.950          43.000  
 18 10  7 17 59 14.0000000  0  6G30G 2G 5G 6G 7G13
  20530500.470     -129792.044         263.379          50.000  
  22643075.620      813171.176       -2244.266          47.000  
  21307960.880     -609352.664        1576.627          51.000  
  24350944.320     1507823.9102      -4054.357          32.000  
  21289051.146      669051.635       -1856.006          50.000  
  23186213.714     -853110.393        2279.109          43.000  
 18 10  7 17 59 15.0000000  0  6G30G 2G 5G 6G 7G13
  20530450.144     -130054.493         262.423          49.000  
  22643503.811      815415.870       -2244.337          47.000  
  21307661.014     -610928.623        1576.414          51.000  
  24351692.893     1511879.2392      -4054.183          37.000  
  21289404.746      670907.984       -1855.752          51.000  
  23185779.847     -855388.528        2278.718          42.000  
 18 10  7 17 59 16.0000000  0  6G30G 2G 5G 6G 7G13
  20530400.415     -130316.712         261.399          50.000  
  22643931.378      817660.744       -2245.697          47.000  
  21307361.324     -612504.500        1575.217          51.000  
  24352461.591     1515934.1692      -4056.400          39.000  
  21289757.315      672764.353       -1856.995          51.000  
  23185345.769     -857666.741        2277.317          43.000  
 18 10  7 17 59 17.0000000  0  6G30G 2G 5G 6G 7G13
  20530350.721     -130577.549         260.213          50.000  
  22644359.181      819906.848       -2246.552          47.000  
  21307061.830     -614079.216        1574.383          50.000  
  24353248.471     1519989.8352      -4054.448          35.000  
  21290110.784      674621.901       -1857.877          50.000  
  23184912.011     -859944.065        2278.246          42.000  
 18 10  7 17 59 18.0000000  0  7G30G 2G 5G 6G 7G 9G13
  20530300.951     -130837.704         260.159          49.000  
  22644787.802      822153.478       -2246.637          48.000  
  21306761.902     -615653.425        1574.325          50.000  
  24354018.128     1524045.5612      -4055.177          32.000  
  21290464.367      676479.990       -1857.936          49.000  
  23419805.645        1177.6083      -3225.489          33.000  
  23184479.119     -862221.205        2277.484          42.000  
 18 10  7 17 59 19.0000000  0  7G30G 2G 5G 6G 7G 9G13
  20530251.558     -131097.841         260.391          50.000  
  22645216.253      824400.123       -2245.767          48.000  
  21306461.621     -617227.586        1574.708          49.000  
  24354801.421     1528101.1413      -4054.321          32.000  
  21290818.497      678338.098       -1857.902          50.000  
  23420412.781        4403.3503      -3226.401          34.000  
  23184045.038     -864498.530        2278.098          41.000  
 18 10  7 17 59 20.0000000  0  7G30G 2G 5G 6G 7G 9G13
  20530202.025     -131358.268         260.735          48.000  
  22645644.586      826646.296       -2246.409          48.000  
  21306162.184     -618802.266        1575.303          52.000  
  24355550.910     1532155.4793      -4054.268          39.000  
  21291172.006      680195.788       -1856.854          49.000  
  23421028.573        7628.4453      -3224.292          31.000  
  23183611.058     -866776.558        2278.516          41.000  
 18 10  7 17 59 21.0000000  0  7G30G 2G 5G 6G 7G 9G13
  20530153.355     -131618.131         258.910          51.000  
  22646072.247      828893.013       -2247.472          49.000  
  21305862.420     -620376.489        1573.386          48.000  
  24356336.723     1536209.9253      -4054.999          38.000  
  21291524.734      682053.958       -1858.712          49.000  
  23421640.847       10853.7842      -3226.330          35.000  
  23183176.598     -869054.402        2276.454          41.000  
 18 10  7 17 59 22.0000000  0  8G30G 2G 5G 6G 7G 9G28G13
  20530103.530     -131876.790         258.980          50.000  
  22646499.125      831140.604       -2247.356          48.000  
  21305562.402     -621949.811        1573.583          49.000  
  24357095.177     1540264.9452      -4055.061          41.000  
  21291878.871      683913.133       -1858.926          50.000  
  23422260.362       14079.6052      -3225.144          36.000  
  24011959.309     -484937.3313       2633.514          34.000  
  23182742.471     -871331.855        2278.315          41.000  
 18 10  7 17 59 23.0000000  0  8G30G 2G 5G 6G 7G 9G28G13
  20530053.539     -132135.156         258.028          50.000  
  22646926.475      833388.489       -2248.084          46.000  
  21305263.465     -623522.929        1572.980          47.000  
  24357871.636     1544319.6682      -4054.480          39.000  
  21292232.886      685772.418       -1859.357          50.000  
  23422875.007       17305.1042      -3225.099          36.000  
  24011459.712     -487571.2643       2633.032          32.000  
  23182310.177     -873609.228        2276.993          39.000  
 18 10  7 17 59 24.0000000  0  8G30G 2G 5G 6G 7G 9G28G13
  20530005.645     -132392.837         257.444          50.000  
  22647354.343      835636.954       -2248.460          45.000  
  21304963.797     -625095.470        1572.531          49.000  
  24358651.802     1548374.5092      -4054.527          36.000  
  21292587.186      687632.279       -1860.091          50.000  
  23423487.191       20530.8632      -3225.503          37.000  
  24010974.532     -490204.9333       2629.847          29.000  
  23181876.203     -875886.174        2276.100          34.000  
 18 10  7 17 59 25.0000000  0  8G30G 2G 5G 6G 7G 9G28G13
  20529957.044     -132649.902         256.644          51.000  
  22647781.902      837885.903       -2248.759          44.000  
  21304664.752     -626667.564        1571.787          50.000  
  24359416.661     1552429.5312      -4055.486          39.000  
  21292941.556      689492.707       -1860.952          49.000  
  23424102.050       23756.8552      -3227.755          37.000  
  24010476.156     -492838.4233       2633.355          28.000  
  23181442.149     -878163.019        2277.246          37.000  
 18 10  7 17 59 26.0000000  0  8G30G 2G 5G 6G 7G 9G28G13
  20529907.536     -132906.668         256.856          50.000  
  22648208.560      840134.944       -2248.497          45.000  
  21304365.435     -628239.569        1572.376          48.000  
  24360178.550     1556484.2992      -4054.573          41.000  
  21293294.808      691353.324       -1860.340          51.000  
  23424716.031       26982.8832      -3226.127          32.000  
  24009981.523     -495471.9873       2634.307          28.000  
  23181008.975     -880440.136        2277.787          39.000  
 18 10  7 17 59 27.0000000  0  7G30G 2G 5G 6G 7G 9G13
  20529857.514     -133163.523         256.749          50.000  
  22648637.019      842383.984       -2248.880          46.000  
  21304066.149     -629811.781        1572.368          48.000  
  24360944.689     1560538.4152      -4053.435          37.000  
  21293648.650      693213.648       -1860.379          51.000  
  23425327.897       30207.9732      -3227.089          29.000  
  23180577.078     -882717.636        2277.593          39.000  
 18 10  7 17 59 28.0000000  0  7G30G 2G 5G 6G 7G 9G13
  20529808.161     -133420.355         256.517          49.000  
  22649067.165      844632.770       -2249.684          47.000  
  21303767.244     -631384.111        1571.862          49.000  
  24361716.534     1564591.9202      -4053.341          37.000  
  21294002.868      695073.878       -1860.464          51.000  
  23425942.459       33432.6932      -3223.494          34.000  
  23180142.917     -884995.415        2277.140          37.000  
 18 10  7 17 59 29.0000000  0  7G30G 2G 5G 6G 7G 9G13
  20529759.307     -133676.362         255.953          50.000  
  22649495.271      846882.261       -2249.269          47.000  
  21303467.746     -632955.789        1571.703          49.000  
  24362486.819     1568645.6142      -4052.999          33.000  
  21294356.634      696934.855       -1861.050          51.000  
  23426557.258       36657.6373      -3226.235          30.000  
  23179709.331     -887272.970        2277.228          38.000  
 18 10  7 17 59 30.0000000  0  7G30G 2G 5G 6G 7G 9G13
  20529710.900     -133932.141         255.810          50.000  
  22649922.339      849131.954       -2249.425          46.000  
  21303168.518     -634527.280        1571.400          50.000  
  24363257.724     1572699.1852      -4053.146          39.000  
  21294710.649      698795.957       -1861.044          50.000  
  23427170.993       39882.6272      -3224.782          34.000  
  23179275.645     -889550.504        2277.569          37.000  
 18 10  7 17 59 31.0000000  0  6G30G 2G 5G 7G 9G13
  20529663.614     -134187.832         255.302          50.000  
  22650351.126      851381.680       -2249.789          46.000  
  21302868.826     -636098.849        1571.117          49.000  
  21295065.739      700656.943       -1861.571          50.000  
  23427783.928       43106.9972      -3224.716          38.000  
  23178842.361     -891828.320        2277.666          41.000  
 18 10  7 17 59 32.0000000  0  7G30G 2G 5G 6G 7G 9G13
  20529615.585     -134443.305         255.097          51.000  
  22650777.199      853631.269       -2249.841          43.000  
  21302570.105     -637670.388        1571.386          49.000  
  24364805.177     1580804.9313      -4052.955          39.000  
  21295420.113      702518.145       -1861.559          51.000  
  23428396.786       46331.2942      -3224.147          37.000  
  23178409.096     -894106.537        2278.563          40.000  
 18 10  7 17 59 33.0000000  0  7G30G 2G 5G 6G 7G 9G13
  20529567.453     -134698.062         253.949          52.000  
  22651202.646      855881.581       -2250.748          43.000  
  21302270.960     -639241.352        1570.379          49.000  
  24365577.019     1584857.5793      -4052.757          39.000  
  21295773.978      704379.894       -1862.803          51.000  
  23429010.004       49555.7182      -3225.543          37.000  
  23177976.653     -896384.375        2276.549          41.000  
 18 10  7 17 59 34.0000000  0  7G30G 2G 5G 6G 7G 9G13
  20529518.812     -134952.056         253.508          52.000  
  22651629.317      858132.509       -2251.635          42.000  
  21301972.072     -640811.780        1570.298          49.000  
  24366343.996     1588910.5432      -4053.603          40.000  
  21296128.359      706242.245       -1862.685          51.000  
  23429623.021       52780.4462      -3224.327          37.000  
  23177543.940     -898661.937        2276.584          40.000  
 18 10  7 17 59 35.0000000  0  7G30G 2G 5G 6G 7G 9G13
  20529470.477     -135205.989         253.532          51.000  
  22652057.574      860383.414       -2251.144          42.000  
  21301672.769     -642382.317        1570.216          49.000  
  24367116.408     1592963.0192      -4052.144          37.000  
  21296482.376      708104.531       -1862.698          50.000  
  23430236.964       56004.6872      -3224.641          37.000  
  23177111.327     -900939.856        2277.922          42.000  
 18 10  7 17 59 36.0000000  0  7G30G 2G 5G 6G 7G 9G13
  20529422.132     -135459.770         253.477          51.000  
  22652485.388      862634.265       -2251.528          42.000  
  21301374.355     -643952.798        1570.128          49.000  
  24367890.358     1597015.0852      -4052.918          38.000  
  21296836.877      709966.873       -1862.304          50.000  
  23430850.686       59228.6982      -3223.780          38.000  
  23176678.335     -903218.013        2277.290          42.000  
 18 10  7 17 59 37.0000000  0  7G30G 2G 5G 6G 7G 9G13
  20529374.063     -135712.944         252.967          51.000  
  22652913.579      864885.695       -2251.457          43.000  
  21301075.711     -645522.782        1569.802          49.000  
  24368660.588     1601067.2122      -4051.765          38.000  
  21297191.382      711829.714       -1862.959          50.000  
  23431463.753       62452.759       -3223.545          38.000  
  23176244.793     -905495.935        2278.381          41.000  
 18 10  7 17 59 38.0000000  0  7G30G 2G 5G 6G 7G 9G13
  20529326.042     -135965.369         252.249          50.000  
  22653343.110      867137.720       -2251.906          43.000  
  21300776.695     -647092.201        1568.954          48.000  
  24369433.808     1605119.4832      -4053.051          38.000  
  21297545.676      713693.161       -1863.856          50.000  
  23432077.778       65677.110       -3225.159          37.000  
  23175810.774     -907773.568        2277.521          41.000  
 18 10  7 17 59 39.0000000  0  7G30G 2G 5G 6G 7G 9G13
  20529277.057     -136217.332         252.018          50.000  
  22653770.751      869390.050       -2252.033          40.000  
  21300478.401     -648661.307        1569.193          49.000  
  24370203.050     1609171.6552      -4051.663          37.000  
  21297900.295      715556.909       -1863.749          50.000  
  23432691.836       68901.417       -3223.619          39.000  
  23175377.260     -910051.118        2277.564          41.000  
 18 10  7 17 59 40.0000000  0  7G30G 2G 5G 6G 7G 9G13
  20529228.641     -136469.277         252.169          50.000  
  22654198.620      871642.316       -2252.250          41.000  
  21300180.097     -650230.500        1569.391          49.000  
  24370976.893     1613223.3032      -4051.578          34.000  
  21298255.200      717420.591       -1863.656          51.000  
  23433306.442       72125.276       -3223.301          39.000  
  23174943.635     -912329.058        2278.053          41.000  
 18 10  7 17 59 41.0000000  0  6G30G 2G 5G 7G 9G13
  20529180.590     -136720.949         251.407          49.000  
  22654628.948      873894.879       -2252.934          44.000  
  21299881.083     -651799.515        1568.235          49.000  
  21298610.299      719284.358       -1864.213          50.000  
  23433920.351       75348.899       -3223.743          41.000  
  23174510.900     -914606.977        2277.332          43.000  
 18 10  7 17 59 42.0000000  0  7G30G 2G 5G 6G 7G 9G13
  20529132.395     -136971.520         250.499          49.000  
  22655059.171      876148.303       -2253.828          45.000  
  21299581.862     -653367.587        1568.182          48.000  
  24372500.662     1621326.8923      -4051.685          34.000  
  21298965.775      721149.187       -1865.038          50.000  
  23434533.410       78573.163       -3223.812          41.000  
  23174076.804     -916884.340        2277.551          42.000  
 18 10  7 17 59 43.0000000  0  7G30G 2G 5G 6G 7G 9G13
  20529084.496     -137221.742         250.140          49.000  
  22655488.917      878401.914       -2253.703          45.000  
  21299282.872     -654935.550        1567.974          49.000  
  24373264.551     1625378.6833      -4050.641          34.000  
  21299320.782      723014.200       -1864.637          49.000  
  23435146.042       81797.320       -3223.661          41.000  
  23173642.737     -919161.845        2277.385          42.000  
 18 10  7 17 59 44.0000000  0  7G30G 2G 5G 6G 7G 9G13
  20529036.676     -137471.756         250.474          49.000  
  22655918.925      880655.591       -2253.640          45.000  
  21298984.364     -656503.455        1568.025          48.000  
  24374029.019     1629430.0472      -4051.697          36.000  
  21299675.916      724879.326       -1865.083          50.000  
  23435759.528       85021.221       -3223.652          41.000  
  23173209.389     -921439.574        2277.383          42.000  
 18 10  7 17 59 45.0000000  0  7G30G 2G 5G 6G 7G 9G13
  20528989.672     -137720.561         248.252          50.000  
  22656348.129      882910.366       -2254.844          45.000  
  21298686.402     -658070.372        1566.521          49.000  
  24374791.443     1633481.9012      -4052.479          35.000  
  21300031.307      726745.498       -1866.735          51.000  
  23436374.770       88245.822       -3224.862          41.000  
  23172776.671     -923716.542        2276.616          44.000  
 18 10  7 17 59 46.0000000  0  6G30G 2G 5G 7G 9G13
  20528943.411     -137969.006         248.918          48.000  
  22656777.880      885165.321       -2254.773          43.000  
  21298389.109     -659637.070        1566.792          49.000  
  21300385.479      728612.024       -1865.812          51.000  
  23436990.772       91470.296       -3224.167          40.000  
  23172344.100     -925993.682        2278.078          45.000  
 18 10  7 17 59 47.0000000  0  7G30G 2G 5G 6G 7G 9G13
  20528895.578     -138217.341         248.971          49.000  
  22657207.050      887420.486       -2254.798          46.000  
  21298091.242     -661203.250        1566.724          50.000  
  24376339.960     1641585.8793      -4050.348          39.000  
  21300740.796      730478.376       -1865.802          49.000  
  23437602.936       94694.188       -3223.054          43.000  
  23171910.654     -928270.415        2277.635          42.000  
 18 10  7 17 59 48.0000000  0  7G30G 2G 5G 6G 7G 9G13
  20528848.811     -138465.714         248.878          50.000  
  22657635.972      889675.605       -2254.364          46.000  
  21297793.173     -662770.056        1567.597          49.000  
  24377138.875     1645636.9143      -4050.759          40.000  
  21301095.845      732344.709       -1866.107          52.000  
  23438214.569       97917.924       -3223.356          41.000  
  23171477.320     -930547.871        2278.408          43.000  
 18 10  7 17 59 49.0000000  0  8G30G 2G 5G 6G 7G 9G28G13
  20528803.046     -138713.366         247.613          52.000  
  22658064.399      891930.870       -2256.284          49.000  
  21297495.206     -664336.492        1566.021          49.000  
  24377893.012     1649687.0703      -4054.208          31.000  
  21301452.047      734211.798       -1866.584          50.000  
  23438826.644      101141.989       -3224.303          38.000  
  23998427.804     -556058.5193       2635.815          36.000  
  23171044.308     -932825.655        2276.522          43.000  
 18 10  7 17 59 50.0000000  0  7G30G 2G 5G 6G 7G 9G13
  20528756.142     -138961.129         248.108          51.000  
  22658493.463      894186.344       -2255.001          46.000  
  21297196.744     -665902.845        1567.175          49.000  
  24378678.538     1653737.7263      -4049.514          39.000  
  21301806.568      736078.229       -1866.199          51.000  
  23439438.333      104364.980       -3222.642          40.000  
  23170610.550     -935103.188        2278.634          45.000  
 18 10  7 17 59 51.0000000  0  8G30G 2G 5G 6G 7G 9G28G13
  20528707.709     -139208.051         246.925          51.000  
  22658920.810      896442.202       -2255.196          41.000  
  21296899.176     -667468.716        1566.283          49.000  
  24379462.731     1657788.2903      -4050.378          37.000  
  21302161.700      737945.527       -1867.118          51.000  
  23440049.998      107588.468       -3223.626          37.000  
  23997416.474     -561330.3823       2637.138          33.000  
  23170177.743     -937380.850        2279.007          41.000  
 18 10  7 17 59 52.0000000  0  8G30G 2G 5G 6G 7G 9G28G13
  20528660.800     -139454.873         246.067          51.000  
  22659348.794      898698.233       -2257.570          42.000  
  21296601.303     -669034.550        1565.301          49.000  
  24380241.482     1661838.3162      -4049.993          37.000  
  21302516.877      739812.831       -1867.616          51.000  
  23440662.376      110811.675       -3222.662          37.000  
  23996914.008     -563966.6112       2634.561          34.000  
  23169744.454     -939658.565        2276.936          42.000  
 18 10  7 17 59 53.0000000  0  8G30G 2G 5G 6G 7G 9G28G13
  20528613.349     -139701.101         246.139          51.000  
  22659779.845      900954.718       -2256.703          45.000  
  21296303.659     -670600.070        1565.535          49.000  
  24381044.530     1665888.2602      -4050.223          29.000  
  21302872.693      741680.542       -1867.974          52.000  
  23441277.280      114034.882       -3221.713          38.000  
  23996411.023     -566602.7672       2637.897          33.000  
  23169312.042     -941936.247        2278.205          44.000  
 18 10  7 17 59 54.0000000  0  7G30G 2G 5G 6G 7G 9G13
  20528568.057     -139946.707         245.264          52.000  
  22660210.795      903211.516       -2256.504          45.000  
  21296005.618     -672165.130        1564.914          48.000  
  24381748.793     1669938.6993      -4049.045          32.000  
  21303227.945      743548.756       -1868.879          52.000  
  23441891.279      117258.309       -3223.252          36.000  
  23168878.369     -944213.831        2278.039          40.000  
 18 10  7 17 59 55.0000000  0  8G30G 2G 5G 6G 7G 9G28G13
  20528521.757     -140191.568         246.336          51.000  
  22660642.219      905468.886       -2257.092          47.000  
  21295708.079     -673729.681        1565.425          46.000  
  24382508.782     1673988.9043      -4050.156          39.000  
  21303583.037      745417.800       -1867.541          50.000  
  23442504.833      120482.6193      -3222.075          38.000  
  23995397.787     -571874.5473       2636.488          28.000  
  23168445.359     -946491.174        2278.065          42.000  
 18 10  7 17 59 56.0000000  0  8G30G 2G 5G 6G 7G 9G28G13
  20528474.650     -140436.417         246.220          51.000  
  22661070.583      907726.281       -2256.595          47.000  
  21295410.095     -675293.977        1565.761          47.000  
  24383278.429     1678038.5463      -4048.426          40.000  
  21303939.174      747286.737       -1867.612          51.000  
  23443118.243      123705.8592      -3222.510          37.000  
  23994896.262     -574512.2813       2638.709          31.000  
  23168011.176     -948768.494        2279.301          42.000  
 18 10  7 17 59 57.0000000  0  8G30G 2G 5G 6G 7G 9G28G13
  20528428.640     -140681.254         244.336          52.000  
  22661500.314      909983.605       -2257.581          48.000  
  21295112.582     -676858.616        1563.919          47.000  
  24384064.552     1682087.6023      -4048.524          40.000  
  21304295.021      749155.365       -1869.356          51.000  
  23443729.673      126928.6412      -3221.963          36.000  
  23994395.327     -577148.9423       2636.294          35.000  
  23167576.627     -951046.403        2277.495          43.000  
 18 10  7 17 59 58.0000000  0  8G30G 2G 5G 6G 7G 9G28G13
  20528381.501     -140925.421         243.730          51.000  
  22661929.544      912241.457       -2258.810          48.000  
  21294814.761     -678422.654        1563.819          48.000  
  24384850.128     1686136.7862      -4049.637          41.000  
  21304650.546      751024.554       -1869.445          52.000  
  23444341.370      130151.4682      -3223.584          34.000  
  23993898.275     -579785.5643       2635.876          30.000  
  23167143.370     -953323.981        2277.172          43.000  
 18 10  7 17 59 59.0000000  0  7G30G 2G 5G 6G 7G 9G13
  20528335.674     -141168.637         241.469          51.000  
  22662359.190      914500.270       -2260.357          47.000  
  21294518.125     -679986.049        1561.734          48.000  
  24385607.442     1690186.4932      -4051.237          39.000  
  21305006.467      752894.554       -1871.571          52.000  
  23444953.489      133374.8322      -3226.747          32.000  
  23166710.535     -955601.043        2275.208          43.000  
 18 10  7 18  0  0.0000000  0  6G30G 2G 5G 6G 7G13
  20528289.412     -141410.861         243.616          51.000  
  22662788.404      916759.714       -2258.847          46.000  
  21294220.162     -681548.500        1563.846          45.000  
  24386369.429     1694236.5462      -4048.999          39.000  
  21305362.032      754765.568       -1869.958          50.000  
  23166277.504     -957877.639        2277.948          43.000  
 18 10  7 18  0  1.0000000  0  6G30G 2G 5G 6G 7G13
  20528243.230     -141653.038         241.967          51.000  
  22663217.516      919019.184       -2259.619          45.000  
  21293922.488     -683111.091        1562.419          45.000  
  24387137.566     1698286.0682      -4048.789          40.000  
  21305717.620      756636.386       -1870.636          51.000  
  23165843.912     -960154.586        2276.979          43.000  
 18 10  7 18  0  2.0000000  0  7G30G 2G 5G 6G 7G 9G13
  20528197.375     -141894.821         241.647          52.000  
  22663647.134      921278.838       -2259.842          46.000  
  21293624.868     -684673.412        1562.426          46.000  
  24387907.387     1702335.4142      -4048.300          40.000  
  21306073.777      758507.550       -1870.978          51.000  
  23446790.796      143046.5353      -3223.449          31.000  
  23165410.782     -962431.559        2277.637          43.000  
 18 10  7 18  0  3.0000000  0  7G30G 2G 5G 6G 7G 9G13
  20528151.625     -142136.022         241.084          52.000  
  22664077.842      923539.029       -2260.071          46.000  
  21293326.779     -686235.211        1562.037          46.000  
  24388683.492     1706384.7502      -4049.359          42.000  
  21306430.158      760379.170       -1871.679          50.000  
  23447405.282      146270.0603      -3223.784          32.000  
  23164976.457     -964708.329        2277.791          41.000  
 18 10  7 18  0  4.0000000  0  8G30G 2G 5G 6G 7G 9G28G13
  20528106.045     -142376.737         241.041          52.000  
  22664508.215      925799.573       -2260.261          47.000  
  21293029.071     -687796.746        1561.676          45.000  
  24389455.625     1710434.0402      -4048.483          42.000  
  21306786.044      762251.125       -1871.396          49.000  
  23448019.368      149493.7043      -3222.277          33.000  
  23990897.361     -595606.8293       2636.625          29.000  
  23164542.823     -966985.058        2277.594          43.000  
 18 10  7 18  0  5.0000000  0  8G30G 2G 5G 6G 7G 9G28G13
  20528060.212     -142617.566         240.776          52.000  
  22664938.978      928059.885       -2260.333          47.000  
  21292731.205     -689358.514        1562.097          45.000  
  24390226.211     1714482.6582      -4048.902          42.000  
  21307142.323      764122.845       -1871.723          50.000  
  23448633.888      152716.6392      -3223.300          33.000  
  23990395.344     -598243.3933       2636.726          31.000  
  23164108.778     -969262.279        2277.843          42.000  
 18 10  7 18  0  6.0000000  0  8G30G 2G 5G 6G 7G 9G28G13
  20528014.957     -142857.961         239.979          52.000  
  22665370.679      930320.528       -2260.854          48.000  
  21292433.779     -690919.997        1561.227          45.000  
  24390997.805     1718531.1402      -4048.952          42.000  
  21307498.661      765994.866       -1872.060          50.000  
  23449244.155      155939.4282      -3222.899          34.000  
  23989886.446     -600880.0613       2635.486          31.000  
  23163675.899     -971539.491        2277.810          42.000  
 18 10  7 18  0  7.0000000  0  8G30G 2G 5G 6G 7G 9G28G13
  20527969.501     -143097.621         238.733          52.000  
  22665801.943      932581.765       -2262.162          48.000  
  21292136.094     -692480.901        1559.747          44.000  
  24391769.089     1722579.798       -4048.693          42.000  
  21307854.971      767867.491       -1873.156          50.000  
  23449858.950      159162.6062      -3223.857          37.000  
  23989384.298     -603516.4612       2633.977          30.000  
  23163242.952     -973816.384        2275.994          42.000  
 18 10  7 18  0  8.0000000  0  8G30G 2G 5G 6G 7G 9G28G13
  20527923.869     -143336.275         238.287          52.000  
  22666232.379      934843.913       -2262.212          49.000  
  21291838.995     -694040.942        1559.988          44.000  
  24392540.173     1726628.882       -4048.967          42.000  
  21308211.487      769741.009       -1873.435          50.000  
  23450472.531      162386.2752      -3224.000          37.000  
  23988882.626     -606152.2993       2633.514          29.000  
  23162810.361     -976092.664        2276.387          43.000  
 18 10  7 18  0  9.0000000  0  8G30G 2G 5G 6G 7G 9G28G13
  20527878.553     -143574.745         238.226          52.000  
  22666663.731      937106.083       -2262.299          49.000  
  21291541.776     -695600.967        1559.545          44.000  
  24393310.744     1730677.586       -4048.128          42.000  
  21308568.013      771614.591       -1873.543          50.000  
  23451086.080      165609.6872      -3223.884          37.000  
  23988380.946     -608788.4853       2638.076          29.000  
  23162377.275     -978369.216        2277.014          43.000  
 18 10  7 18  0 10.0000000  0  8G30G 2G 5G 6G 7G 9G28G13
  20527833.036     -143812.908         237.721          51.000  
  22667094.481      939368.452       -2262.982          48.000  
  21291244.527     -697160.863        1559.110          44.000  
  24394080.118     1734726.019       -4048.663          42.000  
  21308924.322      773488.323       -1874.208          50.000  
  23451695.590      168832.9142      -3224.522          30.000  
  23987876.482     -611424.8053       2637.884          29.000  
  23161944.368     -980645.880        2276.041          43.000  
 18 10  7 18  0 11.0000000  0  8G30G 2G 5G 6G 7G 9G28G13
  20527787.657     -144050.088         236.759          51.000  
  22667524.758      941631.728       -2263.497          48.000  
  21290947.945     -698719.847        1559.032          44.000  
  24394850.000     1738774.888       -4048.771          42.000  
  21309281.593      775362.958       -1874.647          49.000  
  23452307.515      172056.6583      -3222.814          29.000  
  23987374.995     -614060.7143       2636.892          29.000  
  23161511.223     -982921.908        2275.708          43.000  
 18 10  7 18  0 12.0000000  0  8G30G 2G 5G 6G 7G 9G28G13
  20527742.572     -144286.550         236.732          52.000  
  22667955.680      943895.543       -2263.464          48.000  
  21290651.617     -700278.264        1558.400          45.000  
  24395620.475     1742823.901       -4048.592          42.000  
  21309638.538      777238.205       -1874.890          49.000  
  23452920.639      175280.5473      -3223.065          31.000  
  23986875.749     -616696.3732       2637.503          32.000  
  23161077.300     -985197.638        2276.909          42.000  
 18 10  7 18  0 13.0000000  0  8G30G 2G 5G 6G 7G 9G28G13
  20527697.642     -144522.998         237.061          51.000  
  22668386.862      946159.256       -2262.927          48.000  
  21290354.956     -701836.833        1558.779          45.000  
  24396391.436     1746872.342       -4047.977          41.000  
  21309995.170      779113.324       -1874.295          50.000  
  23453535.125      178504.0282      -3223.599          34.000  
  23986374.267     -619332.4262       2636.039          32.000  
  23160644.094     -987473.842        2277.395          42.000  
 18 10  7 18  0 14.0000000  0  8G30G 2G 5G 6G 7G 9G28G13
  20527652.695     -144759.482         235.740          51.000  
  22668817.542      948422.824       -2264.174          49.000  
  21290058.811     -703395.569        1558.254          47.000  
  24397162.245     1750920.216       -4047.871          41.000  
  21310352.077      780988.286       -1875.336          50.000  
  23454150.099      181727.0392      -3222.238          38.000  
  23985872.529     -621969.0202       2636.066          32.000  
  23160210.968     -989750.422        2276.691          43.000  
 18 10  7 18  0 15.0000000  0  8G30G 2G 5G 6G 7G 9G28G13
  20527607.904     -144994.736         234.965          51.000  
  22669248.065      950687.504       -2264.629          49.000  
  21289763.302     -704953.281        1557.871          47.000  
  24397933.704     1754968.731       -4047.959          42.000  
  21310709.069      782864.320       -1876.100          50.000  
  23454765.566      184950.7482      -3223.649          38.000  
  23985370.881     -624604.8292       2636.936          32.000  
  23159778.580     -992026.221        2276.129          43.000  
 18 10  7 18  0 16.0000000  0  8G30G 2G 5G 6G 7G 9G28G13
  20527563.212     -145229.400         234.310          51.000  
  22669678.834      952952.625       -2265.575          48.000  
  21289467.087     -706510.531        1556.993          47.000  
  24398704.419     1759017.280       -4048.206          41.000  
  21311066.297      784740.837       -1876.795          50.000  
  23455380.304      188174.5782      -3223.555          38.000  
  23984868.773     -627240.5872       2636.865          31.000  
  23159346.282     -994301.846        2275.812          43.000  
 18 10  7 18  0 17.0000000  0  8G30G 2G 5G 6G 7G 9G28G13
  20527518.485     -145463.735         233.939          51.000  
  22670109.920      955217.903       -2265.281          48.000  
  21289170.754     -708067.559        1557.192          46.000  
  24399474.094     1763065.486       -4048.516          42.000  
  21311422.927      786617.561       -1876.687          50.000  
  23455994.512      191398.1942      -3222.594          37.000  
  23984366.663     -629876.4922       2636.109          31.000  
  23158913.062     -996577.621        2275.007          43.000  
 18 10  7 18  0 18.0000000  0  8G30G 2G 5G 6G 7G 9G28G13
  20527473.911     -145698.041         233.847          50.000  
  22670541.202      957483.166       -2265.284          48.000  
  21288874.138     -709624.683        1556.999          46.000  
  24400243.223     1767113.255       -4048.272          41.000  
  21311779.967      788494.198       -1876.791          49.000  
  23456608.891      194621.4592      -3223.079          37.000  
  23983864.053     -632512.8682       2635.511          33.000  
  23158479.093     -998853.659        2276.320          43.000  
 18 10  7 18  0 19.0000000  0  8G30G 2G 5G 6G 7G 9G28G13
  20527429.205     -145931.478         232.762          50.000  
  22670972.236      959749.146       -2266.383          47.000  
  21288578.849     -711181.105        1555.568          48.000  
  24401012.302     1771161.285       -4048.146          40.000  
  21312137.503      790371.563       -1878.015          50.000  
  23457223.512      197844.557       -3224.222          38.000  
  23983361.589     -635148.8722       2634.981          33.000  
  23158045.490    -1001129.233        2275.286          42.000  
 18 10  7 18  0 20.0000000  0  8G30G 2G 5G 6G 7G 9G28G13
  20527385.109     -146163.982         232.184          50.000  
  22671403.566      962015.921       -2267.353          48.000  
  21288283.033     -712736.779        1555.424          47.000  
  24401781.222     1775209.743       -4048.350          40.000  
  21312494.366      792249.762       -1878.654          49.000  
  23457837.419      201068.684       -3224.524          38.000  
  23982859.350     -637784.3642       2634.776          33.000  
  23157612.467    -1003404.391        2274.993          42.000  
 18 10  7 18  0 21.0000000  0  8G30G 2G 5G 6G 7G 9G28G13
  20527340.981     -146396.194         232.215          51.000  
  22671835.557      964282.904       -2267.110          48.000  
  21287986.798     -714292.329        1555.412          47.000  
  24402551.261     1779257.908       -4047.826          41.000  
  21312851.993      794128.084       -1877.993          50.000  
  23458451.608      204292.571       -3223.401          40.000  
  23982356.611     -640419.9882       2636.443          32.000  
  23157179.669    -1005679.628        2275.580          44.000  
 18 10  7 18  0 22.0000000  0  8G30G 2G 5G 6G 7G 9G28G13
  20527296.586     -146628.374         232.241          51.000  
  22672267.354      966549.744       -2266.979          49.000  
  21287690.991     -715847.952        1555.635          47.000  
  24403321.917     1783305.509       -4047.584          41.000  
  21313209.803      796006.320       -1878.035          50.000  
  23459065.094      207515.969       -3222.894          39.000  
  23981854.187     -643056.1282       2635.812          32.000  
  23156747.139    -1007955.290        2276.168          45.000  
 18 10  7 18  0 23.0000000  0  8G30G 2G 5G 6G 7G 9G28G13
  20527252.018     -146859.575         230.947          50.000  
  22672697.794      968817.439       -2268.105          48.000  
  21287395.240     -717402.714        1554.603          48.000  
  24404091.831     1787353.499       -4048.371          40.000  
  21313567.424      797885.419       -1879.187          49.000  
  23459679.093      210739.929       -3222.749          36.000  
  23981352.436     -645691.7392       2636.236          33.000  
  23156313.988    -1010230.333        2274.940          43.000  
 18 10  7 18  0 24.0000000  0  8G30G 2G 5G 6G 7G 9G28G13
  20527208.246     -147090.085         230.451          51.000  
  22673128.616      971085.719       -2268.197          48.000  
  21287099.575     -718956.959        1553.865          48.000  
  24404861.687     1791401.657       -4047.933          40.000  
  21313925.182      799765.118       -1879.537          49.000  
  23460292.316      213964.137       -3223.388          40.000  
  23980849.885     -648327.2302       2634.945          33.000  
  23155881.414    -1012505.116        2274.647          43.000  
 18 10  7 18  0 25.0000000  0  8G30G 2G 5G 6G 7G 9G28G13
  20527164.492     -147320.266         230.254          50.000  
  22673559.473      973354.167       -2268.125          48.000  
  21286803.935     -720511.042        1553.895          48.000  
  24405631.667     1795449.538       -4047.727          40.000  
  21314282.418      801644.974       -1879.673          49.000  
  23460905.889      217188.110       -3223.450          41.000  
  23980347.461     -650962.855        2635.374          32.000  
  23155448.895    -1014780.043        2274.939          43.000  
 18 10  7 18  0 26.0000000  0  8G30G 2G 5G 6G 7G 9G28G13
  20527120.319     -147550.185         229.801          50.000  
  22673990.659      975622.752       -2268.661          48.000  
  21286508.815     -722065.003        1553.860          48.000  
  24406402.201     1799497.104       -4047.447          39.000  
  21314640.017      803524.992       -1880.073          48.000  
  23461518.774      220411.861       -3223.694          39.000  
  23979844.831     -653598.628        2637.282          32.000  
  23155015.563    -1017055.087        2274.645          42.000  
 18 10  7 18  0 27.0000000  0  8G30G 2G 5G 6G 7G 9G28G13
  20527076.700     -147779.355         228.790          50.000  
  22674422.914      977892.5183      -2269.664          47.000  
  21286213.856     -723618.319        1552.978          49.000  
  24407172.484     1803544.873       -4047.653          37.000  
  21314998.370      805405.590       -1880.836          48.000  
  23462132.502      223635.879       -3224.370          39.000  
  23979342.555     -656233.9383       2635.148          27.000  
  23154583.127    -1019329.651        2273.895          44.000  
 18 10  7 18  0 28.0000000  0  8G30G 2G 5G 6G 7G 9G28G13
  20527033.583     -148007.681         228.017          50.000  
  22674854.774      980162.5842      -2270.282          47.000  
  21285919.037     -725170.924        1552.212          48.000  
  24407942.364     1807592.871       -4048.184          40.000  
  21315356.981      807286.899       -1881.845          50.000  
  23462746.835      226860.229       -3224.541          40.000  
  23978843.802     -658869.3393       2634.414          28.000  
  23154150.534    -1021603.976        2274.308          45.000  
 18 10  7 18  0 29.0000000  0  8G30G 2G 5G 6G 7G 9G28G13
  20526990.527     -148235.492         227.442          51.000  
  22675286.728      982432.9202      -2270.221          47.000  
  21285624.013     -726723.118        1551.926          50.000  
  24408712.008     1811640.855       -4047.491          40.000  
  21315714.555      809168.648       -1881.380          49.000  
  23463360.439      230084.637       -3223.741          40.000  
  23978343.417     -661504.3293       2635.282          32.000  
  23153717.801    -1023878.090        2273.977          44.000  
 18 10  7 18  0 30.0000000  0  8G30G 2G 5G 6G 7G 9G28G13
  20526946.801     -148463.463         228.393          51.000  
  22675717.982      984702.9172      -2269.696          47.000  
  21285328.820     -728275.653        1553.459          50.000  
  24409480.995     1815688.138       -4047.460          38.000  
  21316072.075      811050.159       -1881.180          49.000  
  23463973.038      233308.515       -3222.741          40.000  
  23977837.755     -664139.8623       2636.820          32.000  
  23153284.519    -1026152.820        2275.931          44.000  
 18 10  7 18  0 31.0000000  0  8G30G 2G 5G 6G 7G 9G28G13
  20526903.734     -148691.025         227.177          51.000  
  22676149.818      986973.2452      -2270.749          46.000  
  21285033.443     -729827.982        1551.786          50.000  
  24410251.865     1819735.260       -4047.247          37.000  
  21316429.872      812931.882       -1882.047          48.000  
  23464586.206      236532.228       -3223.994          40.000  
  23977326.671     -666775.7012       2636.455          32.000  
  23152852.011    -1028427.661        2274.538          44.000  
 18 10  7 18  0 32.0000000  0  8G30G 2G 5G 6G 7G 9G28G13
  20526861.234     -148917.687         226.321          51.000  
  22676581.911      989244.4002      -2271.400          46.000  
  21284738.120     -731379.485        1551.238          50.000  
  24411022.262     1823782.680       -4047.172          38.000  
  21316788.398      814814.374       -1882.859          49.000  
  23465199.291      239756.350       -3224.858          40.000  
  23976827.453     -669411.1023       2635.215          29.000  
  23152419.972    -1030701.847        2274.091          44.000  
 18 10  7 18  0 33.0000000  0  8G30G 2G 5G 6G 7G 9G28G13
  20526818.740     -149143.806         225.760          51.000  
  22677013.985      991515.9752      -2271.665          46.000  
  21284442.581     -732930.549        1550.917          50.000  
  24411792.420     1827830.095       -4047.254          38.000  
  21317146.817      816697.329       -1883.168          49.000  
  23465812.891      242980.577       -3224.326          41.000  
  23976330.107     -672046.5602       2635.101          31.000  
  23151987.274    -1032975.921        2273.999          44.000  
 18 10  7 18  0 34.0000000  0  8G30G 2G 5G 6G 7G 9G28G13
  20526776.236     -149369.710         225.650          51.000  
  22677446.083      993787.5802      -2271.707          46.000  
  21284147.436     -734481.602        1551.087          50.000  
  24412562.638     1831877.139       -4046.969          38.000  
  21317505.216      818580.342       -1882.956          49.000  
  23466425.993      246204.513       -3223.846          41.000  
  23975832.154     -674682.1562       2635.221          32.000  
  23151554.286    -1035250.270        2274.428          44.000  
 18 10  7 18  0 35.0000000  0  8G30G 2G 5G 6G 7G 9G28G13
  20526733.313     -149594.922         224.504          51.000  
  22677878.530      996059.7932      -2272.706          46.000  
  21283852.331     -736032.124        1549.908          50.000  
  24413332.618     1835924.333       -4046.940          38.000  
  21317863.235      820463.906       -1883.998          49.000  
  23467039.076      249428.616       -3224.346          41.000  
  23975324.804     -677317.5242       2634.017          30.000  
  23151121.739    -1037524.337        2273.270          44.000  
 18 10  7 18  0 36.0000000  0  8G30G 2G 5G 6G 7G 9G28G13
  20526690.858     -149819.277         224.270          51.000  
  22678311.180      998332.7412      -2273.117          46.000  
  21283557.442     -737581.919        1549.422          51.000  
  24414102.711     1839971.805       -4047.212          38.000  
  21318222.322      822348.200       -1884.609          49.000  
  23467652.972      252653.125       -3224.522          41.000  
  23974821.858     -679952.4953       2635.203          29.000  
  23150689.721    -1039797.934        2273.415          45.000  
 18 10  7 18  0 37.0000000  0  7G30G 2G 5G 6G 7G 9G13
  20526647.883     -150042.901         223.674          51.000  
  22678744.292     1000605.798       -2273.312          47.000  
  21283263.306     -739131.090        1549.375          50.000  
  24414872.667     1844019.408       -4047.310          39.000  
  21318581.262      824233.098       -1884.922          49.000  
  23468266.751      255877.881       -3224.442          39.000  
  23150257.200    -1042071.186        2273.764          44.000  
 18 10  7 18  0 38.0000000  0  7G30G 2G 5G 6G 7G 9G13
  20526605.300     -150266.402         223.817          51.000  
  22679177.431     1002879.340       -2273.462          48.000  
  21282968.565     -740680.294        1549.541          50.000  
  24415642.228     1848066.578       -4046.655          39.000  
  21318940.193      826118.037       -1884.735          50.000  
  23468880.536      259102.298       -3223.712          41.000  
  23149824.688    -1044344.742        2273.928          43.000  
 18 10  7 18  0 39.0000000  0  8G30G 2G 5G 6G 7G 9G28G13
  20526563.188     -150489.717         223.232          51.000  
  22679610.168     1005152.913       -2273.859          47.000  
  21282673.724     -742229.474        1548.970          51.000  
  24416412.158     1852113.369       -4046.377          39.000  
  21319298.989      828003.012       -1884.981          49.000  
  23469493.781      262326.406       -3223.864          41.000  
  23973315.536     -687857.9543       2635.298          28.000  
  23149391.497    -1046618.535        2272.891          43.000  
 18 10  7 18  0 40.0000000  0  8G30G 2G 5G 6G 7G 9G28G13
  20526521.373     -150712.206         222.256          51.000  
  22680043.025     1007427.222       -2274.701          47.000  
  21282379.474     -743777.987        1548.183          51.000  
  24417182.217     1856160.410       -4048.024          39.000  
  21319657.528      829888.690       -1885.875          50.000  
  23470107.232      265550.872       -3224.429          41.000  
  23972814.863     -690493.0593       2634.821          29.000  
  23148958.741    -1048891.929        2272.484          43.000  
 18 10  7 18  0 41.0000000  0  8G30G 2G 5G 6G 7G 9G28G13
  20526479.314     -150933.829         221.790          51.000  
  22680475.578     1009702.240       -2275.021          47.000  
  21282084.845     -745325.790        1547.894          51.000  
  24417952.956     1860207.731       -4047.325          39.000  
  21320016.839      831775.096       -1886.215          50.000  
  23470720.363      268775.719       -3224.448          41.000  
  23972314.077     -693127.7163       2634.467          28.000  
  23148526.481    -1051164.901        2273.514          43.000  
 18 10  7 18  0 42.0000000  0  8G30G 2G 5G 6G 7G 9G28G13
  20526437.302     -151155.465         221.385          51.000  
  22680908.409     1011977.135       -2274.972          47.000  
  21281790.163     -746873.764        1547.817          51.000  
  24418723.064     1864254.522       -4047.145          39.000  
  21320375.711      833661.365       -1886.244          49.000  
  23471333.780      272000.074       -3223.879          40.000  
  23971812.649     -695762.8313       2635.600          28.000  
  23148094.093    -1053438.298        2273.507          44.000  
 18 10  7 18  0 43.0000000  0  8G30G 2G 5G 6G 7G 9G28G13
  20526395.036     -151376.810         220.697          51.000  
  22681341.628     1014252.248       -2275.761          47.000  
  21281495.601     -748421.495        1547.252          51.000  
  24419493.568     1868301.021       -4046.820          39.000  
  21320734.900      835547.840       -1886.831          50.000  
  23471947.122      275224.249       -3224.073          40.000  
  23971311.945     -698398.3173       2635.110          29.000  
  23147661.241    -1055711.711        2273.270          43.000  
 18 10  7 18  0 44.0000000  0  7G30G 2G 5G 6G 7G 9G13
  20526353.482     -151597.187         219.772          52.000  
  22681774.799     1016528.170       -2276.639          47.000  
  21281201.412     -749968.491        1546.411          51.000  
  24420263.969     1872347.882       -4047.405          38.000  
  21321094.139      837435.090       -1887.816          50.000  
  23472560.419      278448.853       -3224.878          40.000  
  23147228.883    -1057984.642        2272.781          43.000  
 18 10  7 18  0 45.0000000  0  7G30G 2G 5G 6G 7G 9G13
  20526311.595     -151816.696         219.404          52.000  
  22682208.021     1018804.800       -2276.908          47.000  
  21280906.892     -751514.777        1546.052          51.000  
  24421034.252     1876395.043       -4046.404          38.000  
  21321453.288      839323.117       -1888.274          50.000  
  23473173.789      281673.868       -3225.411          40.000  
  23146796.124    -1060257.153        2272.466          43.000  
 18 10  7 18  0 46.0000000  0  7G30G 2G 5G 6G 7G 9G13
  20526269.501     -152036.040         219.480          52.000  
  22682641.547     1021081.488       -2276.515          47.000  
  21280612.199     -753061.006        1546.319          51.000  
  24421804.108     1880441.777       -4046.833          38.000  
  21321812.562      841211.175       -1887.850          49.000  
  23473786.861      284898.589       -3224.147          41.000  
  23146363.810    -1062529.904        2272.440          44.000  
 18 10  7 18  0 47.0000000  0  7G30G 2G 5G 6G 7G 9G13
  20526227.932     -152255.072         218.500          52.000  
  22683074.773     1023358.370       -2277.337          47.000  
  21280317.951     -754607.053        1545.770          51.000  
  24422573.455     1884488.305       -4047.511          38.000  
  21322172.185      843099.432       -1888.849          49.000  
  23474400.348      288123.136       -3224.749          41.000  
  23145931.704    -1064802.706        2272.244          44.000  
 18 10  7 18  0 48.0000000  0  7G30G 2G 5G 6G 7G 9G13
  20526186.968     -152472.779         217.304          51.000  
  22683509.430     1025636.448       -2278.355          49.000  
  21280024.484     -756151.933        1544.449          51.000  
  24423344.044     1888535.574       -4048.013          38.000  
  21322531.531      844988.861       -1889.973          50.000  
  23475013.961      291348.470       -3225.728          39.000  
  23145499.298    -1067074.599        2271.395          43.000  
 18 10  7 18  0 49.0000000  0  7G30G 2G 5G 6G 7G 9G13
  20526145.423     -152689.618         216.777          51.000  
  22683944.058     1027915.237       -2278.791          49.000  
  21279730.121     -757696.107        1544.016          50.000  
  24424114.442     1892583.102       -4046.704          38.000  
  21322890.824      846879.059       -1890.100          49.000  
  23475628.640      294574.243       -3226.318          39.000  
  23145066.668    -1069346.125        2271.801          42.000  
 18 10  7 18  0 50.0000000  0  8G30G 2G 5G 6G 7G 9G28G13
  20526104.051     -152906.386         216.803          52.000  
  22684377.384     1030193.944       -2279.073          47.000  
  21279436.957     -759240.390        1544.078          51.000  
  24424883.849     1896630.118       -4045.917          36.000  
  21323250.768      848769.100       -1889.824          49.000  
  23476242.881      297799.651       -3223.748          39.000  
  23967808.574     -716839.6583       2634.327          32.000  
  23144634.891    -1071617.914        2272.102          44.000  
 18 10  7 18  0 51.0000000  0  8G30G 2G 5G 6G 7G 9G28G13
  20526062.995     -153122.935         216.676          51.000  
  22684810.217     1032472.817       -2278.996          48.000  
  21279143.163     -760784.510        1544.292          51.000  
  24425653.006     1900676.810       -4046.726          36.000  
  21323610.720      850659.389       -1890.173          50.000  
  23476856.673      301024.712       -3225.144          39.000  
  23967304.442     -719474.0712       2635.060          30.000  
  23144202.315    -1073889.942        2272.492          42.000  
 18 10  7 18  0 52.0000000  0  8G30G 2G 5G 6G 7G 9G28G13
  20526022.576     -153338.667         215.362          52.000  
  22685244.356     1034752.362       -2279.816          48.000  
  21278849.474     -762327.970        1542.936          51.000  
  24426423.728     1904723.752       -4047.547          37.000  
  21323969.882      852550.310       -1891.352          49.000  
  23477469.579      304250.113       -3225.626          40.000  
  23966800.183     -722108.2233       2631.798          29.000  
  23143769.792    -1076161.525        2271.475          43.000  
 18 10  7 18  0 53.0000000  0  8G30G 2G 5G 6G 7G 9G28G13
  20525981.232     -153553.508         214.148          52.000  
  22685678.352     1037032.689       -2280.886          48.000  
  21278555.968     -763870.714        1542.096          51.000  
  24427194.617     1908771.043       -4047.065          38.000  
  21324329.841      854441.975       -1892.404          49.000  
  23478083.746      307475.948       -3227.034          40.000  
  23966296.408     -724741.8403       2632.964          29.000  
  23143338.058    -1078432.662        2270.337          43.000  
 18 10  7 18  0 54.0000000  0  8G30G 2G 5G 6G 7G 9G28G13
  20525940.340     -153768.150         214.235          52.000  
  22686112.836     1039313.012       -2280.747          48.000  
  21278262.516     -765413.404        1542.375          51.000  
  24427965.297     1912817.924       -4047.433          38.000  
  21324689.717      856333.745       -1892.215          49.000  
  23478696.953      310701.518       -3225.742          39.000  
  23965796.220     -727375.8583       2635.735          29.000  
  23142905.474    -1080704.008        2270.944          43.000  
 18 10  7 18  0 55.0000000  0  8G30G 2G 5G 6G 7G 9G28G13
  20525899.266     -153982.763         215.414          52.000  
  22686547.179     1041593.290       -2279.520          48.000  
  21277968.875     -766956.203        1543.226          51.000  
  24428735.574     1916864.250       -4046.398          38.000  
  21325049.538      858225.388       -1891.128          49.000  
  23479309.888      313926.593       -3223.912          39.000  
  23965297.255     -730010.2053       2635.519          30.000  
  23142473.201    -1082975.747        2272.268          43.000  
 18 10  7 18  0 56.0000000  0  8G30G 2G 5G 6G 7G 9G28G13
  20525858.075     -154197.337         213.500          51.000  
  22686981.724     1043873.467       -2281.116          48.000  
  21277675.482     -768499.090        1542.076          51.000  
  24429505.855     1920910.102       -4046.080          38.000  
  21325409.329      860116.939       -1892.673          49.000  
  23479923.398      317151.283       -3224.642          39.000  
  23964797.184     -732645.0392       2633.899          31.000  
  23142041.149    -1085247.845        2271.193          42.000  
 18 10  7 18  0 57.0000000  0  8G30G 2G 5G 6G 7G 9G28G13
  20525817.067     -154410.566         212.347          51.000  
  22687415.478     1046154.862       -2282.100          47.000  
  21277381.801     -770040.794        1540.869          51.000  
  24430276.422     1924956.654       -4047.575          38.000  
  21325769.467      862009.697       -1893.588          49.000  
  23480537.367      320376.747       -3226.134          40.000  
  23964297.135     -735279.0282       2632.614          30.000  
  23141609.106    -1087519.010        2270.109          43.000  
 18 10  7 18  0 58.0000000  0  8G30G 2G 5G 6G 7G 9G28G13
  20525776.292     -154622.937         212.133          51.000  
  22687849.395     1048436.961       -2282.240          47.000  
  21277088.182     -771581.759        1541.015          51.000  
  24431046.825     1929003.510       -4047.364          38.000  
  21326129.807      863903.234       -1893.692          48.000  
  23481151.366      323602.685       -3225.215          40.000  
  23963795.866     -737912.5832       2635.029          31.000  
  23141176.556    -1089789.779        2270.655          43.000  
 18 10  7 18  0 59.0000000  0  8G30G 2G 5G 6G 7G 9G28G13
  20525736.303     -154834.985         211.688          51.000  
  22688283.984     1050719.287       -2281.786          48.000  
  21276795.243     -773122.546        1540.808          51.000  
  24431816.737     1933050.136       -4046.147          37.000  
  21326490.196      865796.980       -1893.581          48.000  
  23481765.127      326828.432       -3225.392          39.000  
  23963294.284     -740546.2963       2634.037          30.000  
  23140744.550    -1092060.611        2271.702          43.000  
 18 10  7 18  1  0.0000000  0  8G30G 2G 5G 6G 7G 9G28G13
  20525695.834     -155046.411         210.517          51.000  
  22688718.466     1053002.084       -2283.460          48.000  
  21276502.498     -774662.863        1539.624          51.000  
  24432586.440     1937096.791       -4047.454          37.000  
  21326851.088      867691.186       -1894.677          48.000  
  23482378.480      330054.310       -3225.596          39.000  
  23962793.318     -743179.9133       2635.106          30.000  
  23140312.716    -1094331.229        2270.223          43.000  
 18 10  7 18  1  1.0000000  0  8G30G 2G 5G 6G 7G 9G28G13
  20525655.775     -155256.607         209.741          52.000  
  22689152.933     1055285.992       -2284.151          47.000  
  21276209.310     -776202.078        1538.839          51.000  
  24433356.104     1941144.107       -4048.598          36.000  
  21327211.729      869586.514       -1895.826          48.000  
  23482991.945      333280.960       -3226.703          38.000  
  23962292.475     -745812.7733       2632.820          30.000  
  23139880.782    -1096601.023        2269.538          43.000  
 18 10  7 18  1  2.0000000  0  8G30G 2G 5G 6G 7G 9G28G13
  20525616.475     -155466.032         209.191          52.000  
  22689586.387     1057570.618       -2285.147          46.000  
  21275916.814     -777740.601        1538.437          52.000  
  24434126.793     1945191.692       -4047.588          31.000  
  21327572.172      871482.492       -1896.070          47.000  
  23483604.670      336507.856       -3225.492          35.000  
  23961791.637     -748445.3932       2631.104          31.000  
  23139448.795    -1098870.341        2268.913          43.000  
 18 10  7 18  1  3.0000000  0  8G30G 2G 5G 6G 7G 9G28G13
  20525576.463     -155675.280         208.817          51.000  
  22690021.434     1059855.246       -2284.614          47.000  
  21275623.380     -779279.162        1538.070          52.000  
  24434897.612     1949238.839       -4046.840          36.000  
  21327932.159      873378.483       -1896.034          48.000  
  23484219.932      339734.435       -3226.943          38.000  
  23961292.382     -751078.2102       2632.869          33.000  
  23139016.976    -1101140.008        2269.325          43.000  
 18 10  7 18  1  4.0000000  0  8G30G 2G 5G 6G 7G 9G28G13
  20525536.023     -155883.842         208.673          51.000  
  22690457.387     1062140.390       -2284.505          46.000  
  21275330.764     -780817.203        1538.336          51.000  
  24435668.293     1953286.064       -4047.144          36.000  
  21328293.322      875275.057       -1896.192          48.000  
  23484835.515      342961.260       -3225.582          39.000  
  23960793.604     -753710.7782       2633.036          34.000  
  23138585.330    -1103409.476        2269.928          43.000  
 18 10  7 18  1  5.0000000  0  8G30G 2G 5G 6G 7G 9G28G13
  20525496.904     -156092.159         207.870          51.000  
  22690890.359     1064425.669       -2285.452          45.000  
  21275038.879     -782355.112        1537.467          52.000  
  24436440.388     1957333.000       -4046.503          33.000  
  21328653.713      877171.739       -1897.209          47.000  
  23485448.766      346187.820       -3227.705          37.000  
  23960291.804     -756343.6992       2633.188          33.000  
  23138153.686    -1105679.031        2269.195          43.000  
 18 10  7 18  1  6.0000000  0  8G30G 2G 5G 6G 7G 9G28G13
  20525456.731     -156299.566         207.132          51.000  
  22691325.616     1066711.749       -2286.376          46.000  
  21274745.857     -783892.309        1536.906          51.000  
  24437211.590     1961380.206       -4047.453          36.000  
  21329015.235      879069.161       -1897.524          47.000  
  23486062.985      349414.798       -3227.645          39.000  
  23959791.323     -758976.0202       2633.290          33.000  
  23137722.181    -1107948.148        2268.792          44.000  
 18 10  7 18  1  7.0000000  0  8G30G 2G 5G 6G 7G 9G28G13
  20525416.251     -156506.684         207.092          49.000  
  22691761.252     1068997.981       -2286.114          48.000  
  21274452.708     -785429.387        1537.228          51.000  
  24437980.730     1965427.177       -4045.983          36.000  
  21329376.647      880966.741       -1897.699          48.000  
  23486677.488      352641.599       -3226.969          39.000  
  23959291.961     -761608.5932       2633.124          35.000  
  23137290.762    -1110217.411        2269.212          43.000  
 18 10  7 18  1  8.0000000  0  8G30G 2G 5G 6G 7G 9G28G13
  20525376.397     -156713.657         206.494          50.000  
  22692196.608     1071284.195       -2286.279          48.000  
  21274160.007     -786966.351        1536.658          51.000  
  24438748.066     1969473.720       -4047.394          37.000  
  21329738.109      882864.407       -1897.863          48.000  
  23487292.305      355868.095       -3226.198          39.000  
  23958793.268     -764241.5712       2633.070          36.000  
  23136859.556    -1112486.835        2269.543          44.000  
 18 10  7 18  1  9.0000000  0  8G30G 2G 5G 6G 7G 9G28G13
  20525337.926     -156919.691         205.705          51.000  
  22692630.390     1073571.274       -2287.465          46.000  
  21273868.447     -788502.504        1535.954          52.000  
  24439517.376     1973520.592       -4047.447          36.000  
  21330099.001      884762.877       -1898.839          47.000  
  23487905.983      359094.966       -3227.137          39.000  
  23958293.071     -766874.1682       2630.924          33.000  
  23136428.230    -1114755.737        2269.073          45.000  
 18 10  7 18  1 10.0000000  0  8G30G 2G 5G 6G 7G 9G28G13
  20525299.609     -157124.647         205.143          51.000  
  22693064.765     1075859.295       -2287.783          46.000  
  21273576.596     -790037.751        1535.443          51.000  
  24440286.890     1977568.019       -4047.524          36.000  
  21330460.495      886662.301       -1899.267          48.000  
  23488520.119      362322.487       -3227.190          39.000  
  23957792.900     -769506.0212       2632.880          34.000  
  23135996.797    -1117024.001        2268.499          42.000  
 18 10  7 18  1 11.0000000  0  8G30G 2G 5G 6G 7G 9G28G13
  20525260.486     -157329.170         204.574          50.000  
  22693499.267     1078147.554       -2288.095          46.000  
  21273284.434     -791572.798        1535.194          52.000  
  24441056.586     1981615.267       -4047.735          36.000  
  21330822.249      888561.984       -1899.587          47.000  
  23489134.210      365549.975       -3226.574          38.000  
  23957292.259     -772137.9602       2633.162          34.000  
  23135565.312    -1119292.328        2268.727          45.000  
 18 10  7 18  1 12.0000000  0  8G30G 2G 5G 6G 7G 9G28G13
  20525221.410     -157533.516         203.612          50.000  
  22693934.410     1080435.933       -2288.972          45.000  
  21272992.537     -793107.736        1534.238          52.000  
  24441826.245     1985662.116       -4046.982          35.000  
  21331183.665      890461.718       -1900.248          47.000  
  23489747.797      368777.101       -3227.446          37.000  
  23956792.267     -774770.2002       2633.021          35.000  
  23135133.751    -1121560.810        2267.859          46.000  
 18 10  7 18  1 13.0000000  0  8G30G 2G 5G 6G 7G 9G28G13
  20525182.817     -157736.903         203.380          50.000  
  22694369.422     1082725.105       -2289.085          45.000  
  21272700.829     -794641.849        1534.126          52.000  
  24442596.040     1989709.371       -4046.614          35.000  
  21331544.832      892362.310       -1900.315          47.000  
  23490362.313      372004.744       -3228.049          37.000  
  23956291.718     -777402.496        2631.590          35.000  
  23134701.948    -1123828.741        2268.243          45.000  
 18 10  7 18  1 14.0000000  0  8G30G 2G 5G 6G 7G 9G28G13
  20525144.104     -157939.590         202.212          50.000  
  22694804.478     1085014.852       -2289.931          45.000  
  21272409.382     -796175.470        1533.431          52.000  
  24443366.467     1993756.698       -4047.875          35.000  
  21331906.178      894263.445       -1901.233          47.000  
  23490976.999      375232.589       -3227.984          37.000  
  23955791.824     -780033.996        2630.746          35.000  
  23134270.506    -1126096.453        2267.375          45.000  
 18 10  7 18  1 15.0000000  0  8G30G 2G 5G 6G 7G 9G28G13
  20525104.802     -158142.149         202.745          50.000  
  22695240.600     1087304.583       -2289.468          45.000  
  21272116.903     -797709.095        1533.754          52.000  
  24444135.814     1997803.604       -4046.104          35.000  
  21332268.290      896164.570       -1900.982          48.000  
  23491591.737      378460.091       -3226.132          37.000  
  23955291.871     -782665.887        2631.819          36.000  
  23133838.465    -1128364.437        2268.225          45.000  
 18 10  7 18  1 16.0000000  0  8G30G 2G 5G 6G 7G 9G28G13
  20525066.431     -158344.955         202.229          50.000  
  22695676.160     1089593.976       -2290.069          45.000  
  21271825.835     -799243.016        1533.660          52.000  
  24444905.698     2001849.758       -4046.950          35.000  
  21332630.172      898065.388       -1901.085          48.000  
  23492205.983      381686.879       -3226.898          37.000  
  23954792.036     -785298.470        2632.194          36.000  
  23133406.786    -1130632.997        2267.881          45.000  
 18 10  7 18  1 17.0000000  0  8G30G 2G 5G 6G 7G 9G28G13
  20525028.566     -158546.721         200.965          51.000  
  22696111.634     1091884.333       -2290.877          45.000  
  21271534.155     -800776.047        1532.518          53.000  
  24445675.231     2005896.353       -4047.468          35.000  
  21332991.854      899967.095       -1902.451          48.000  
  23492820.268      384914.183       -3228.205          37.000  
  23954291.306     -787930.509        2631.189          37.000  
  23132975.209    -1132900.932        2267.228          45.000  
 18 10  7 18  1 18.0000000  0  8G30G 2G 5G 6G 7G 9G28G13
  20524990.470     -158747.420         200.948          51.000  
  22696547.770     1094175.535       -2291.048          45.000  
  21271242.488     -802308.228        1532.488          52.000  
  24446444.284     2009943.387       -4046.333          35.000  
  21333353.754      901869.706       -1902.238          48.000  
  23493434.696      388142.076       -3226.037          38.000  
  23953791.268     -790561.933        2631.663          37.000  
  23132544.012    -1135168.301        2267.835          45.000  
 18 10  7 18  1 19.0000000  0  8G30G 2G 5G 6G 7G 9G28G13
  20524951.992     -158947.993         199.608          50.000  
  22696983.484     1096466.743       -2291.695          45.000  
  21270951.054     -803840.429        1531.270          52.000  
  24447213.568     2013989.957       -4046.629          35.000  
  21333716.339      903772.314       -1903.538          48.000  
  23494049.164      391369.655       -3227.590          37.000  
  23953291.223     -793193.700        2631.121          37.000  
  23132112.741    -1137435.978        2266.929          45.000  
 18 10  7 18  1 20.0000000  0  8G30G 2G 5G 6G 7G 9G28G13
  20524913.678     -159148.049         199.938          51.000  
  22697419.009     1098758.361       -2291.463          45.000  
  21270659.334     -805372.180        1531.683          52.000  
  24447983.284     2018036.572       -4046.733          35.000  
  21334078.615      905675.369       -1902.954          48.000  
  23494662.278      394597.253       -3226.731          35.000  
  23952791.113     -795825.434        2632.476          38.000  
  23131681.404    -1139703.468        2267.197          46.000  
 18 10  7 18  1 21.0000000  0  8G30G 2G 5G 6G 7G 9G28G13
  20524875.759     -159347.669         199.318          50.000  
  22697855.299     1101050.281       -2292.477          45.000  
  21270367.859     -806903.660        1531.253          52.000  
  24448753.314     2022082.966       -4047.147          33.000  
  21334440.434      907578.666       -1903.572          47.000  
  23495276.091      397824.727       -3226.627          35.000  
  23952290.412     -798457.244        2632.258          37.000  
  23131250.209    -1141970.930        2267.350          45.000  
 18 10  7 18  1 22.0000000  0  8G30G 2G 5G 6G 7G 9G28G13
  20524837.746     -159546.402         197.926          50.000  
  22698291.708     1103342.981       -2292.782          45.000  
  21270076.004     -808434.435        1530.287          52.000  
  24449522.694     2026129.698       -4047.325          33.000  
  21334803.065      909482.714       -1904.466          47.000  
  23495891.220      401052.679       -3228.377          37.000  
  23951790.129     -801088.611        2631.685          38.000  
  23130818.421    -1144237.973        2266.941          45.000  
 18 10  7 18  1 23.0000000  0  8G30G 2G 5G 6G 7G 9G28G13
  20524799.863     -159744.621         197.958          50.000  
  22698728.229     1105636.071       -2293.203          45.000  
  21269784.463     -809964.795        1530.468          52.000  
  24450291.830     2030176.365       -4045.847          34.000  
  21335165.312      911387.185       -1904.299          48.000  
  23496506.048      404280.664       -3228.229          37.000  
  23951289.238     -803719.935        2631.862          38.000  
  23130386.869    -1146504.870        2266.945          45.000  
 18 10  7 18  1 24.0000000  0  8G30G 2G 5G 6G 7G 9G28G13
  20524762.219     -159942.626         198.095          50.000  
  22699165.294     1107929.226       -2292.897          45.000  
  21269493.335     -811495.102        1530.583          52.000  
  24451060.896     2034222.665       -4046.081          34.000  
  21335527.384      913291.713       -1904.340          48.000  
  23497121.587      407508.371       -3226.674          38.000  
  23950788.812     -806351.554        2631.518          38.000  
  23129955.405    -1148771.977        2267.288          45.000  
 18 10  7 18  1 25.0000000  0  8G30G 2G 5G 6G 7G 9G28G13
  20524725.002     -160140.134         196.797          50.000  
  22699602.103     1110222.701       -2293.981          45.000  
  21269202.119     -813025.090        1529.571          52.000  
  24451830.307     2038268.890       -4046.150          34.000  
  21335889.766      915196.597       -1905.385          47.000  
  23497736.402      410736.098       -3228.132          37.000  
  23950288.573     -808983.102        2631.255          38.000  
  23129523.541    -1151039.085        2266.355          45.000  
 18 10  7 18  1 26.0000000  0  8G30G 2G 5G 6G 7G 9G28G13
  20524688.138     -160336.654         195.340          50.000  
  22700038.614     1112517.071       -2295.286          45.000  
  21268910.868     -814554.220        1528.128          52.000  
  24452600.036     2042315.507       -4044.457          33.000  
  21336253.001      917102.348       -1906.392          47.000  
  23498350.322      413964.346       -3230.229          36.000  
  23949789.373     -811614.140        2630.176          38.000  
  23129092.239    -1153305.542        2265.662          45.000  
 18 10  7 18  1 27.0000000  0  8G30G 2G 5G 6G 7G 9G28G13
  20524650.437     -160532.752         196.290          50.000  
  22700475.094     1114811.752       -2294.178          45.000  
  21268619.561     -816083.009        1529.271          52.000  
  24453368.847     2046362.028       -4044.177          33.000  
  21336616.206      919008.393       -1905.804          48.000  
  23498964.666      417192.506       -3228.179          39.000  
  23949289.214     -814245.311        2631.339          37.000  
  23128660.833    -1155571.958        2266.915          44.000  
 18 10  7 18  1 28.0000000  0  8G30G 2G 5G 6G 7G 9G28G13
  20524612.725     -160728.654         195.925          50.000  
  22700912.296     1117106.457       -2294.421          45.000  
  21268328.598     -817611.724        1528.618          52.000  
  24454139.108     2050408.105       -4045.245          32.000  
  21336979.205      920914.560       -1905.969          49.000  
  23499579.540      420420.385       -3227.359          40.000  
  23948789.314     -816876.678        2632.048          38.000  
  23128229.777    -1157838.635        2266.807          44.000  
 18 10  7 18  1 29.0000000  0  8G30G 2G 5G 6G 7G 9G28G13
  20524575.587     -160923.720         194.630          50.000  
  22701348.853     1119401.941       -2295.775          45.000  
  21268037.862     -819139.767        1527.698          52.000  
  24454909.066     2054454.487       -4046.309          33.000  
  21337341.755      922821.435       -1907.281          48.000  
  23500193.866      423648.646       -3228.334          39.000  
  23948288.353     -819507.668        2630.659          38.000  
  23127798.452    -1160104.867        2265.842          46.000  
 18 10  7 18  1 30.0000000  0  8G30G 2G 5G 6G 7G 9G28G13
  20524538.477     -161118.000         194.098          50.000  
  22701785.800     1121698.028       -2296.244          45.000  
  21267746.984     -820667.190        1527.376          52.000  
  24455679.692     2058501.008       -4047.916          33.000  
  21337704.728      924728.920       -1907.661          48.000  
  23500808.663      426877.189       -3227.981          40.000  
  23947787.547     -822138.391        2629.785          37.000  
  23127366.971    -1162370.748        2266.208          45.000  
 18 10  7 18  1 31.0000000  0  8G30G 2G 5G 6G 7G 9G28G13
  20524502.136     -161311.671         194.115          50.000  
  22702222.328     1123994.602       -2296.315          45.000  
  21267456.185     -822194.163        1527.379          52.000  
  24456450.145     2062547.634       -4045.406          33.000  
  21338067.824      926636.870       -1907.579          47.000  
  23501423.264      430105.845       -3228.173          39.000  
  23947286.682     -824768.952        2632.469          37.000  
  23126935.983    -1164636.462        2266.006          45.000  
 18 10  7 18  1 32.0000000  0  8G30G 2G 5G 6G 7G 9G28G13
  20524465.583     -161505.278         193.185          50.000  
  22702659.480     1126291.123       -2296.597          45.000  
  21267165.770     -823721.161        1526.763          52.000  
  24457220.773     2066593.749       -4045.679          34.000  
  21338430.668      928544.778       -1907.929          47.000  
  23502037.813      433334.116       -3228.171          39.000  
  23946785.629     -827399.932        2630.557          37.000  
  23126504.300    -1166902.476        2266.443          45.000  
 18 10  7 18  1 33.0000000  0  8G30G 2G 5G 6G 7G 9G28G13
  20524429.391     -161698.570         192.655          51.000  
  22703096.590     1128587.782       -2297.401          45.000  
  21266875.097     -825248.021        1526.350          52.000  
  24457991.303     2070639.558       -4046.581          34.000  
  21338793.877      930452.880       -1908.984          47.000  
  23502652.447      436562.172       -3228.848          39.000  
  23946284.601     -830031.094        2631.089          37.000  
  23126073.079    -1169168.618        2265.856          45.000  
 18 10  7 18  1 34.0000000  0  8G30G 2G 5G 6G 7G 9G28G13
  20524392.719     -161890.881         191.950          51.000  
  22703533.908     1130885.303       -2297.889          45.000  
  21266584.767     -826774.051        1525.487          52.000  
  24458762.578     2074685.787       -4046.799          34.000  
  21339156.907      932361.814       -1908.942          47.000  
  23503266.624      439790.763       -3228.878          39.000  
  23945783.826     -832661.721        2630.356          37.000  
  23125642.355    -1171434.212        2265.457          45.000  
 18 10  7 18  1 35.0000000  0  8G30G 2G 5G 6G 7G 9G28G13
  20524357.082     -162082.152         190.973          51.000  
  22703970.905     1133183.760       -2299.082          44.000  
  21266294.581     -828299.204        1524.763          52.000  
  24459534.135     2078732.502       -4046.240          35.000  
  21339520.670      934271.656       -1909.948          47.000  
  23503880.370      443019.915       -3229.776          38.000  
  23945283.541     -835291.734        2630.270          37.000  
  23125211.110    -1173699.189        2264.333          45.000  
 18 10  7 18  1 36.0000000  0  8G30G 2G 5G 6G 7G 9G28G13
  20524321.350     -162272.889         190.978          51.000  
  22704408.135     1135482.613       -2298.788          44.000  
  21266004.414     -829823.927        1524.876          52.000  
  24460304.750     2082779.125       -4046.902          35.000  
  21339884.082      936181.897       -1909.770          48.000  
  23504494.420      446249.049       -3228.533          38.000  
  23944783.272     -837921.780        2630.906          37.000  
  23124779.564    -1175963.988        2265.191          44.000  
 18 10  7 18  1 37.0000000  0  8G30G 2G 5G 6G 7G 9G28G13
  20524284.977     -162463.980         190.756          50.000  
  22704844.596     1137781.001       -2297.899          43.000  
  21265714.540     -831349.079        1525.202          52.000  
  24461075.354     2086824.900       -4044.732          35.000  
  21340247.184      938091.684       -1909.645          48.000  
  23505108.558      449477.428       -3228.557          39.000  
  23944282.158     -840552.684        2631.230          36.000  
  23124347.388    -1178229.545        2265.785          42.000  
 18 10  7 18  1 38.0000000  0  8G30G 2G 5G 6G 7G 9G28G13
  20524248.991     -162654.336         189.747          50.000  
  22705282.042     1140080.015       -2299.089          43.000  
  21265424.424     -832873.674        1524.139          52.000  
  24461845.174     2090870.783       -4046.093          35.000  
  21340610.811      940002.045       -1911.164          48.000  
  23505722.952      452706.009       -3228.612          40.000  
  23943780.900     -843183.245        2630.930          37.000  
  23123915.970    -1180494.781        2264.750          42.000  
 18 10  7 18  1 39.0000000  0  8G30G 2G 5G 6G 7G 9G28G13
  20524212.325     -162843.699         189.293          50.000  
  22705719.580     1142379.812       -2300.293          43.000  
  21265134.453     -834397.425        1523.733          52.000  
  24462615.800     2094917.105       -4045.744          35.000  
  21340974.413      941913.302       -1910.916          48.000  
  23506337.937      455935.129       -3228.421          40.000  
  23943280.515     -845813.310        2630.678          37.000  
  23123484.701    -1182759.470        2264.677          42.000  
 18 10  7 18  1 40.0000000  0  8G30G 2G 5G 6G 7G 9G28G13
  20524176.260     -163032.854         189.295          50.000  
  22706157.819     1144679.732       -2299.853          43.000  
  21264844.780     -835921.128        1523.874          52.000  
  24463386.286     2098963.054       -4045.039          35.000  
  21341337.966      943824.600       -1911.147          48.000  
  23506953.123      459163.938       -3228.642          40.000  
  23942779.869     -848443.608        2630.107          38.000  
  23123052.985    -1185024.369        2264.818          42.000  
 18 10  7 18  1 41.0000000  0  8G30G 2G 5G 6G 7G 9G28G13
  20524141.266     -163221.865         188.771          51.000  
  22706595.263     1146979.672       -2300.043          43.000  
  21264554.766     -837444.821        1523.506          52.000  
  24464157.191     2103008.523       -4046.037          36.000  
  21341701.435      945735.931       -1911.569          48.000  
  23507567.865      462392.438       -3228.317          40.000  
  23942279.290     -851074.250        2630.343          37.000  
  23122621.491    -1187289.509        2265.027          42.000  
 18 10  7 18  1 42.0000000  0  8G30G 2G 5G 6G 7G 9G28G13
  20524105.567     -163409.893         187.590          51.000  
  22707033.008     1149280.423       -2301.211          43.000  
  21264264.885     -838967.666        1522.432          52.000  
  24464927.592     2107054.450       -4046.838          35.000  
  21342065.588      947648.125       -1912.711          48.000  
  23508182.602      465621.433       -3229.101          40.000  
  23941778.682     -853704.387        2630.044          37.000  
  23122191.014    -1189554.116        2264.485          42.000  
 18 10  7 18  1 43.0000000  0  8G30G 2G 5G 6G 7G 9G28G13
  20524069.607     -163596.963         186.504          50.000  
  22707471.148     1151582.095       -2302.221          43.000  
  21263975.833     -840489.663        1521.556          53.000  
  24465698.211     2111100.769       -4046.683          36.000  
  21342429.868      949561.128       -1913.493          48.000  
  23508797.953      468850.921       -3229.713          41.000  
  23941278.430     -856334.004        2629.899          37.000  
  23121760.268    -1191818.115        2263.794          42.000  
 18 10  7 18  1 44.0000000  0  8G30G 2G 5G 6G 7G 9G28G13
  20524033.249     -163783.571         186.552          51.000  
  22707909.382     1153884.043       -2301.847          43.000  
  21263686.487     -842011.358        1521.693          53.000  
  24466468.228     2115146.962       -4046.020          36.000  
  21342794.076      951474.477       -1913.699          48.000  
  23509413.086      472080.363       -3229.083          41.000  
  23940777.653     -858963.692        2629.586          36.000  
  23121329.183    -1194082.091        2264.434          42.000  
 18 10  7 18  1 45.0000000  0  8G30G 2G 5G 6G 7G 9G28G13
  20523998.246     -163969.945         185.947          50.000  
  22708347.873     1156186.054       -2302.356          43.000  
  21263396.940     -843532.968        1521.256          53.000  
  24467239.381     2119192.764       -4045.428          37.000  
  21343158.473      953387.941       -1913.920          48.000  
  23510027.890      475309.536       -3229.262          42.000  
  23940276.849     -861593.571        2629.151          37.000  
  23120898.171    -1196346.287        2263.750          42.000  
 18 10  7 18  1 46.0000000  0  8G30G 2G 5G 6G 7G 9G28G13
  20523962.294     -164155.327         185.037          50.000  
  22708786.297     1158489.004       -2303.686          44.000  
  21263107.700     -845053.715        1520.345          53.000  
  24468010.253     2123239.062       -4046.626          37.000  
  21343522.790      955302.247       -1914.571          48.000  
  23510642.099      478539.275       -3229.820          41.000  
  23939776.595     -864222.944        2627.892          37.000  
  23120467.683    -1198609.844        2263.435          42.000  
 18 10  7 18  1 47.0000000  0  8G30G 2G 5G 6G 7G 9G28G13
  20523927.254     -164339.976         184.326          51.000  
  22709224.313     1160792.535       -2303.468          43.000  
  21262818.389     -846573.871        1519.688          53.000  
  24468780.229     2127285.438       -4046.292          38.000  
  21343887.020      957217.164       -1915.243          49.000  
  23511256.582      481769.211       -3230.396          42.000  
  23939275.394     -866852.056        2627.741          36.000  
  23120036.804    -1200873.122        2263.193          42.000  
 18 10  7 18  1 48.0000000  0  8G30G 2G 5G 6G 7G 9G28G13
  20523892.140     -164524.171         184.140          50.000  
  22709663.264     1163096.356       -2303.919          44.000  
  21262529.153     -848093.696        1519.958          53.000  
  24469550.940     2131331.734       -4045.988          38.000  
  21344251.352      959132.407       -1915.185          49.000  
  23511871.506      484999.125       -3229.541          41.000  
  23938774.666     -869481.148        2629.350          36.000  
  23119606.942    -1203136.332        2263.185          42.000  
 18 10  7 18  1 49.0000000  0  8G30G 2G 5G 6G 7G 9G28G13
  20523857.248     -164707.741         183.854          50.000  
  22710101.976     1165400.679       -2303.974          44.000  
  21262240.461     -849613.060        1519.635          53.000  
  24470321.570     2135378.081       -4045.894          37.000  
  21344616.142      961048.153       -1915.231          49.000  
  23512486.746      488229.237       -3229.408          43.000  
  23938274.205     -872110.154        2629.178          37.000  
  23119176.382    -1205399.361        2263.544          42.000  
 18 10  7 18  1 50.0000000  0  8G30G 2G 5G 6G 7G 9G28G13
  20523822.224     -164891.206         182.776          50.000  
  22710540.698     1167704.957       -2304.956          44.000  
  21261951.239     -851132.419        1518.990          53.000  
  24471092.841     2139423.938       -4046.632          34.000  
  21344981.002      962963.899       -1915.821          48.000  
  23513101.510      491458.928       -3229.978          43.000  
  23937774.261     -874739.480        2627.996          37.000  
  23118745.098    -1207662.667        2263.205          42.000  
 18 10  7 18  1 51.0000000  0  8G30G 2G 5G 6G 7G 9G28G13
  20523787.862     -165073.671         182.387          50.000  
  22710979.975     1170010.125       -2305.089          45.000  
  21261662.192     -852650.982        1518.380          53.000  
  24471864.769     2143470.201       -4046.677          37.000  
  21345345.173      964880.422       -1916.883          47.000  
  23513717.191      494689.106       -3230.535          42.000  
  23937274.236     -877368.305        2628.076          37.000  
  23118314.271    -1209925.440        2262.003          42.000  
 18 10  7 18  1 52.0000000  0  8G30G 2G 5G 6G 7G 9G28G13
  20523753.079     -165255.457         181.869          50.000  
  22711418.590     1172315.899       -2305.518          44.000  
  21261373.273     -854168.915        1518.357          53.000  
  24472634.954     2147516.637       -4045.590          35.000  
  21345709.830      966797.576       -1917.055          48.000  
  23514331.847      497919.541       -3229.941          43.000  
  23936773.589     -879996.906        2629.234          36.000  
  23117883.934    -1212187.807        2262.540          40.000  
 18 10  7 18  1 53.0000000  0  8G30G 2G 5G 6G 7G 9G28G13
  20523717.983     -165437.250         181.988          48.000  
  22711857.291     1174621.535       -2305.103          41.000  
  21261083.372     -855686.901        1518.621          51.000  
  24473401.858     2151562.0603      -4044.213          30.000  
  21346075.101      968714.627       -1916.618          48.000  
  23514946.797      501149.500       -3229.646          44.000  
  23936272.447     -882626.194        2629.009          33.000  
  23117452.237    -1214450.488        2264.074          40.000  
 18 10  7 18  1 54.0000000  0  8G30G 2G 5G 6G 7G 9G28G13
  20523681.392     -165618.530         180.039          50.000  
  22712298.275     1176927.203       -2306.726          47.000  
  21260793.147     -857204.844        1517.037          51.000  
  24474167.550     2155607.9463      -4046.774          39.000  
  21346439.760      970632.123       -1917.864          50.000  
  23515559.878      504379.693       -3231.789          39.000  
  23935773.659     -885254.5153       2628.362          38.000  
  23117019.989    -1216713.675        2262.331          41.000  
 18 10  7 18  1 55.0000000  0  8G30G 2G 5G 6G 7G 9G28G13
  20523649.399     -165798.414         179.372          52.000  
  22712738.900     1179234.385       -2307.114          45.000  
  21260506.335     -858721.486        1516.010          52.000  
  24474931.232     2159654.9413      -4047.365          39.000  
  21346804.537      972550.614       -1918.855          50.000  
  23516172.644      507610.219       -3235.261          30.000  
  23935273.247     -887882.6772       2627.054          38.000  
  23116588.670    -1218975.495        2262.175          36.000  
 18 10  7 18  1 56.0000000  0  8G30G 2G 5G 6G 7G 9G28G13
  20523615.050     -165977.769         179.184          51.000  
  22713179.804     1181541.817       -2306.985          44.000  
  21260217.944     -860237.869        1516.291          49.000  
  24475707.233     2163701.4622      -4043.441          31.000  
  21347170.106      974469.722       -1919.531          50.000  
  23516786.562      510842.2693      -3231.716          29.000  
  23934771.916     -890510.3822       2628.006          39.000  
  23116158.749    -1221237.581        2263.553          37.000  
 18 10  7 18  1 57.0000000  0  8G30G 2G 5G 6G 7G 9G28G13
  20523578.837     -166156.796         178.961          50.000  
  22713618.973     1183849.278       -2307.549          41.000  
  21259928.362     -861754.360        1517.082          46.000  
  24476478.870     2167747.5503      -4044.823          35.000  
  21347535.350      976388.886       -1918.569          51.000  
  23517403.081      514073.2152      -3230.344          40.000  
  23934272.739     -893137.9192       2627.803          32.000  
  23115728.577    -1223500.073        2262.027          43.000  
 18 10  7 18  1 58.0000000  0  8G30G 2G 5G 6G 7G 9G28G13
  20523546.593     -166335.569         178.484          51.000  
  22714056.542     1186157.305       -2308.667          42.000  
  21259639.783     -863270.364        1515.700          46.000  
  24477276.326     2171792.9842      -4046.305          40.000  
  21347900.926      978308.070       -1919.462          50.000  
  23518019.647      517303.7552      -3230.225          38.000  
  23933772.383     -895766.2102       2626.954          37.000  
  23115300.028    -1225762.003        2261.850          43.000  
 18 10  7 18  1 59.0000000  0  7G30G 2G 5G 7G 9G28G13
  20523512.862     -166513.206         177.051          50.000  
  22714494.765     1188465.931       -2309.587          40.000  
  21259350.858     -864785.204        1513.297          47.000  
  21348265.716      980228.595       -1921.689          52.000  
  23518634.050      520534.8232      -3231.927          40.000  
  23933272.070     -898394.0633       2626.786          36.000  
  23114870.580    -1228023.453        2260.876          41.000  
 18 10  7 18  2  0.0000000  0  8G30G 2G 5G 6G 7G 9G28G13
  20523479.898     -166690.278         176.412          51.000  
  22714933.684     1190775.454       -2309.827          41.000  
  21259062.519     -866299.432        1513.682          47.000  
  24478814.562     2179887.8993      -4047.075          37.000  
  21348631.562      982149.403       -1921.460          51.000  
  23519248.337      523765.9822      -3231.708          43.000  
  23932772.686     -901021.8533       2626.961          36.000  
  23114439.457    -1230284.475        2261.288          45.000  
 18 10  7 18  2  1.0000000  0  8G30G 2G 5G 6G 7G 9G28G13
  20523446.865     -166867.058         176.521          52.000  
  22715372.426     1193084.928       -2310.070          41.000  
  21258774.458     -867813.755        1513.686          47.000  
  24479587.847     2183933.9323      -4046.790          31.000  
  21348996.932      984070.334       -1921.254          51.000  
  23519863.790      526997.0562      -3231.033          44.000  
  23932272.323     -903649.6183       2627.808          39.000  
  23114008.995    -1232545.682        2261.263          46.000  
 18 10  7 18  2  2.0000000  0  7G30G 2G 5G 7G 9G28G13
  20523413.136     -167043.610         175.740          52.000  
  22715811.421     1195394.547       -2310.271          41.000  
  21258486.581     -869327.893        1513.290          47.000  
  21349362.440      985991.378       -1921.773          51.000  
  23520479.266      530227.8632      -3231.388          45.000  
  23931769.772     -906277.6712       2627.672          38.000  
  23113578.629    -1234807.060        2260.761          46.000  
 18 10  7 18  2  3.0000000  0  7G30G 2G 5G 7G 9G28G13
  20523379.300     -167219.269         175.605          51.000  
  22716251.025     1197704.607       -2310.490          41.000  
  21258198.363     -870841.291        1513.090          45.000  
  21349728.009      987913.344       -1922.051          52.000  
  23521093.883      533459.3872      -3232.208          42.000  
  23931275.638     -908905.4092       2628.552          39.000  
  23113147.949    -1237068.031        2260.677          47.000  
 18 10  7 18  2  4.0000000  0  8G30G 2G 5G 6G 7G 9G28G13
  20523345.704     -167393.618         175.146          51.000  
  22716692.334     1200016.530       -2310.295          47.000  
  21257910.772     -872353.402        1513.039          48.000  
  24481909.539     2196071.8063      -4042.534          35.000  
  21350094.178      989836.192       -1921.976          51.000  
  23521707.585      536691.1082      -3231.020          44.000  
  23930774.954     -911532.2123       2627.290          39.000  
  23112717.526    -1239327.870        2260.826          44.000  
 18 10  7 18  2  5.0000000  0  7G30G 2G 5G 7G 9G28G13
  20523313.114     -167567.713         173.729          52.000  
  22717131.473     1202328.084       -2311.969          45.000  
  21257623.683     -873865.638        1512.090          50.000  
  21350459.884      991759.399       -1923.594          50.000  
  23522322.522      539922.9462      -3231.840          42.000  
  23930273.823     -914159.1732       2627.798          36.000  
  23112288.683    -1241588.199        2260.147          45.000  
 18 10  7 18  2  6.0000000  0  8G30G 2G 5G 6G 7G 9G28G13
  20523279.011     -167741.547         174.655          51.000  
  22717571.701     1204639.790       -2311.465          42.000  
  21257336.422     -875377.938        1513.004          49.000  
  24483441.254     2204165.1223      -4046.135          38.000  
  21350825.931      993682.559       -1921.763          50.000  
  23522939.749      543154.0253      -3231.686          30.000  
  23929777.491     -916786.4532       2628.364          38.000  
  23111859.093    -1243848.703        2261.753          42.000  
 18 10  7 18  2  7.0000000  0  8G30G 2G 5G 6G 7G 9G28G13
  20523246.486     -167914.993         172.450          51.000  
  22718012.731     1206951.738       -2311.851          45.000  
  21257047.619     -876889.951        1511.305          46.000  
  24484197.346     2208210.4623      -4044.060          34.000  
  21351191.302      995605.692       -1924.648          47.000  
  23523553.635      546385.4493      -3232.550          30.000  
  23929268.207     -919413.5142       2627.848          44.000  
  23111428.956    -1246109.492        2259.354          41.000  
 18 10  7 18  2  8.0000000  0  8G30G 2G 5G 6G 7G 9G28G13
  20523211.261     -168087.806         172.324          48.000  
  22718452.675     1209264.181       -2313.146          50.000  
  21256760.956     -878400.741        1510.833          45.000  
  24484957.831     2212256.8513      -4047.031          34.000  
  21351558.611      997530.158       -1923.931          51.000  
  23524167.374      549617.4513      -3231.305          39.000  
  23928777.764     -922041.4383       2626.594          41.000  
  23110999.395    -1248369.327        2259.314          42.000  
 18 10  7 18  2  9.0000000  0  7G30G 2G 5G 7G 9G28G13
  20523179.547     -168258.795         169.928          45.000  
  22718893.404     1211579.0083      -2314.137          32.000  
  21256474.211     -879911.393        1510.362          51.000  
  21351925.925      999455.261       -1926.603          50.000  
  23524779.837      552850.1823      -3233.770          35.000  
  23928269.685     -924666.7693       2623.313          44.000  
  23110568.469    -1250629.195        2259.851          44.000  
 18 10  7 18  2 10.0000000  0  8G30G 2G 5G 6G 7G 9G28G13
  20523147.814     -168428.892         171.106          50.000  
  22719333.904     1213893.4502      -2315.911          38.000  
  21256186.767     -881421.867        1511.265          52.000  
  24486478.393     2220352.2983      -4048.201          40.000  
  21352290.609     1001381.002       -1922.972          43.000  
  23525399.543      556083.3773      -3232.041          43.000  
  23927771.253     -927290.5552       2624.854          38.000  
  23110138.205    -1252888.719        2259.641          43.000  
 18 10  7 18  2 11.0000000  0  8G30G 2G 5G 6G 7G 9G28G13
  20523114.513     -168600.250         170.691          53.000  
  22719774.586     1216208.2533      -2311.594          37.000  
  21255898.524     -882931.182        1508.383          50.000  
  24487247.044     2224398.5953      -4045.206          43.000  
  21352657.401     1003305.329       -1926.534          48.000  
  23526011.629      559314.1783      -3231.112          39.000  
  23927266.442     -929917.6343       2626.230          36.000  
  23109708.601    -1255146.818        2258.505          37.000  
 18 10  7 18  2 12.0000000  0  8G30G 2G 5G 6G 7G 9G28G13
  20523082.127     -168770.848         171.317          49.000  
  22720215.577     1218522.8332      -2314.291          42.000  
  21255611.909     -884438.922        1506.595          47.000  
  24488043.533     2228445.4963      -4045.244          43.000  
  21353024.388     1005231.779       -1925.768          51.000  
  23526625.835      562547.3313      -3230.029          31.000  
  23926768.094     -932545.6353       2630.720          35.000  
  23109277.929    -1257403.9843       2258.893          40.000  
 18 10  7 18  2 13.0000000  0  7G30G 2G 5G 6G 7G28G13
  20523049.554     -168940.911         169.085          50.000  
  22720656.472     1220838.1292      -2317.497          39.000  
  21255325.370     -885945.377        1505.889          48.000  
  24488830.243     2232491.5673      -4049.765          35.000  
  21353390.341     1007158.857       -1927.763          48.000  
  23926267.118     -935173.9313       2627.663          44.000  
  23108849.991    -1259661.4433       2257.953          42.000  
 18 10  7 18  2 14.0000000  0  7G30G 2G 5G 6G 7G 9G28
  20523017.485     -169110.840         168.832          52.000  
  22721097.068     1223153.4802      -2316.180          41.000  
  21255038.726     -887452.3853       1507.146          44.000  
  24489560.762     2236537.3893      -4045.537          47.000  
  21353757.845     1009085.661       -1926.574          46.000  
  23527856.123      569010.8212      -3231.110          42.000  
  23925767.813     -937802.6683       2628.349          40.000  
 18 10  7 18  2 15.0000000  0  8G30G 2G 5G 6G 7G 9G28G13
  20522985.108     -169280.211         169.322          53.000  
  22721536.979     1225469.0982      -2315.856          44.000  
  21254750.252     -888959.5322       1506.415          45.000  
  24490327.631     2240581.8753      -4042.865          36.000  
  21354123.758     1011012.394       -1927.017          49.000  
  23528473.918      572241.7973      -3232.608          41.000  
  23925266.662     -940431.5023       2629.897          45.000  
  23107991.944    -1264177.9433       2257.306          39.000  
 18 10  7 18  2 16.0000000  0  8G30G 2G 5G 6G 7G 9G28G13
  20522952.852     -169449.502         169.698          49.000  
  22721977.316     1227784.7682      -2317.006          47.000  
  21254464.673     -890466.1422       1505.540          49.000  
  24491103.254     2244628.3543      -4045.688          37.000  
  21354490.235     1012939.774       -1927.345          50.000  
  23529083.975      575473.4923      -3223.305          34.000  
  23924766.205     -943059.6603       2631.687          34.000  
  23107566.460    -1266435.9253       2255.856          43.000  
 18 10  7 18  2 17.0000000  0  8G30G 2G 5G 6G 7G 9G28G13
  20522921.035     -169616.996         167.594          51.000  
  22722418.424     1230102.7062      -2317.699          47.000  
  21254178.535     -891970.2852       1504.233          50.000  
  24491882.502     2248673.4933      -4043.688          37.000  
  21354857.852     1014868.324       -1927.652          47.000  
  23529702.707      578704.9463      -3232.429          39.000  
  23924268.996     -945687.5553       2630.216          38.000  
  23107132.525    -1268691.3303       2256.817          46.000  
 18 10  7 18  2 18.0000000  0  8G30G 2G 5G 6G 7G 9G28G13
  20522889.492     -169785.004         168.354          53.000  
  22722859.191     1232422.0022      -2319.376          49.000  
  21253892.487     -893472.8802       1502.777          48.000  
  24492660.909     2252718.9913      -4048.420          38.000  
  21355224.383     1016795.929       -1926.743          45.000  
  23530315.692      581935.0403      -3226.550          36.000  
  23923767.817     -948318.2263       2633.354          36.000  
  23106704.232    -1270944.9452       2253.627          48.000  
 18 10  7 18  2 19.0000000  0  8G30G 2G 5G 6G 7G 9G28G13
  20522856.629     -169954.050         168.527          49.000  
  22723300.954     1234741.032       -2318.099          45.000  
  21253606.399     -894976.5882       1503.621          48.000  
  24493404.739     2256763.5323      -4040.362          33.000  
  21355590.892     1018721.495       -1926.354          52.000  
  23530929.717      585162.4733      -3222.765          34.000  
  23923264.837     -950951.0333       2632.436          43.000  
  23106274.280    -1273199.0612       2256.203          44.000  
 18 10  7 18  2 20.0000000  0  8G30G 2G 5G 6G 7G 9G28G13
  20522825.142     -170122.394         167.019          51.000  
  22723742.595     1237060.137       -2319.556          44.000  
  21253320.222     -896481.5642       1504.135          46.000  
  24494179.228     2260807.5763      -4047.940          34.000  
  21355958.060     1020647.188       -1926.917          52.000  
  23531544.013      588389.3613      -3228.738          34.000  
  23922767.322     -953582.0943       2629.569          41.000  
  23105844.638    -1275454.7112       2254.921          41.000  
 18 10  7 18  2 21.0000000  0  8G30G 2G 5G 6G 7G 9G28G13
  20522794.674     -170288.277         164.560          53.000  
  22724184.216     1239381.153       -2326.487          36.000  
  21253034.093     -897985.3162       1504.038          48.000  
  24494947.854     2264853.2543      -4052.615          34.000  
  21356324.654     1022574.844       -1926.868          51.000  
  23532158.813      591618.8303      -3229.023          36.000  
  23922268.098     -956210.8383       2626.693          35.000  
  23105417.668    -1277709.3743       2257.574          41.000  
 18 10  7 18  2 22.0000000  0  8G30G 2G 5G 6G 7G 9G28G13
  20522762.337     -170452.707         164.688          51.000  
  22724626.185     1241704.7123      -2325.832          44.000  
  21252748.053     -899488.8252       1504.125          50.000  
  24495721.566     2268901.2853      -4045.485          37.000  
  21356692.151     1024502.752       -1928.140          51.000  
  23532772.194      594848.2643      -3224.301          32.000  
  23921771.615     -958836.9033       2625.976          35.000  
  23104989.479    -1279964.3173       2261.153          33.000  
 18 10  7 18  2 23.0000000  0  8G30G 2G 5G 6G 7G 9G28G13
  20522731.297     -170616.542         164.282          54.000  
  22725068.327     1244027.6832      -2323.189          41.000  
  21252461.148     -900992.8152       1503.834          50.000  
  24496491.829     2272949.1723      -4044.075          33.000  
  21357059.398     1026431.093       -1928.046          51.000  
  23533387.868      598078.6703      -3228.556          32.000  
  23921274.155     -961463.0693       2625.735          40.000  
  23104560.411    -1282220.3543       2256.670          35.000  
 18 10  7 18  2 24.0000000  0  8G30G 2G 5G 6G 7G 9G28G13
  20522700.469     -170780.018         162.960          52.000  
  22725509.541     1246350.8392      -2321.960          40.000  
  21252175.400     -902496.4152       1503.369          51.000  
  24497261.565     2276995.5313      -4048.562          37.000  
  21357426.572     1028359.965       -1929.599          50.000  
  23534002.022      601308.8053      -3230.110          31.000  
  23920766.563     -964088.0083       2623.752          41.000  
  23104131.984    -1284477.6793       2254.492          35.000  
 18 10  7 18  2 25.0000000  0  7G30G 2G 5G 6G 7G28G13
  20522668.603     -170942.436         163.414          52.000  
  22725951.679     1248674.9933      -2324.662          31.000  
  21251889.714     -903998.842        1502.565          50.000  
  24498038.813     2281042.0193      -4043.319          34.000  
  21357793.286     1030289.305       -1928.817          50.000  
  23920262.705     -966712.6422       2624.759          38.000  
  23103705.263    -1286732.1973       2257.032          39.000  
 18 10  7 18  2 26.0000000  0  6G30G 5G 6G 7G28G13
  20522639.012     -171104.309         161.979          52.000  
  21251603.729     -905500.430        1501.384          52.000  
  24498819.053     2285086.7103      -4044.893          36.000  
  21358160.779     1032219.612       -1930.169          49.000  
  23919770.686     -969337.5763       2624.690          42.000  
  23103275.556    -1288986.4103       2254.500          39.000  
 18 10  7 18  2 27.0000000  0  7G30G 2G 5G 6G 7G28G13
  20522607.854     -171265.945         161.522          52.000  
  22726840.220     1253323.5663      -2325.353          31.000  
  21251318.235     -907001.847        1500.061          51.000  
  24499590.608     2289130.8083      -4040.143          37.000  
  21358528.616     1034149.726       -1929.786          49.000  
  23919272.827     -971962.8342       2626.534          42.000  
  23102846.390    -1291240.3603       2251.880          37.000  
 18 10  7 18  2 28.0000000  0  8G30G 2G 5G 6G 7G 9G28G13
  20522577.452     -171426.979         159.487          51.000  
  22727283.855     1255648.5683      -2325.402          38.000  
  21251032.928     -908503.100        1500.286          51.000  
  24500361.882     2293175.1513      -4044.417          36.000  
  21358895.749     1036080.000       -1931.413          49.000  
  23536477.676      614243.9853      -3227.603          28.000  
  23918762.816     -974587.7072       2623.623          38.000  
  23102418.766    -1293493.8743       2252.443          37.000  
 18 10  7 18  2 29.0000000  0  7G30G 2G 5G 6G 7G28G13
  20522546.992     -171587.268         161.027          51.000  
  22727725.993     1257972.1063      -2326.534          38.000  
  21250747.157     -910003.646        1501.313          51.000  
  24501131.914     2297220.3323      -4045.747          28.000  
  21359263.358     1038010.946       -1930.744          50.000  
  23918260.557     -977212.2983       2622.876          32.000  
  23101989.235    -1295749.0333       2254.576          35.000  
 18 10  7 18  2 30.0000000  0  6G30G 2G 5G 6G 7G13
  20522516.659     -171746.370         159.339          52.000  
  22728166.914     1260298.8043      -2325.975          39.000  
  21250461.811     -911503.342        1499.854          51.000  
  24501893.199     2301267.3243      -4047.083          31.000  
  21359630.397     1039942.885       -1931.685          50.000  
  23101558.858    -1298002.1523       2261.800          29.000  
 18 10  7 18  2 31.0000000  0  8G30G 2G 5G 6G 7G 9G28G13
  20522487.275     -171905.264         158.850          53.000  
  22728609.709     1262625.9993      -2325.534          39.000  
  21250176.873     -913003.692        1500.855          52.000  
  24502663.378     2305312.6263      -4045.668          30.000  
  21359998.171     1041874.906       -1932.231          49.000  
  23538319.948      623941.9943      -3232.415          31.000  
  23917272.984     -982459.9633       2622.806          38.000  
  23101129.871    -1300256.7833       2251.530          38.000  
 18 10  7 18  2 32.0000000  0  8G30G 2G 5G 6G 7G 9G28G13
  20522458.373     -172063.714         158.140          52.000  
  22729055.128     1264951.8923      -2319.519          36.000  
  21249890.510     -914503.532        1498.742          50.000  
  24503433.004     2309358.4553      -4043.608          36.000  
  21360365.767     1043807.525       -1932.201          52.000  
  23538932.677      627174.3493      -3230.051          32.000  
  23916766.454     -985083.4623       2625.587          38.000  
  23100702.495    -1302510.8123       2253.002          33.000  
 18 10  7 18  2 33.0000000  0  8G30G 2G 5G 6G 7G 9G28G13
  20522426.706     -172221.798         158.310          52.000  
  22729496.233     1267279.2983      -2327.381          44.000  
  21249605.426     -916001.247        1497.310          48.000  
  24504193.638     2313405.7313      -4048.217          41.000  
  21360734.158     1045740.855       -1933.584          52.000  
  23539550.339      630406.5563      -3233.094          30.000  
  23916271.393     -987708.4783       2626.251          40.000  
  23100277.478    -1304765.3133       2256.406          36.000  
 18 10  7 18  2 34.0000000  0  7G30G 2G 5G 6G 7G28G13
  20522396.015     -172379.910         157.110          51.000  
  22729941.861     1269606.6043      -2327.029          49.000  
  21249320.857     -917497.264        1493.781          49.000  
  24504961.002     2317452.1133      -4051.319          32.000  
  21361101.950     1047675.524       -1935.207          52.000  
  23915768.260     -990333.1553       2627.588          39.000  
  23099846.848    -1307017.0193       2249.642          40.000  
 18 10  7 18  2 35.0000000  0  7G30G 2G 5G 6G 7G28G13
  20522365.218     -172537.461         158.776          51.000  
  22730377.307     1271933.8612      -2325.947          43.000  
  21249036.178     -918992.794        1495.744          49.000  
  24505732.932     2321499.2643      -4049.244          35.000  
  21361469.968     1049610.798       -1935.223          51.000  
  23915272.942     -992961.3653       2628.319          38.000  
  23099413.557    -1309267.9173       2251.428          44.000  
 18 10  7 18  2 36.0000000  0  7G30G 2G 5G 6G 7G28G13
  20522335.781     -172694.981         156.996          52.000  
  22730821.459     1274260.3243      -2328.530          41.000  
  21248752.185     -920488.473        1494.650          49.000  
  24506504.424     2325545.8463      -4050.996          37.000  
  21361838.107     1051546.813       -1936.944          48.000  
  23914781.686     -995588.2593       2629.589          36.000  
  23098983.398    -1311519.5303       2252.712          45.000  
 18 10  7 18  2 37.0000000  0  7G30G 2G 5G 6G 7G28G13
  20522306.142     -172852.115         156.957          52.000  
  22731269.709     1276586.6632      -2325.258          44.000  
  21248466.400     -921983.713        1495.655          45.000  
  24507279.850     2329589.9123      -4043.025          35.000  
  21362206.104     1053483.329       -1936.101          49.000  
  23914270.641     -998215.8493       2629.326          40.000  
  23098553.054    -1313771.5752       2252.547          41.000  
 18 10  7 18  2 38.0000000  0  7G30G 2G 5G 6G 7G28G13
  20522275.777     -173008.482         155.823          51.000  
  22731704.610     1278913.1182      -2327.151          41.000  
  21248182.579     -923478.549        1493.771          48.000  
  24508053.022     2333637.8093      -4042.052          30.000  
  21362574.179     1055420.657       -1937.657          50.000  
  23913768.629    -1000844.6983       2628.019          38.000  
  23098127.833    -1316023.7402       2250.582          45.000  
 18 10  7 18  2 39.0000000  0  7G30G 2G 5G 6G 7G28G13
  20522245.568     -173164.755         157.145          52.000  
  22732148.212     1281239.6122      -2324.536          42.000  
  21247898.583     -924973.140        1495.202          49.000  
  24508808.411     2337680.5163      -4045.769          35.000  
  21362942.289     1057358.219       -1937.371          49.000  
  23913270.462    -1003473.9393       2631.170          40.000  
  23097694.097    -1318275.8912       2252.800          46.000  
 18 10  7 18  2 40.0000000  0  7G30G 2G 5G 6G 7G28G13
  20522216.673     -173320.701         155.500          52.000  
  22732591.690     1283565.7472      -2326.933          45.000  
  21247614.583     -926467.490        1493.764          49.000  
  24509572.648     2341722.5053      -4040.948          38.000  
  21363310.155     1059296.284       -1938.694          50.000  
  23912772.141    -1006103.3603       2627.560          41.000  
  23097268.212    -1320528.5952       2252.226          46.000  
 18 10  7 18  2 41.0000000  0  7G30G 2G 5G 6G 7G28G13
  20522186.597     -173476.152         154.002          50.000  
  22733032.406     1285892.6532      -2327.526          43.000  
  21247329.409     -927961.161        1493.173          50.000  
  24510347.494     2345766.0583      -4040.266          34.000  
  21363679.650     1061234.700       -1939.103          50.000  
  23912270.045    -1008732.9823       2627.222          40.000  
  23096834.161    -1322780.5013       2249.998          36.000  
 18 10  7 18  2 42.0000000  0  8G30G 2G 5G 6G 7G 9G28G13
  20522157.268     -173630.622         154.817          51.000  
  22733476.848     1288220.5342      -2330.382          42.000  
  21247046.099     -929454.093        1493.347          49.000  
  24511113.148     2349807.6263      -4042.375          33.000  
  21364048.973     1063173.461       -1938.513          47.000  
  23545086.636      659508.6853      -3230.121          28.000  
  23911772.675    -1011362.0603       2627.391          39.000  
  23096413.727    -1325031.9883       2248.048          41.000  
 18 10  7 18  2 43.0000000  0  8G30G 2G 5G 6G 7G 9G28G13
  20522127.910     -173784.698         152.119          52.000  
  22733921.054     1290548.036       -2328.415          45.000  
  21246762.199     -930946.764        1492.629          49.000  
  24511880.827     2353849.8003      -4039.414          36.000  
  21364417.986     1065112.889       -1940.659          51.000  
  23545701.279      662742.5343      -3235.011          29.000  
  23911273.145    -1013989.6023       2627.593          41.000  
  23095985.313    -1327283.3723       2250.480          39.000  
 18 10  7 18  2 44.0000000  0  7G30G 2G 5G 6G 7G28G13
  20522098.775     -173938.492         153.624          53.000  
  22734367.221     1292876.341       -2328.382          47.000  
  21246477.841     -932439.286        1493.490          50.000  
  24512650.057     2357891.4153      -4039.951          37.000  
  21364787.338     1067052.393       -1938.698          51.000  
  23910798.131    -1016612.7013       2623.465          40.000  
  23095556.389    -1329535.0442       2254.127          44.000  
 18 10  7 18  2 45.0000000  0  7G30G 2G 5G 6G 7G28G13
  20522069.362     -174091.430         153.834          50.000  
  22734807.686     1295205.010       -2327.935          48.000  
  21246193.919     -933931.416        1493.889          52.000  
  24513419.411     2361932.9063      -4036.440          36.000  
  21365156.567     1068992.535       -1938.522          49.000  
  23910269.568    -1019241.2833       2630.090          41.000  
  23095126.335    -1331786.5833       2253.097          40.000  
 18 10  7 18  2 46.0000000  0  7G30G 2G 5G 6G 7G28G13
  20522040.236     -174243.633         152.110          50.000  
  22735251.022     1297534.623       -2329.111          46.000  
  21245910.044     -935422.840        1491.381          53.000  
  24514187.864     2365974.9573      -4042.398          40.000  
  21365525.360     1070933.145       -1941.179          50.000  
  23909768.934    -1021869.7123       2628.902          38.000  
  23094697.849    -1334037.6893       2250.997          43.000  
 18 10  7 18  2 47.0000000  0  7G30G 2G 5G 6G 7G28G13
  20522011.517     -174395.281         153.179          51.000  
  22735694.027     1299864.394       -2329.400          43.000  
  21245626.253     -936913.901        1492.909          52.000  
  24514958.149     2370017.4993      -4042.343          39.000  
  21365894.722     1072874.228       -1940.626          50.000  
  23909267.895    -1024498.1613       2628.038          33.000  
  23094269.171    -1336288.6722       2253.689          43.000  
 18 10  7 18  2 48.0000000  0  7G30G 2G 5G 6G 7G28G13
  20521982.864     -174546.569         152.346          50.000  
  22736139.690     1302194.525       -2329.807          47.000  
  21245342.691     -938404.728        1490.501          50.000  
  24515730.843     2374061.1653      -4040.230          40.000  
  21366264.440     1074815.606       -1940.438          51.000  
  23908766.960    -1027126.7043       2629.912          39.000  
  23093841.471    -1338539.7192       2251.969          40.000  
 18 10  7 18  2 49.0000000  0  7G30G 2G 5G 6G 7G28G13
  20521953.875     -174698.043         151.709          51.000  
  22736582.742     1304524.531       -2329.734          46.000  
  21245058.582     -939895.710        1490.774          50.000  
  24516500.162     2378102.5463      -4041.097          41.000  
  21366633.789     1076756.657       -1941.336          52.000  
  23908266.756    -1029755.4243       2629.141          39.000  
  23093412.686    -1340791.1442       2251.809          42.000  
 18 10  7 18  2 50.0000000  0  7G30G 2G 5G 6G 7G28G13
  20521925.669     -174848.173         151.197          50.000  
  22737025.151     1306855.091       -2331.094          46.000  
  21244775.769     -941385.714        1491.464          50.000  
  24517262.791     2382144.0463      -4039.414          37.000  
  21367004.250     1078699.097       -1941.900          52.000  
  23907768.890    -1032383.7152       2628.432          40.000  
  23092984.580    -1343042.1222       2250.376          43.000  
 18 10  7 18  2 51.0000000  0  7G30G 2G 5G 6G 7G28G13
  20521897.552     -174997.633         148.448          50.000  
  22737467.754     1309185.941       -2331.807          45.000  
  21244491.775     -942875.340        1489.027          52.000  
  24518032.051     2386185.3723      -4043.535          37.000  
  21367373.517     1080642.171       -1944.610          50.000  
  23907263.085    -1035010.8003       2627.781          43.000  
  23092556.738    -1345293.0922       2248.416          41.000  
 18 10  7 18  2 52.0000000  0  7G30G 2G 5G 6G 7G28G13
  20521868.824     -175147.271         147.412          51.000  
  22737911.600     1311516.859       -2331.784          44.000  
  21244208.532     -944365.187        1488.571          52.000  
  24518800.253     2390226.6883      -4041.113          37.000  
  21367743.267     1082584.847       -1944.753          52.000  
  23906765.542    -1037639.5393       2627.531          43.000  
  23092129.434    -1347544.3642       2250.011          42.000  
 18 10  7 18  2 53.0000000  0  7G30G 2G 5G 6G 7G28G13
  20521840.577     -175296.054         149.031          51.000  
  22738355.348     1313848.315       -2331.885          45.000  
  21243925.363     -945854.452        1489.602          50.000  
  24519570.318     2394268.3973      -4041.743          32.000  
  21368113.478     1084528.276       -1943.541          47.000  
  23906266.896    -1040267.6763       2626.969          41.000  
  23091700.986    -1349795.3062       2250.845          38.000  
 18 10  7 18  2 54.0000000  0  7G30G 2G 5G 6G 7G28G13
  20521811.937     -175444.030         146.028          51.000  
  22738799.363     1316180.495       -2333.146          46.000  
  21243642.202     -947343.175        1487.670          48.000  
  24520342.754     2398309.9563      -4043.802          32.000  
  21368483.115     1086472.325       -1945.456          45.000  
  23905766.173    -1042895.3523       2625.845          42.000  
  23091273.264    -1352045.9323       2247.162          33.000  
 18 10  7 18  2 55.0000000  0  6G30G 2G 5G 6G 7G28
  20521784.402     -175591.000         145.990          49.000  
  22739242.520     1318513.223       -2333.276          46.000  
  21243358.793     -948830.991        1488.026          47.000  
  24521110.738     2402352.1703      -4042.107          37.000  
  21368853.321     1088417.334       -1944.412          53.000  
  23905265.570    -1045522.4653       2626.379          43.000  
 18 10  7 18  2 56.0000000  0  7G30G 2G 5G 6G 7G28G13
  20521756.644     -175738.008         148.250          51.000  
  22739687.419     1320846.669       -2332.414          47.000  
  21243075.472     -950318.583        1488.281          51.000  
  24521882.596     2406393.9033      -4041.391          43.000  
  21369223.244     1090361.729       -1944.477          51.000  
  23904764.777    -1048150.3083       2630.406          43.000  
  23090416.563    -1356546.3783       2251.775          40.000  
 18 10  7 18  2 57.0000000  0  7G30G 2G 5G 6G 7G28G13
  20521728.446     -175885.061         146.296          51.000  
  22740130.376     1323179.966       -2332.568          43.000  
  21242791.866     -951806.604        1487.128          53.000  
  24522648.617     2410435.1283      -4041.784          38.000  
  21369593.586     1092305.925       -1945.227          51.000  
  23904264.789    -1050778.1803       2630.051          43.000  
  23089987.516    -1358797.0492       2250.304          43.000  
 18 10  7 18  2 58.0000000  0  7G30G 2G 5G 6G 7G28G13
  20521700.870     -176031.496         146.915          51.000  
  22740575.766     1325513.195       -2333.670          46.000  
  21242508.931     -953294.176        1488.384          52.000  
  24523410.912     2414476.3893      -4042.170          35.000  
  21369963.362     1094250.903       -1944.383          50.000  
  23903764.493    -1053406.2663       2626.288          41.000  
  23089558.313    -1361047.7202       2250.486          41.000  
 18 10  7 18  2 59.0000000  0  6G30G 2G 5G 7G28G13
  20521673.105     -176177.229         145.273          52.000  
  22741020.802     1327847.4883      -2334.605          44.000  
  21242225.938     -954781.307        1486.562          51.000  
  21370333.244     1096196.414       -1945.660          50.000  
  23903263.848    -1056033.9233       2629.545          37.000  
  23089129.308    -1363298.1242       2249.438          35.000  
 18 10  7 18  3  0.0000000  0  7G30G 2G 5G 6G 7G28G13
  20521645.883     -176322.405         145.154          52.000  
  22741462.678     1330181.7842      -2334.580          43.000  
  21241942.636     -956267.792        1486.650          48.000  
  24524953.490     2422557.7793      -4041.175          42.000  
  21370703.300     1098142.296       -1945.512          49.000  
  23902764.000    -1058661.6423       2628.931          42.000  
  23088700.833    -1365548.4202       2246.911          41.000  
 18 10  7 18  3  1.0000000  0  7G30G 2G 5G 6G 7G28G13
  20521617.960     -176467.315         146.685          51.000  
  22741906.354     1332516.2252      -2334.549          43.000  
  21241659.627     -957754.101        1487.191          50.000  
  24525717.092     2426598.2273      -4039.260          38.000  
  21371074.224     1100088.500       -1945.518          52.000  
  23902263.896    -1061289.5943       2626.929          41.000  
  23088275.528    -1367798.6792       2250.679          43.000  
 18 10  7 18  3  2.0000000  0  7G30G 2G 5G 6G 7G28G13
  20521591.185     -176611.359         144.472          52.000  
  22742352.783     1334851.6962      -2335.052          46.000  
  21241378.250     -959239.644        1485.118          49.000  
  24526492.955     2430639.2102      -4040.023          41.000  
  21371444.550     1102034.944       -1946.452          51.000  
  23901764.218    -1063917.3083       2633.638          41.000  
  23087845.934    -1370048.1952       2249.324          41.000  
 18 10  7 18  3  3.0000000  0  7G30G 2G 5G 6G 7G28G13
  20521563.129     -176755.212         142.118          49.000  
  22742796.725     1337187.7912      -2336.845          44.000  
  21241095.736     -960724.919        1484.137          49.000  
  24527259.807     2434680.2993      -4042.477          33.000  
  21371814.961     1103981.380       -1947.012          50.000  
  23901264.780    -1066545.0373       2628.629          40.000  
  23087418.026    -1372297.5202       2248.870          45.000  
 18 10  7 18  3  4.0000000  0  7G30G 2G 5G 6G 7G28G13
  20521535.647     -176897.883         141.505          50.000  
  22743240.799     1339524.8462      -2338.517          41.000  
  21240813.675     -962209.445        1485.094          50.000  
  24528032.059     2438722.1593      -4044.055          43.000  
  21372185.665     1105928.610       -1947.938          51.000  
  23900765.294    -1069172.0123       2619.978          36.000  
  23086991.754    -1374546.2552       2249.492          43.000  
 18 10  7 18  3  5.0000000  0  7G30G 2G 5G 6G 7G28G13
  20521508.805     -177040.411         140.167          52.000  
  22743685.836     1341861.8142      -2340.387          44.000  
  21240529.657     -963694.112        1480.860          48.000  
  24528800.434     2442763.8433      -4041.685          39.000  
  21372555.937     1107875.789       -1949.114          49.000  
  23900263.412    -1071797.9813       2626.439          42.000  
  23086564.298    -1376795.6332       2245.318          43.000  
 18 10  7 18  3  6.0000000  0  7G30G 2G 5G 6G 7G28G13
  20521481.916     -177182.652         142.672          51.000  
  22744131.909     1344198.1272      -2337.361          42.000  
  21240247.697     -965178.787        1484.567          49.000  
  24529571.518     2446804.6773      -4042.522          35.000  
  21372926.453     1109823.827       -1947.555          51.000  
  23899764.303    -1074424.0743       2620.783          39.000  
  23086136.559    -1379045.4302       2251.054          41.000  
 18 10  7 18  3  7.0000000  0  7G30G 2G 5G 6G 7G28G13
  20521454.327     -177323.879         141.965          49.000  
  22744576.052     1346535.487       -2337.934          43.000  
  21239964.731     -966662.316        1483.839          48.000  
  24530339.628     2450846.1963      -4039.482          38.000  
  21373296.851     1111772.266       -1947.512          50.000  
  23899261.563    -1077050.2343       2620.452          37.000  
  23085707.562    -1381294.293        2250.025          44.000  
 18 10  7 18  3  8.0000000  0  7G30G 2G 5G 6G 7G28G13
  20521427.458     -177464.924         140.405          51.000  
  22745020.906     1348873.323       -2336.524          41.000  
  21239682.923     -968145.726        1483.522          49.000  
  24531107.486     2454887.1063      -4040.987          36.000  
  21373668.007     1113720.926       -1947.726          51.000  
  23898761.596    -1079675.9353       2628.626          39.000  
  23085280.861    -1383543.1453       2249.942          43.000  
 18 10  7 18  3  9.0000000  0  8G30G 2G 5G 6G 7G 9G28G13
  20521400.995     -177605.155         144.504          49.000  
  22745465.461     1351212.113       -2336.262          41.000  
  21239401.228     -969628.295        1486.367          47.000  
  24531876.159     2458928.1982      -4040.802          36.000  
  21374038.749     1115670.003       -1946.040          50.000  
  23561683.104      746839.5583      -3233.133          31.000  
  23898263.094    -1082303.2593       2627.194          38.000  
  23084853.078    -1385792.4973       2249.051          38.000  
 18 10  7 18  3 10.0000000  0  8G30G 2G 5G 6G 7G 9G28G13
  20521375.040     -177745.208         138.674          51.000  
  22745910.435     1353550.196       -2339.109          38.000  
  21239119.222     -971111.347        1481.677          48.000  
  24532644.512     2462968.9282      -4038.474          38.000  
  21374409.800     1117619.323       -1951.023          50.000  
  23562300.037      750074.4153      -3234.166          31.000  
  23897764.711    -1084930.2573       2625.952          44.000  
  23084423.578    -1388041.6063       2248.063          38.000  
 18 10  7 18  3 11.0000000  0  8G30G 2G 5G 6G 7G 9G28G13
  20521348.226     -177884.644         138.947          52.000  
  22746356.740     1355889.921       -2339.505          41.000  
  21238836.240     -972593.412        1481.545          51.000  
  24533412.860     2467010.0132      -4040.435          37.000  
  21374780.855     1119568.888       -1949.412          47.000  
  23562911.421      753307.1423      -3232.679          32.000  
  23897261.709    -1087557.0763       2622.940          38.000  
  23083996.220    -1390289.7563       2247.862          39.000  
 18 10  7 18  3 12.0000000  0  8G30G 2G 5G 6G 7G 9G28G13
  20521321.627     -178022.797         135.309          49.000  
  22746802.595     1358230.183       -2340.428          40.000  
  21238554.618     -974074.549        1478.973          47.000  
  24534181.760     2471051.4202      -4040.159          39.000  
  21375151.820     1121519.557       -1953.182          51.000  
  23563527.123      756540.4183      -3235.511          35.000  
  23896765.625    -1090183.5653       2624.527          41.000  
  23083568.281    -1392537.3473       2245.872          38.000  
 18 10  7 18  3 13.0000000  0  8G30G 2G 5G 6G 7G 9G28G13
  20521295.945     -178160.569         137.438          50.000  
  22747249.563     1360570.8553      -2339.505          42.000  
  21238272.559     -975555.112        1480.521          48.000  
  24534952.929     2475094.1703      -4040.319          41.000  
  21375523.037     1123470.305       -1949.746          51.000  
  23564138.365      759773.7423      -3232.512          38.000  
  23896266.137    -1092809.6583       2627.126          44.000  
  23083140.967    -1394784.3753       2246.080          38.000  
 18 10  7 18  3 14.0000000  0  8G30G 2G 5G 6G 7G 9G28G13
  20521269.300     -178298.871         138.664          49.000  
  22747694.672     1362911.3033      -2338.620          41.000  
  21237991.357     -977036.383        1482.335          49.000  
  24535719.044     2479134.8143      -4039.566          41.000  
  21375893.926     1125420.329       -1949.633          51.000  
  23564754.192      763005.8942      -3231.292          41.000  
  23895767.135    -1095436.9042       2626.511          40.000  
  23082713.005    -1397032.5032       2251.657          38.000  
 18 10  7 18  3 15.0000000  0  8G30G 2G 5G 6G 7G 9G28G13
  20521243.001     -178436.444         136.935          50.000  
  22748139.369     1365251.5433      -2341.046          43.000  
  21237709.864     -978517.173        1480.198          47.000  
  24536491.779     2483175.0043      -4038.780          41.000  
  21376266.019     1127371.090       -1951.472          50.000  
  23565372.983      766238.6672      -3232.797          45.000  
  23895266.200    -1098064.1472       2627.327          44.000  
  23082284.129    -1399280.5893       2251.967          37.000  
 18 10  7 18  3 16.0000000  0  8G30G 2G 5G 6G 7G 9G28G13
  20521216.926     -178573.724         136.780          48.000  
  22748584.444     1367591.7253      -2340.647          41.000  
  21237427.399     -979997.726        1480.278          47.000  
  24537259.785     2487214.6122      -4041.719          39.000  
  21376637.896     1129322.598       -1951.105          52.000  
  23565984.897      769471.8762      -3232.341          45.000  
  23894766.844    -1100691.5702       2626.976          40.000  
  23081855.994    -1401529.0632       2248.072          39.000  
 18 10  7 18  3 17.0000000  0  8G30G 2G 5G 6G 7G 9G28G13
  20521190.855     -178710.432         138.038          52.000  
  22749031.346     1369932.5342      -2339.401          39.000  
  21237145.746     -981477.811        1481.584          52.000  
  24538025.889     2491254.2022      -4038.924          43.000  
  21377009.315     1131274.557       -1951.297          53.000  
  23566601.455      772705.2932      -3232.335          37.000  
  23894264.686    -1103318.6932       2627.000          40.000  
  23081428.030    -1403777.2063       2248.449          45.000  
 18 10  7 18  3 18.0000000  0  8G30G 2G 5G 6G 7G 9G28G13
  20521164.300     -178846.924         136.930          51.000  
  22749475.210     1372273.4453      -2339.573          42.000  
  21236863.960     -982957.932        1480.509          51.000  
  24538790.767     2495293.5792      -4035.505          38.000  
  21377379.873     1133226.489       -1952.844          51.000  
  23567213.992      775939.0013      -3234.165          38.000  
  23893764.764    -1105946.1352       2629.424          42.000  
  23081000.768    -1406025.7082       2249.765          46.000  
 18 10  7 18  3 19.0000000  0  8G30G 2G 5G 6G 7G 9G28G13
  20521138.467     -178982.943         134.945          51.000  
  22749919.732     1374614.9292      -2341.264          41.000  
  21236582.431     -984437.723        1480.046          50.000  
  24539560.099     2499333.1343      -4037.251          30.000  
  21377751.303     1135178.614       -1952.685          52.000  
  23567831.510      779173.0843      -3234.851          38.000  
  23893264.963    -1108573.2722       2627.347          41.000  
  23080571.379    -1408273.9683       2248.871          39.000  
 18 10  7 18  3 20.0000000  0  8G30G 2G 5G 6G 7G 9G28G13
  20521113.431     -179117.801         136.478          50.000  
  22750365.862     1376957.1793      -2340.566          33.000  
  21236300.523     -985916.843        1479.496          47.000  
  24540332.707     2503373.1392      -4041.849          38.000  
  21378122.314     1137131.539       -1950.637          52.000  
  23568447.243      782407.2403      -3234.170          34.000  
  23892765.839    -1111199.8942       2627.267          42.000  
  23080145.626    -1410521.9803       2248.210          33.000  
 18 10  7 18  3 21.0000000  0  8G30G 2G 5G 6G 7G 9G28G13
  20521087.240     -179252.752         134.891          50.000  
  22750813.022     1379299.8013      -2347.010          29.000  
  21236018.863     -987395.981        1478.372          48.000  
  24541101.995     2507412.7532      -4038.190          40.000  
  21378493.637     1139084.280       -1953.118          51.000  
  23569062.974      785640.2253      -3232.059          36.000  
  23892265.940    -1113826.7502       2627.390          42.000  
  23079717.350    -1412770.3623       2245.907          40.000  
 18 10  7 18  3 22.0000000  0  8G30G 2G 5G 6G 7G 9G28G13
  20521061.706     -179387.339         136.044          50.000  
  22751258.332     1381641.9913      -2340.332          39.000  
  21235737.954     -988874.406        1479.632          48.000  
  24541871.286     2511451.5823      -4038.935          42.000  
  21378865.331     1141037.666       -1952.190          50.000  
  23569677.409      788873.0273      -3232.409          34.000  
  23891765.987    -1116454.3122       2627.776          44.000  
  23079287.965    -1415018.3233       2248.207          37.000  
 18 10  7 18  3 23.0000000  0  8G30G 2G 5G 6G 7G 9G28G13
  20521036.578     -179521.350         133.851          50.000  
  22751704.379     1383984.7932      -2342.442          46.000  
  21235457.498     -990352.554        1477.763          48.000  
  24542639.270     2515490.2812      -4038.545          38.000  
  21379237.169     1142991.156       -1954.271          51.000  
  23570292.629      792105.8493      -3233.774          36.000  
  23891266.041    -1119081.8352       2627.873          44.000  
  23078860.271    -1417265.9873       2247.094          44.000  
 18 10  7 18  3 24.0000000  0  8G30G 2G 5G 6G 7G 9G28G13
  20521010.684     -179654.923         133.271          51.000  
  22752152.071     1386327.9412      -2342.152          44.000  
  21235175.069     -991830.170        1477.867          49.000  
  24543407.300     2519528.8223      -4038.676          42.000  
  21379609.125     1144945.414       -1953.941          50.000  
  23570907.651      795339.0063      -3232.881          31.000  
  23890766.179    -1121709.3782       2627.143          44.000  
  23078430.368    -1419513.6273       2248.611          41.000  
 18 10  7 18  3 25.0000000  0  8G30G 2G 5G 6G 7G 9G28G13
  20520985.132     -179787.382         132.973          49.000  
  22752596.694     1388671.3652      -2343.711          43.000  
  21234893.536     -993306.996        1476.398          45.000  
  24544175.075     2523567.1113      -4045.060          36.000  
  21379981.131     1146900.572       -1954.019          51.000  
  23571523.070      798572.3453      -3232.663          33.000  
  23890266.418    -1124336.715        2627.852          43.000  
  23078004.617    -1421760.9862       2243.819          35.000  
 18 10  7 18  3 26.0000000  0  8G30G 2G 5G 6G 7G 9G28G13
  20520960.442     -179920.415         130.302          49.000  
  22753040.645     1391014.7132      -2344.451          42.000  
  21234612.823     -994784.408        1474.989          48.000  
  24544942.858     2527605.3103      -4037.333          37.000  
  21380353.290     1148855.126       -1956.150          50.000  
  23572138.188      801805.2363      -3230.867          33.000  
  23889765.832    -1126964.367        2626.268          44.000  
  23077577.541    -1424009.0333       2247.061          34.000  
 18 10  7 18  3 27.0000000  0  8G30G 2G 5G 6G 7G 9G28G13
  20520935.113     -180052.885         132.154          50.000  
  22753485.933     1393358.2602      -2345.920          36.000  
  21234331.785     -996261.427        1477.346          48.000  
  24545713.870     2531643.0343      -4038.325          39.000  
  21380725.682     1150810.064       -1954.206          51.000  
  23572753.911      805038.0643      -3231.903          36.000  
  23889265.393    -1129592.101        2626.698          43.000  
  23077149.293    -1426257.1683       2249.026          39.000  
 18 10  7 18  3 28.0000000  0  8G30G 2G 5G 6G 7G 9G28G13
  20520910.223     -180184.590         131.427          51.000  
  22753931.295     1395702.4402      -2342.700          38.000  
  21234052.235     -997737.877        1475.275          48.000  
  24546482.183     2535680.9222      -4037.433          39.000  
  21381097.363     1152765.435       -1956.817          52.000  
  23573368.837      808270.8523      -3226.214          33.000  
  23888765.298    -1132219.710        2627.062          42.000  
  23076721.811    -1428504.7472       2246.795          43.000  
 18 10  7 18  3 29.0000000  0  8G30G 2G 5G 6G 7G 9G28G13
  20520885.204     -180315.712         130.480          51.000  
  22754378.252     1398047.5592      -2344.402          45.000  
  21233770.673     -999213.771        1475.738          47.000  
  24547249.389     2539718.9813      -4035.575          34.000  
  21381469.663     1154721.108       -1956.756          51.000  
  23573983.758      811503.6233      -3231.587          33.000  
  23888266.169    -1134847.076        2628.674          44.000  
  23076293.473    -1430752.2182       2247.394          40.000  
 18 10  7 18  3 30.0000000  0  8G30G 2G 5G 6G 7G 9G28G13
  20520860.522     -180446.616         130.615          53.000  
  22754824.286     1400392.1982      -2345.058          43.000  
  21233488.887    -1000689.543        1475.791          47.000  
  24548017.779     2543756.5113      -4038.410          42.000  
  21381841.156     1156677.211       -1956.703          51.000  
  23574600.890      814736.6633      -3234.045          38.000  
  23887765.946    -1137474.700        2627.613          45.000  
  23075864.534    -1432999.7513       2247.221          41.000  
 18 10  7 18  3 31.0000000  0  8G30G 2G 5G 6G 7G 9G28G13
  20520835.584     -180577.032         128.236          51.000  
  22755269.683     1402737.097       -2348.124          41.000  
  21233208.240    -1002164.836        1472.082          47.000  
  24548786.456     2547793.3673      -4036.923          34.000  
  21382213.849     1158633.658       -1958.234          50.000  
  23575215.177      817969.2443      -3231.600          36.000  
  23887265.092    -1140102.852        2625.967          44.000  
  23075436.844    -1435247.2372       2246.088          37.000  
 18 10  7 18  3 32.0000000  0  8G30G 2G 5G 6G 7G 9G28G13
  20520810.772     -180707.245         128.504          50.000  
  22755715.728     1405082.227       -2346.840          43.000  
  21232927.791    -1003640.090        1474.167          51.000  
  24549553.871     2551830.4443      -4037.122          36.000  
  21382586.691     1160590.358       -1957.571          51.000  
  23575830.247      821201.8323      -3232.508          36.000  
  23886764.825    -1142730.753        2628.064          44.000  
  23075008.705    -1437494.8652       2246.392          42.000  
 18 10  7 18  3 33.0000000  0  8G30G 2G 5G 6G 7G 9G28G13
  20520785.657     -180836.366         128.990          50.000  
  22756161.963     1407428.286       -2345.430          46.000  
  21232647.544    -1005114.605        1475.479          49.000  
  24550321.637     2555868.0662      -4037.995          40.000  
  21382959.421     1162547.735       -1957.099          50.000  
  23576444.656      824436.3673      -3236.901          29.000  
  23886265.096    -1145357.923        2626.448          43.000  
  23074582.379    -1439742.0022       2247.758          41.000  
 18 10  7 18  3 34.0000000  0  8G30G 2G 5G 6G 7G 9G28G13
  20520761.065     -180964.743         129.088          50.000  
  22756609.478     1409774.985       -2346.527          46.000  
  21232366.251    -1006588.460        1474.377          49.000  
  24551090.068     2559905.6522      -4035.558          41.000  
  21383331.433     1164505.703       -1956.827          48.000  
  23577059.647      827670.4383      -3232.272          38.000  
  23885764.360    -1147984.974        2628.335          41.000  
  23074156.624    -1441988.8372       2247.706          40.000  
 18 10  7 18  3 35.0000000  0  8G30G 2G 5G 6G 7G 9G28G13
  20520736.944     -181093.082         129.040          48.000  
  22757055.988     1412121.514       -2345.343          44.000  
  21232086.178    -1008062.463        1473.843          50.000  
  24551857.640     2563942.6382      -4034.510          39.000  
  21383704.046     1166463.481       -1957.593          49.000  
  23577673.424      830902.9763      -3231.536          42.000  
  23885264.682    -1150612.445        2630.747          41.000  
  23073728.114    -1444236.0252       2246.812          42.000  
 18 10  7 18  3 36.0000000  0  8G30G 2G 5G 6G 7G 9G28G13
  20520712.726     -181221.487         127.488          51.000  
  22757503.320     1414468.238       -2346.495          49.000  
  21231806.025    -1009536.388        1473.952          52.000  
  24552625.214     2567979.2993      -4036.398          40.000  
  21384076.904     1168421.180       -1958.483          51.000  
  23578288.066      834135.2653      -3232.543          46.000  
  23884765.076    -1153240.303        2627.935          46.000  
  23073300.560    -1446483.3122       2247.432          48.000  
 18 10  7 18  3 37.0000000  0  8G30G 2G 5G 6G 7G 9G28G13
  20520688.749     -181348.981         127.359          51.000  
  22757950.403     1416815.477       -2347.652          46.000  
  21231524.869    -1011009.751        1473.992          52.000  
  24553395.089     2572016.2943      -4043.291          38.000  
  21384449.538     1170379.538       -1958.514          50.000  
  23578907.368      837367.8612      -3234.391          41.000  
  23884265.428    -1155867.812        2626.801          42.000  
  23072872.500    -1448730.355        2246.557          46.000  
 18 10  7 18  3 38.0000000  0  8G30G 2G 5G 6G 7G 9G28G13
  20520663.850     -181475.951         127.121          50.000  
  22758395.990     1419162.941       -2347.086          43.000  
  21231245.018    -1012482.901        1472.798          51.000  
  24554162.744     2576053.1823      -4034.688          40.000  
  21384822.164     1172338.331       -1959.136          49.000  
  23579517.787      840600.5942      -3232.815          45.000  
  23883765.311    -1158495.197        2628.695          42.000  
  23072445.683    -1450977.639        2246.326          42.000  
 18 10  7 18  3 39.0000000  0  8G30G 2G 5G 6G 7G 9G28G13
  20520639.921     -181602.462         126.040          49.000  
  22758842.803     1421510.906       -2349.335          38.000  
  21230965.001    -1013955.605        1472.646          44.000  
  24554930.883     2580089.9193      -4034.692          38.000  
  21385194.868     1174297.387       -1959.424          49.000  
  23580136.542      843833.4092      -3233.159          45.000  
  23883265.445    -1161122.339        2627.776          43.000  
  23072018.397    -1453224.532        2245.931          38.000  
 18 10  7 18  3 40.0000000  0  8G30G 2G 5G 6G 7G 9G28G13
  20520615.825     -181728.656         127.236          50.000  
  22759289.578     1423858.780       -2346.830          40.000  
  21230685.307    -1015428.052        1473.001          50.000  
  24555704.336     2584127.0453      -4037.050          38.000  
  21385567.467     1176256.766       -1958.805          51.000  
  23580752.242      847066.0712      -3232.063          47.000  
  23882765.941    -1163750.029        2629.048          43.000  
  23071590.170    -1455471.660        2248.596          38.000  
 18 10  7 18  3 41.0000000  0  8G30G 2G 5G 6G 7G 9G28G13
  20520592.119     -181854.266         126.155          48.000  
  22759737.257     1426206.8183      -2348.044          42.000  
  21230404.917    -1016900.220        1472.236          48.000  
  24556467.202     2588162.7223      -4036.563          37.000  
  21385940.910     1178216.832       -1960.655          50.000  
  23581363.490      850299.1412      -3235.209          41.000  
  23882265.546    -1166377.524        2627.786          38.000  
  23071162.372    -1457719.014        2248.138          39.000  
 18 10  7 18  3 42.0000000  0  8G30G 2G 5G 6G 7G 9G28G13
  20520568.384     -181979.346         123.108          50.000  
  22760183.045     1428555.5483      -2350.509          40.000  
  21230124.910    -1018371.752        1470.536          49.000  
  24557235.924     2592199.0943      -4036.686          35.000  
  21386314.533     1180177.218       -1961.839          51.000  
  23581979.987      853532.1782      -3234.482          42.000  
  23881765.281    -1169004.880        2625.590          42.000  
  23070735.485    -1459965.778        2246.862          42.000  
 18 10  7 18  3 43.0000000  0  8G30G 2G 5G 6G 7G 9G28G13
  20520544.469     -182104.079         126.729          48.000  
  22760631.009     1430904.7422      -2348.638          44.000  
  21229844.472    -1019842.778        1472.220          48.000  
  24558002.627     2596234.8113      -4038.112          38.000  
  21386686.918     1182137.703       -1959.566          50.000  
  23582594.817      856764.196       -3231.118          41.000  
  23881265.430    -1171632.800        2626.827          39.000  
  23070307.970    -1462212.2923       2246.915          35.000  
 18 10  7 18  3 44.0000000  0  8G30G 2G 5G 6G 7G 9G28G13
  20520520.965     -182228.787         124.839          51.000  
  22761077.785     1433253.3912      -2347.988          44.000  
  21229564.907    -1021314.216        1471.310          51.000  
  24558772.673     2600269.9263      -4032.313          36.000  
  21387059.840     1184098.232       -1960.862          50.000  
  23583210.308      859996.721       -3233.002          44.000  
  23880765.425    -1174260.838        2628.051          43.000  
  23069879.958    -1464459.6542       2247.869          42.000  
 18 10  7 18  3 45.0000000  0  8G30G 2G 5G 6G 7G 9G28G13
  20520497.527     -182352.503         122.317          51.000  
  22761524.546     1435602.9572      -2349.938          46.000  
  21229285.007    -1022784.882        1469.409          48.000  
  24559541.697     2604305.5682      -4035.220          38.000  
  21387432.926     1186059.494       -1963.017          49.000  
  23583825.631      863229.574       -3232.788          44.000  
  23880264.704    -1176888.304        2627.543          41.000  
  23069451.821    -1466706.4002       2243.998          40.000  
 18 10  7 18  3 46.0000000  0  8G30G 2G 5G 6G 7G 9G28G13
  20520473.863     -182475.568         123.002          48.000  
  22761972.240     1437953.3762      -2351.262          44.000  
  21229005.219    -1024254.834        1469.879          44.000  
  24560307.550     2608341.4953      -4036.934          36.000  
  21387805.610     1188021.167       -1962.021          49.000  
  23584440.699      866462.340       -3230.801          43.000  
  23879764.770    -1179515.608        2626.553          42.000  
  23069024.759    -1468952.6783       2249.105          38.000  
 18 10  7 18  3 47.0000000  0  8G30G 2G 5G 6G 7G 9G28G13
  20520450.379     -182598.351         121.936          47.000  
  22762419.240     1440303.2502      -2349.124          40.000  
  21228725.405    -1025725.050        1469.558          47.000  
  24561072.954     2612376.5802      -4034.356          31.000  
  21388179.745     1189983.210       -1962.751          47.000  
  23585056.037      869695.328       -3234.415          41.000  
  23879266.023    -1182143.022        2626.337          38.000  
  23068597.794    -1471199.6363       2249.004          35.000  
 18 10  7 18  3 48.0000000  0  8G30G 2G 5G 6G 7G 9G28G13
  20520426.786     -182720.904         120.738          49.000  
  22762866.590     1442653.4102      -2351.192          37.000  
  21228445.286    -1027195.053        1468.332          48.000  
  24561844.675     2616411.7422      -4036.278          38.000  
  21388553.513     1191945.315       -1963.784          49.000  
  23585671.325      872928.205       -3233.819          40.000  
  23878765.654    -1184770.369        2626.300          43.000  
  23068169.297    -1473446.7922       2246.687          40.000  
 18 10  7 18  3 49.0000000  0  8G30G 2G 5G 6G 7G 9G28G13
  20520403.970     -182843.213         122.577          48.000  
  22763314.785     1445003.729       -2349.744          41.000  
  21228165.864    -1028664.766        1469.716          53.000  
  24562611.084     2620446.2693      -4034.473          37.000  
  21388926.813     1193907.575       -1962.432          50.000  
  23586285.994      876160.715       -3234.660          41.000  
  23878265.242    -1187398.188        2628.158          41.000  
  23067742.677    -1475693.8032       2246.468          45.000  
 18 10  7 18  3 50.0000000  0  8G30G 2G 5G 6G 7G 9G28G13
  20520380.670     -182964.417         121.924          49.000  
  22763762.355     1447355.2753      -2351.738          41.000  
  21227886.951    -1030133.382        1468.468          52.000  
  24563379.053     2624481.1842      -4033.653          38.000  
  21389300.090     1195870.556       -1963.186          50.000  
  23586901.555      879393.223       -3233.026          44.000  
  23877765.353    -1190025.783        2630.739          43.000  
  23067315.607    -1477939.9852       2245.458          44.000  
 18 10  7 18  3 51.0000000  0  8G30G 2G 5G 6G 7G 9G28G13
  20520358.574     -183085.378         119.194          51.000  
  22764209.460     1449707.9453      -2352.097          42.000  
  21227607.972    -1031601.119        1467.145          49.000  
  24564146.024     2628516.4843      -4040.663          32.000  
  21389673.475     1197833.479       -1962.738          51.000  
  23587516.099      882624.991       -3229.955          45.000  
  23877265.646    -1192653.669        2630.038          42.000  
  23066888.962    -1480184.9312       2247.190          38.000  
 18 10  7 18  3 52.0000000  0  8G30G 2G 5G 6G 7G 9G28G13
  20520335.626     -183206.674         120.107          51.000  
  22764657.067     1452060.4122      -2352.562          44.000  
  21227327.130    -1033069.468        1469.060          47.000  
  24564912.844     2632551.2653      -4035.392          38.000  
  21390047.062     1199795.499       -1962.494          48.000  
  23588130.981      885856.1983      -3229.086          43.000  
  23876765.403    -1195282.246        2629.138          41.000  
  23066462.001    -1482430.9183       2247.783          38.000  
 18 10  7 18  3 53.0000000  0  8G30G 2G 5G 6G 7G 9G28G13
  20520312.385     -183327.800         121.197          47.000  
  22765104.283     1454411.9022      -2351.906          41.000  
  21227048.158    -1034538.125        1469.083          47.000  
  24565680.108     2636584.9422      -4032.992          36.000  
  21390420.785     1201758.269       -1962.156          46.000  
  23588745.862      889087.5883      -3230.235          38.000  
  23876265.402    -1197910.900        2628.929          40.000  
  23066034.562    -1484677.8343       2247.210          44.000  
 18 10  7 18  3 54.0000000  0  8G30G 2G 5G 6G 7G 9G28G13
  20520289.298     -183446.933         118.658          48.000  
  22765551.977     1456764.9312      -2354.605          39.000  
  21226768.522    -1036004.903        1464.052          47.000  
  24566447.946     2640619.5932      -4034.772          34.000  
  21390794.665     1203722.928       -1965.375          50.000  
  23589361.193      892320.3272      -3235.711          41.000  
  23875765.549    -1200538.480        2626.583          43.000  
  23065606.997    -1486923.1342       2243.426          42.000  
 18 10  7 18  3 55.0000000  0  8G30G 2G 5G 6G 7G 9G28G13
  20520266.323     -183565.582         118.626          50.000  
  22765999.907     1459119.0242      -2353.882          42.000  
  21226490.052    -1037471.301        1467.066          49.000  
  24567215.760     2644654.4453      -4035.688          40.000  
  21391168.459     1205687.354       -1964.218          51.000  
  23589975.587      895552.3462      -3232.125          46.000  
  23875265.500    -1203165.937        2629.051          42.000  
  23065178.930    -1489167.8812       2245.047          39.000  
 18 10  7 18  3 56.0000000  0  8G30G 2G 5G 6G 7G 9G28G13
  20520244.074     -183684.569         117.167          50.000  
  22766447.409     1461472.4092      -2352.896          39.000  
  21226210.781    -1038938.303        1465.901          51.000  
  24567983.637     2648689.0592      -4035.165          38.000  
  21391542.155     1207651.563       -1965.932          49.000  
  23590590.677      898784.0183      -3232.910          36.000  
  23874765.656    -1205793.789        2625.615          41.000  
  23064750.326    -1491413.7592       2243.264          43.000  
 18 10  7 18  3 57.0000000  0  8G30G 2G 5G 6G 7G 9G28G13
  20520221.493     -183802.708         117.717          51.000  
  22766894.305     1463826.4582      -2355.594          38.000  
  21225931.739    -1040404.614        1466.066          49.000  
  24568752.029     2652723.4852      -4036.180          36.000  
  21391916.231     1209616.484       -1965.342          50.000  
  23591206.181      902016.1913      -3235.378          41.000  
  23874265.818    -1208421.279        2625.739          41.000  
  23064322.925    -1493659.4092       2245.687          41.000  
 18 10  7 18  3 58.0000000  0  8G30G 2G 5G 6G 7G 9G28G13
  20520199.530     -183920.200         117.829          50.000  
  22767343.271     1466181.0642      -2354.072          41.000  
  21225652.989    -1041870.372        1465.980          47.000  
  24569520.284     2656757.7583      -4034.812          38.000  
  21392289.845     1211581.824       -1964.437          50.000  
  23591821.116      905248.1913      -3232.276          49.000  
  23873766.127    -1211048.679        2628.223          41.000  
  23063896.003    -1495904.7482       2245.511          39.000  
 18 10  7 18  3 59.0000000  0  8G30G 2G 5G 6G 7G 9G28G13
  20520177.632     -184037.096         115.078          52.000  
  22767791.464     1468535.7452      -2356.320          43.000  
  21225374.093    -1043335.774        1463.698          48.000  
  24570288.370     2660792.1962      -4034.266          39.000  
  21392664.290     1213547.961       -1968.827          48.000  
  23592436.467      908480.8322      -3234.079          46.000  
  23873265.777    -1213675.897        2628.297          42.000  
  23063468.863    -1498150.0372       2243.669          40.000  
 18 10  7 18  4  0.0000000  0  8G30G 2G 5G 6G 7G 9G28G13
  20520155.905     -184153.548         115.504          52.000  
  22768239.791     1470890.2822      -2354.692          41.000  
  21225095.899    -1044801.025        1464.792          50.000  
  24571055.794     2664825.8882      -4035.219          38.000  
  21393037.833     1215514.534       -1966.382          47.000  
  23593051.910      911713.7992      -3233.406          45.000  
  23872766.236    -1216303.082        2626.024          41.000  
  23063042.218    -1500395.5552       2245.841          42.000  
 18 10  7 18  4  1.0000000  0  8G30G 2G 5G 6G 7G 9G28G13
  20520133.494     -184269.113         116.592          48.000  
  22768688.318     1473246.124       -2354.840          40.000  
  21224817.191    -1046265.403        1465.081          48.000  
  24571823.852     2668860.4202      -4034.164          38.000  
  21393413.229     1217481.399       -1966.093          54.000  
  23593667.179      914946.2692      -3232.396          48.000  
  23872266.399    -1218929.905        2627.519          43.000  
  23062615.172    -1502640.538        2243.667          39.000  
 18 10  7 18  4  2.0000000  0  8G30G 2G 5G 6G 7G 9G28G13
  20520111.769     -184384.570         114.355          51.000  
  22769135.899     1475601.941       -2355.386          39.000  
  21224538.350    -1047729.737        1462.841          48.000  
  24572591.472     2672894.5783      -4033.120          39.000  
  21393787.588     1219448.489       -1968.263          52.000  
  23594283.008      918178.9422      -3233.491          47.000  
  23871765.730    -1221556.841        2627.387          42.000  
  23062188.052    -1504885.605        2244.724          40.000  
 18 10  7 18  4  3.0000000  0  8G30G 2G 5G 6G 7G 9G28G13
  20520089.705     -184499.171         113.590          52.000  
  22769586.653     1477958.657       -2357.303          46.000  
  21224259.759    -1049193.334        1463.722          50.000  
  24573358.826     2676929.2802      -4036.501          39.000  
  21394162.229     1221416.116       -1968.322          51.000  
  23594898.017      921411.8092      -3232.891          45.000  
  23871266.106    -1224183.249        2625.405          43.000  
  23061761.063    -1507130.0773       2244.582          43.000  
 18 10  7 18  4  4.0000000  0  8G30G 2G 5G 6G 7G 9G28G13
  20520068.320     -184612.809         113.967          52.000  
  22770035.108     1480315.763       -2357.511          44.000  
  21223981.033    -1050656.360        1463.719          51.000  
  24574126.589     2680963.8132      -4033.673          39.000  
  21394536.565     1223384.588       -1968.220          51.000  
  23595513.523      924645.0732      -3234.448          47.000  
  23870766.258    -1226809.361        2625.149          40.000  
  23061334.300    -1509374.4472       2244.923          43.000  
 18 10  7 18  4  5.0000000  0  8G30G 2G 5G 6G 7G 9G28G13
  20520046.605     -184726.282         111.363          52.000  
  22770482.536     1482672.181       -2358.319          40.000  
  21223703.215    -1052119.654        1461.319          50.000  
  24574893.465     2684997.6323      -4036.321          37.000  
  21394911.193     1225353.615       -1971.584          52.000  
  23596128.194      927878.9722      -3236.237          46.000  
  23870266.689    -1229435.463        2625.202          42.000  
  23060907.444    -1511619.6952       2244.602          43.000  
 18 10  7 18  4  6.0000000  0  8G30G 2G 5G 6G 7G 9G28G13
  20520024.705     -184839.201         112.118          50.000  
  22770930.817     1485029.447       -2357.676          43.000  
  21223425.159    -1053582.439        1462.787          50.000  
  24575661.883     2689031.7772      -4032.512          38.000  
  21395285.858     1227322.806       -1969.922          51.000  
  23596743.597      931112.6672      -3233.987          46.000  
  23869767.242    -1232061.399        2624.628          43.000  
  23060479.194    -1513864.5423       2245.531          36.000  
 18 10  7 18  4  7.0000000  0  8G30G 2G 5G 6G 7G 9G28G13
  20520003.457     -184950.998         111.500          49.000  
  22771378.675     1487387.395       -2357.389          43.000  
  21223146.773    -1055044.420        1462.058          49.000  
  24576429.868     2693066.2112      -4037.159          37.000  
  21395660.738     1229292.955       -1970.371          52.000  
  23597358.977      934346.394       -3235.341          44.000  
  23869267.511    -1234686.858        2623.671          39.000  
  23060052.623    -1516108.9482       2244.969          40.000  
 18 10  7 18  4  8.0000000  0  8G30G 2G 5G 6G 7G 9G28G13
  20519982.988     -185062.154         109.536          52.000  
  22771826.301     1489746.008       -2361.492          41.000  
  21222867.819    -1056506.193        1460.355          48.000  
  24577196.890     2697101.2012      -4036.794          37.000  
  21396035.955     1231263.507       -1971.192          51.000  
  23597974.457      937580.868       -3233.939          44.000  
  23868768.808    -1237311.453        2623.800          41.000  
  23059626.430    -1518353.2633       2242.890          32.000  
 18 10  7 18  4  9.0000000  0  8G30G 2G 5G 6G 7G 9G28G13
  20519961.566     -185173.159         113.444          51.000  
  22772275.317     1492104.918       -2358.260          40.000  
  21222590.541    -1057967.541        1463.883          51.000  
  24577965.057     2701135.8152      -4032.593          39.000  
  21396410.670     1233233.944       -1968.480          50.000  
  23598590.123      940814.611       -3232.479          45.000  
  23868269.686    -1239936.707        2625.182          38.000  
  23059198.880    -1520597.5023       2245.646          38.000  
 18 10  7 18  4 10.0000000  0  8G30G 2G 5G 6G 7G 9G28G13
  20519940.200     -185283.909         110.583          50.000  
  22772723.515     1494463.626       -2360.179          43.000  
  21222311.986    -1059428.768        1459.788          53.000  
  24578731.837     2705169.4493      -4033.578          40.000  
  21396786.048     1235204.723       -1971.242          49.000  
  23599204.722      944048.328       -3234.210          42.000  
  23867769.667    -1242562.280        2624.805          38.000  
  23058773.095    -1522842.0043       2243.692          41.000  
 18 10  7 18  4 11.0000000  0  8G30G 2G 5G 6G 7G 9G28G13
  20519919.980     -185394.202         108.298          52.000  
  22773173.399     1496822.158       -2359.564          44.000  
  21222033.836    -1060890.043        1459.939          52.000  
  24579499.799     2709203.1062      -4033.287          41.000  
  21397161.178     1237176.114       -1973.595          52.000  
  23599818.902      947282.874       -3234.862          43.000  
  23867270.497    -1245187.6533       2623.819          43.000  
  23058343.649    -1525086.9392       2246.373          41.000  
 18 10  7 18  4 12.0000000  0  8G30G 2G 5G 6G 7G 9G28G13
  20519898.579     -185503.728         110.982          51.000  
  22773622.821     1499180.513       -2356.274          44.000  
  21221755.943    -1062351.010        1462.899          53.000  
  24580267.101     2713236.2512      -4032.941          42.000  
  21397537.010     1239148.486       -1970.872          49.000  
  23600435.394      950518.341       -3235.206          47.000  
  23866771.992    -1247812.5352       2622.126          39.000  
  23057916.021    -1527332.4772       2246.540          41.000  
 18 10  7 18  4 13.0000000  0  8G30G 2G 5G 6G 7G 9G28G13
  20519878.267     -185612.643         108.631          49.000  
  22774071.861     1501538.037       -2356.971          46.000  
  21221477.691    -1063812.114        1461.564          53.000  
  24581034.236     2717268.4022      -4031.947          41.000  
  21397912.835     1241122.050       -1975.277          46.000  
  23601052.272      953754.812       -3239.435          47.000  
  23866272.794    -1250436.9832       2621.569          41.000  
  23057488.881    -1529579.0992       2248.387          38.000  
 18 10  7 18  4 14.0000000  0  8G30G 2G 5G 6G 7G 9G28G13
  20519857.028     -185721.276         106.658          50.000  
  22774520.813     1503895.331       -2357.854          43.000  
  21221200.097    -1065273.327        1461.217          51.000  
  24581801.537     2721300.4313      -4031.622          40.000  
  21398287.513     1243096.029       -1975.965          47.000  
  23601669.445      956991.926       -3237.886          48.000  
  23865772.128    -1253061.2733       2621.864          43.000  
  23057058.131    -1531826.4063       2248.413          39.000  
 18 10  7 18  4 15.0000000  0  8G30G 2G 5G 6G 7G 9G28G13
  20519836.581     -185829.221         106.872          43.000  
  22774969.808     1506251.724       -2357.779          37.000  
  21220921.306    -1066735.323        1461.640          39.000  
  24582568.533     2725332.7453      -4027.057          33.000  
  21398663.147     1245070.991       -1975.344          42.000  
  23602285.021      960230.575       -3238.885          40.000  
  23865272.497    -1255684.1902       2620.394          34.000  
  23056632.934    -1534074.9362       2248.620          38.000  
 18 10  7 18  4 16.0000000  0  8G30G 2G 5G 6G 7G 9G28G13
  20519815.222     -185936.186         109.092          45.000  
  22775418.088     1508609.024       -2357.095          38.000  
  21220642.981    -1068196.788        1462.495          42.000  
  24583336.339     2729365.3473      -4030.663          34.000  
  21399039.236     1247046.337       -1974.276          42.000  
  23602901.306      963469.223       -3236.960          39.000  
  23864773.264    -1258306.4352       2622.984          35.000  
  23056206.772    -1536323.3892       2248.700          39.000  
 18 10  7 18  4 17.0000000  0  8G30G 2G 5G 6G 7G 9G28G13
  20519794.960     -186043.062         104.383          50.000  
  22775866.720     1510966.023       -2359.567          42.000  
  21220364.718    -1069658.696        1459.133          45.000  
  24584103.841     2733397.4893      -4032.308          39.000  
  21399414.496     1249021.846       -1978.296          50.000  
  23603518.036      966708.008       -3241.215          45.000  
  23864274.633    -1260928.5322       2621.296          42.000  
  23055777.889    -1538572.4632       2249.328          46.000  
 18 10  7 18  4 18.0000000  0  8G30G 2G 5G 6G 7G 9G28G13
  20519774.364     -186149.713         107.547          47.000  
  22776314.646     1513322.836       -2354.791          40.000  
  21220086.407    -1071120.739        1463.325          48.000  
  24584872.374     2737429.3783      -4030.770          36.000  
  21399790.370     1250997.627       -1974.640          49.000  
  23604135.126      969946.909       -3237.510          41.000  
  23863775.114    -1263550.7252       2623.903          35.000  
  23055349.299    -1540821.9832       2250.426          43.000  
 18 10  7 18  4 19.0000000  0  8G30G 2G 5G 6G 7G 9G28G13
  20519754.768     -186255.603         104.123          49.000  
  22776762.477     1515680.121       -2356.029          45.000  
  21219807.537    -1072582.301        1462.577          52.000  
  24585639.349     2741460.7353      -4033.119          43.000  
  21400167.144     1252973.830       -1978.715          44.000  
  23604750.139      973185.894       -3242.479          42.000  
  23863276.369    -1266172.5073       2616.644          37.000  
  23054921.262    -1543071.6552       2252.718          44.000  
 18 10  7 18  4 20.0000000  0  8G30G 2G 5G 6G 7G 9G28G13
  20519734.863     -186360.057         102.883          49.000  
  22777213.288     1518038.572       -2358.417          38.000  
  21219530.464    -1074043.279        1459.328          47.000  
  24586406.094     2745493.6833      -4030.572          37.000  
  21400543.619     1254951.166       -1977.952          47.000  
  23605366.147      976426.3763      -3239.051          38.000  
  23862777.302    -1268792.6302       2621.574          40.000  
  23054494.042    -1545320.7602       2248.155          44.000  
 18 10  7 18  4 21.0000000  0  8G30G 2G 5G 6G 7G 9G28G13
  20519715.581     -186464.427         105.021          50.000  
  22777661.364     1520396.926       -2357.688          41.000  
  21219252.668    -1075504.242        1461.647          48.000  
  24587173.164     2749526.1783      -4034.054          40.000  
  21400919.157     1256928.353       -1977.135          46.000  
  23605982.517      979665.8092      -3238.962          38.000  
  23862277.765    -1271413.3732       2621.590          41.000  
  23054066.383    -1547570.2312       2249.165          42.000  
 18 10  7 18  4 22.0000000  0  8G30G 2G 5G 6G 7G 9G28G13
  20519695.190     -186568.353         102.171          49.000  
  22778111.084     1522755.776       -2361.240          39.000  
  21218974.852    -1076965.276        1459.576          48.000  
  24587940.843     2753559.1712      -4031.227          38.000  
  21401294.884     1258905.749       -1979.160          45.000  
  23606599.027      982905.5083      -3240.412          40.000  
  23861779.965    -1274033.4912       2619.698          39.000  
  23053638.008    -1549819.7642       2248.014          43.000  
 18 10  7 18  4 23.0000000  0  8G30G 2G 5G 6G 7G 9G28G13
  20519675.720     -186671.527         104.870          48.000  
  22778559.946     1525114.826       -2358.210          41.000  
  21218697.007    -1078425.362        1461.622          49.000  
  24588708.089     2757591.6672      -4032.779          35.000  
  21401671.811     1260884.030       -1976.743          46.000  
  23607215.556      986145.6672      -3237.048          41.000  
  23861281.336    -1276653.6372       2620.703          41.000  
  23053210.683    -1552069.0132       2250.490          43.000  
 18 10  7 18  4 24.0000000  0  8G30G 2G 5G 6G 7G 9G28G13
  20519656.835     -186773.836         100.936          50.000  
  22779009.825     1527474.709       -2360.700          44.000  
  21218419.448    -1079884.952        1458.045          50.000  
  24589474.691     2761624.6422      -4032.999          42.000  
  21402048.949     1262862.937       -1980.344          49.000  
  23607832.997      989386.0672      -3240.422          38.000  
  23860783.045    -1279273.2022       2618.032          43.000  
  23052782.280    -1554317.8482       2248.486          42.000  
 18 10  7 18  4 25.0000000  0  8G30G 2G 5G 6G 7G 9G28G13
  20519637.057     -186876.069         101.929          47.000  
  22779458.571     1529834.665       -2359.602          40.000  
  21218141.794    -1081344.290        1458.793          48.000  
  24590241.375     2765657.1973      -4031.922          33.000  
  21402426.271     1264841.778       -1978.912          46.000  
  23608448.916      992625.9342      -3235.441          31.000  
  23860284.032    -1281893.1582       2619.226          40.000  
  23052354.204    -1556566.693        2249.131          42.000  
 18 10  7 18  4 26.0000000  0  8G30G 2G 5G 6G 7G 9G28G13
  20519617.338     -186977.691         102.068          47.000  
  22779907.425     1532194.727       -2358.957          39.000  
  21217864.449    -1082803.495        1459.877          44.000  
  24591008.911     2769689.2153      -4029.516          35.000  
  21402802.567     1266821.123       -1978.095          40.000  
  23609065.403      995866.1523      -3238.420          36.000  
  23859785.447    -1284513.2192       2620.838          39.000  
  23051926.377    -1558815.860        2252.221          37.000  
 18 10  7 18  4 27.0000000  0  8G30G 2G 5G 6G 7G 9G28G13
  20519598.145     -187079.374         100.868          47.000  
  22780355.924     1534554.4953      -2360.456          44.000  
  21217586.094    -1084263.015        1459.771          49.000  
  24591776.112     2773721.0712      -4029.815          41.000  
  21403178.434     1268800.273       -1979.964          48.000  
  23609684.555      999105.2503      -3242.292          33.000  
  23859287.245    -1287133.2562       2621.353          43.000  
  23051497.979    -1561065.788        2248.655          45.000  
 18 10  7 18  4 28.0000000  0  8G30G 2G 5G 6G 7G 9G28G13
  20519579.511     -187179.172          99.981          52.000  
  22780804.565     1536915.6672      -2360.386          46.000  
  21217308.443    -1085720.901        1458.761          49.000  
  24592543.113     2777753.7432      -4033.958          36.000  
  21403555.470     1270781.464       -1980.476          46.000  
  23610298.883     1002346.7243      -3241.912          40.000  
  23858789.763    -1289752.0012       2618.342          46.000  
  23051069.772    -1563314.352        2250.923          43.000  
 18 10  7 18  4 29.0000000  0  8G30G 2G 5G 6G 7G 9G28G13
  20519559.921     -187278.715          99.534          51.000  
  22781253.912     1539277.3362      -2361.482          47.000  
  21217031.510    -1087178.258        1457.911          49.000  
  24593311.424     2781786.2292      -4033.322          43.000  
  21403933.047     1272762.641       -1981.216          47.000  
  23610917.659     1005587.8763      -3243.083          37.000  
  23858290.927    -1292371.1942       2617.432          43.000  
  23050641.697    -1565562.610        2251.041          44.000  
 18 10  7 18  4 30.0000000  0  8G30G 2G 5G 6G 7G 9G28G13
  20519540.466     -187378.257          99.328          49.000  
  22781703.463     1541639.0412      -2364.218          42.000  
  21216753.258    -1088636.071        1457.548          49.000  
  24594077.532     2785818.6942      -4030.775          36.000  
  21404308.872     1274743.352       -1980.789          47.000  
  23611534.692     1008828.3783      -3239.099          39.000  
  23857792.182    -1294990.3062       2619.736          44.000  
  23050212.855    -1567811.345        2249.258          45.000  
 18 10  7 18  4 31.0000000  0  8G30G 2G 5G 6G 7G 9G28G13
  20519521.798     -187476.617          98.404          51.000  
  22782153.268     1544001.5032      -2362.483          44.000  
  21216475.780    -1090093.266        1456.223          47.000  
  24594845.859     2789851.6092      -4032.299          41.000  
  21404686.094     1276725.075       -1982.417          46.000  
  23612151.924     1012069.4663      -3242.238          38.000  
  23857293.473    -1297608.708        2619.642          47.000  
  23049787.271    -1570059.996        2248.129          36.000  
 18 10  7 18  4 32.0000000  0  8G30G 2G 5G 6G 7G 9G28G13
  20519503.432     -187575.004          98.147          52.000  
  22782603.039     1546363.8142      -2362.099          44.000  
  21216198.332    -1091550.248        1457.832          47.000  
  24595613.143     2793883.8672      -4032.651          39.000  
  21405064.211     1278706.822       -1982.031          46.000  
  23612767.413     1015310.0163      -3239.568          38.000  
  23856795.214    -1300227.543        2619.064          45.000  
  23049360.552    -1572308.643        2248.758          43.000  
 18 10  7 18  4 33.0000000  0  8G30G 2G 5G 6G 7G 9G28G13
  20519485.096     -187672.287          97.584          52.000  
  22783052.325     1548726.9762      -2364.382          44.000  
  21215922.438    -1093006.417        1456.209          49.000  
  24596380.204     2797916.4592      -4035.073          36.000  
  21405441.090     1280689.471       -1981.666          49.000  
  23613383.916     1018550.9883      -3238.491          40.000  
  23856297.211    -1302845.892        2618.764          47.000  
  23048931.468    -1574556.744        2247.313          41.000  
 18 10  7 18  4 34.0000000  0  8G30G 2G 5G 6G 7G 9G28G13
  20519466.675     -187769.551          98.028          49.000  
  22783502.447     1551090.4162      -2362.388          44.000  
  21215645.405    -1094461.812        1457.614          47.000  
  24597147.477     2801948.1552      -4031.580          43.000  
  21405818.593     1282672.241       -1982.420          50.000  
  23613998.506     1021791.4553      -3238.556          41.000  
  23855798.246    -1305465.348        2620.108          44.000  
  23048502.869    -1576804.383        2251.067          40.000  
 18 10  7 18  4 35.0000000  0  8G30G 2G 5G 6G 7G 9G28G13
  20519448.870     -187866.922          96.119          50.000  
  22783952.804     1553453.7352      -2365.331          41.000  
  21215368.594    -1095917.531        1454.064          46.000  
  24597914.922     2805979.5252      -4028.037          36.000  
  21406196.632     1284654.602       -1983.151          48.000  
  23614617.816     1025031.2033      -3238.735          34.000  
  23855300.077    -1308085.061        2619.552          42.000  
  23048074.157    -1579052.537        2247.042          44.000  
 18 10  7 18  4 36.0000000  0  8G30G 2G 5G 6G 7G 9G28G13
  20519430.811     -187963.098          96.252          50.000  
  22784402.955     1555817.6282      -2364.199          41.000  
  21215091.672    -1097372.944        1455.031          48.000  
  24598682.320     2810011.3882      -4031.942          38.000  
  21406573.254     1286637.979       -1983.134          48.000  
  23615235.116     1028271.7323      -3246.445          31.000  
  23854801.503    -1310703.648        2619.607          45.000  
  23047647.848    -1581300.765        2248.799          44.000  
 18 10  7 18  4 37.0000000  0  8G30G 2G 5G 6G 7G 9G28G13
  20519412.735     -188058.704          93.644          50.000  
  22784852.662     1558182.2363      -2364.656          42.000  
  21214814.308    -1098827.760        1452.938          46.000  
  24599449.735     2814043.497       -4031.684          41.000  
  21406950.589     1288621.708       -1985.565          47.000  
  23615850.910     1031512.0093      -3241.713          34.000  
  23854303.247    -1313322.126        2618.377          43.000  
  23047221.210    -1583548.588        2247.213          43.000  
 18 10  7 18  4 38.0000000  0  8G30G 2G 5G 6G 7G 9G28G13
  20519394.652     -188154.050          97.134          50.000  
  22785303.087     1560546.7193      -2358.042          37.000  
  21214537.798    -1100282.261        1456.440          48.000  
  24600217.276     2818074.917       -4029.200          37.000  
  21407328.611     1290605.799       -1982.083          48.000  
  23616468.647     1034752.8053      -3240.374          35.000  
  23853804.978    -1315940.961        2619.509          42.000  
  23046793.882    -1585796.489        2249.316          44.000  
 18 10  7 18  4 39.0000000  0  8G30G 2G 5G 6G 7G 9G28G13
  20519376.190     -188249.049          94.529          49.000  
  22785752.256     1562911.3543      -2364.366          40.000  
  21214260.708    -1101736.572        1454.245          48.000  
  24600984.555     2822106.036       -4032.179          37.000  
  21407706.807     1292589.963       -1984.280          48.000  
  23617085.792     1037993.0503      -3240.428          36.000  
  23853307.476    -1318560.050        2618.046          45.000  
  23046365.266    -1588044.463        2249.878          41.000  
 18 10  7 18  4 40.0000000  0  8G30G 2G 5G 6G 7G 9G28G13
  20519358.532     -188343.989          92.165          50.000  
  22786202.591     1565275.7822      -2366.683          43.000  
  21213984.663    -1103191.000        1452.606          50.000  
  24601750.991     2826136.5473      -4032.932          34.000  
  21408083.553     1294574.274       -1985.746          48.000  
  23617701.409     1041233.4053      -3240.415          35.000  
  23852809.233    -1321179.209        2618.232          44.000  
  23045936.817    -1590292.865        2247.750          47.000  
 18 10  7 18  4 41.0000000  0  8G30G 2G 5G 6G 7G 9G28G13
  20519340.098     -188438.332          95.272          49.000  
  22786652.641     1567640.6552      -2365.095          42.000  
  21213707.966    -1104644.751        1453.907          50.000  
  24602517.389     2830166.9853      -4030.168          39.000  
  21408461.276     1296559.087       -1984.095          48.000  
  23618319.636     1044473.7273      -3244.450          38.000  
  23852310.700    -1323798.622        2619.324          44.000  
  23045508.351    -1592541.076        2247.677          43.000  
 18 10  7 18  4 42.0000000  0  8G30G 2G 5G 6G 7G 9G28G13
  20519322.353     -188532.122          93.392          50.000  
  22787101.954     1570006.1292      -2364.654          41.000  
  21213430.863    -1106098.120        1453.321          50.000  
  24603283.981     2834197.6082      -4031.172          40.000  
  21408838.835     1298544.128       -1985.127          48.000  
  23618935.868     1047714.3003      -3240.732          39.000  
  23851812.089    -1326417.805        2620.234          44.000  
  23045081.093    -1594788.924        2248.800          42.000  
 18 10  7 18  4 43.0000000  0  8G30G 2G 5G 6G 7G 9G28G13
  20519304.378     -188625.175          93.083          51.000  
  22787551.829     1572372.2502      -2365.612          44.000  
  21213154.203    -1107551.107        1453.411          50.000  
  24604051.337     2838228.3802      -4031.113          39.000  
  21409216.800     1300529.652       -1984.804          47.000  
  23619550.205     1050954.7952      -3239.399          37.000  
  23851313.756    -1329036.631        2618.367          45.000  
  23044652.601    -1597036.719        2246.712          42.000  
 18 10  7 18  4 44.0000000  0  8G30G 2G 5G 6G 7G 9G28G13
  20519287.368     -188717.835          91.541          51.000  
  22788002.760     1574738.9142      -2367.149          41.000  
  21212878.810    -1109003.272        1451.610          48.000  
  24604818.741     2842258.9682      -4030.028          40.000  
  21409594.556     1302515.466       -1987.006          48.000  
  23620165.332     1054194.8693      -3241.477          43.000  
  23850814.645    -1331656.058        2618.240          39.000  
  23044226.142    -1599283.859        2248.385          43.000  
 18 10  7 18  4 45.0000000  0  8G30G 2G 5G 6G 7G 9G28G13
  20519269.457     -188809.681          90.720          51.000  
  22788453.541     1577105.7042      -2369.420          40.000  
  21212601.487    -1110455.473        1451.204          50.000  
  24605585.914     2846289.7993      -4030.414          32.000  
  21409972.393     1304501.905       -1987.049          47.000  
  23620781.968     1057435.7472      -3241.239          42.000  
  23850316.014    -1334274.259        2616.700          42.000  
  23043798.949    -1601531.411        2246.093          44.000  
 18 10  7 18  4 46.0000000  0  8G30G 2G 5G 6G 7G 9G28G13
  20519251.458     -188901.248          92.231          48.000  
  22788904.755     1579472.5772      -2367.393          41.000  
  21212325.610    -1111907.373        1452.281          48.000  
  24606353.209     2850320.2773      -4030.414          37.000  
  21410350.650     1306488.670       -1985.895          46.000  
  23621399.270     1060676.5723      -3241.078          43.000  
  23849818.179    -1336892.932        2619.087          43.000  
  23043370.590    -1603779.155        2247.509          44.000  
 18 10  7 18  4 47.0000000  0  8G30G 2G 5G 6G 7G 9G28G13
  20519234.601     -188992.291          90.706          51.000  
  22789354.192     1581839.7042      -2366.547          43.000  
  21212049.028    -1113359.208        1451.383          47.000  
  24607119.703     2854350.6903      -4027.593          39.000  
  21410729.412     1308475.741       -1986.986          46.000  
  23622016.802     1063917.5202      -3239.067          42.000  
  23849319.818    -1339511.215        2618.391          44.000  
  23042942.268    -1606027.073        2247.788          44.000  
 18 10  7 18  4 48.0000000  0  8G30G 2G 5G 6G 7G 9G28G13
  20519216.980     -189082.930          89.639          50.000  
  22789804.853     1584207.0852      -2366.489          42.000  
  21211773.769    -1114810.246        1450.647          49.000  
  24607886.147     2858380.2192      -4032.154          38.000  
  21411107.272     1310463.348       -1987.680          46.000  
  23622633.652     1067158.4433      -3239.941          43.000  
  23848821.501    -1342130.150        2617.866          44.000  
  23042514.007    -1608274.589        2248.056          38.000  
 18 10  7 18  4 49.0000000  0  8G30G 2G 5G 6G 7G 9G28G13
  20519199.899     -189172.898          89.722          49.000  
  22790255.223     1586574.802       -2367.543          46.000  
  21211497.220    -1116260.983        1450.656          49.000  
  24608652.838     2862410.0703      -4028.193          33.000  
  21411485.798     1312451.363       -1988.345          45.000  
  23623249.717     1070399.4563      -3243.616          42.000  
  23848323.323    -1344748.728        2617.985          43.000  
  23042087.190    -1610522.0883       2251.579          39.000  
 18 10  7 18  4 50.0000000  0  8G30G 2G 5G 6G 7G 9G28G13
  20519183.170     -189263.051          89.017          51.000  
  22790705.393     1588942.601       -2367.515          39.000  
  21211220.293    -1117711.754        1449.117          49.000  
  24609419.356     2866439.5153      -4026.341          34.000  
  21411863.580     1314439.057       -1988.268          46.000  
  23623865.326     1073639.8562      -3241.082          41.000  
  23847825.436    -1347367.764        2619.518          45.000  
  23041659.697    -1612769.7802       2247.225          42.000  
 18 10  7 18  4 51.0000000  0  8G30G 2G 5G 6G 7G 9G28G13
  20519166.152     -189352.437          89.516          51.000  
  22791155.726     1591310.695       -2368.310          43.000  
  21210944.497    -1119162.071        1449.730          47.000  
  24610185.940     2870468.2213      -4029.287          35.000  
  21412241.905     1316427.440       -1988.220          46.000  
  23624482.994     1076880.4792      -3242.316          40.000  
  23847326.968    -1349986.685        2618.908          45.000  
  23041232.997    -1615017.5232       2245.453          43.000  
 18 10  7 18  4 52.0000000  0  8G30G 2G 5G 6G 7G 9G28G13
  20519148.746     -189441.439          87.338          51.000  
  22791606.215     1593678.989       -2369.901          44.000  
  21210668.009    -1120612.109        1448.730          48.000  
  24610952.022     2874497.5913      -4029.787          37.000  
  21412620.212     1318416.009       -1990.611          48.000  
  23625100.524     1080120.9953      -3243.064          41.000  
  23846828.629    -1352605.688        2619.136          44.000  
  23040805.668    -1617265.1722       2246.452          40.000  
 18 10  7 18  4 53.0000000  0  8G30G 2G 5G 6G 7G 9G28G13
  20519132.565     -189530.153          87.585          50.000  
  22792058.577     1596047.752       -2371.903          43.000  
  21210393.201    -1122061.797        1447.878          51.000  
  24611720.462     2878526.3523      -4029.917          38.000  
  21412998.913     1320404.810       -1990.067          48.000  
  23625716.083     1083361.5293      -3242.257          40.000  
  23846329.728    -1355224.814        2618.930          44.000  
  23040377.219    -1619512.4212       2246.281          45.000  
 18 10  7 18  4 54.0000000  0  8G30G 2G 5G 6G 7G 9G28G13
  20519115.756     -189616.993          87.881          51.000  
  22792508.792     1598418.084       -2369.385          41.000  
  21210116.622    -1123509.915        1449.164          49.000  
  24612487.519     2882556.4633      -4027.877          40.000  
  21413377.301     1322395.227       -1989.718          48.000  
  23626333.205     1086603.3773      -3242.689          34.000  
  23845831.949    -1357842.629        2618.403          46.000  
  23039947.883    -1621758.7042       2248.267          41.000  
 18 10  7 18  4 55.0000000  0  8G30G 2G 5G 6G 7G 9G28G13
  20519099.475     -189703.874          86.050          51.000  
  22792959.213     1600788.378       -2369.571          44.000  
  21209842.047    -1124957.617        1446.988          50.000  
  24613254.658     2886585.5633      -4029.396          39.000  
  21413756.298     1324385.674       -1991.087          48.000  
  23626950.559     1089844.3433      -3241.192          41.000  
  23845333.715    -1360461.264        2618.993          44.000  
  23039520.599    -1624004.9212       2246.180          43.000  
 18 10  7 18  4 56.0000000  0  8G30G 2G 5G 6G 7G 9G28G13
  20519083.552     -189790.877          86.124          50.000  
  22793409.703     1603158.513       -2370.519          44.000  
  21209566.458    -1126405.582        1448.114          50.000  
  24614022.119     2890614.0583      -4030.570          39.000  
  21414134.920     1326375.759       -1989.521          47.000  
  23627567.341     1093084.8422      -3239.327          39.000  
  23844835.160    -1363080.267        2618.780          43.000  
  23039093.105    -1626251.4802       2246.046          46.000  
 18 10  7 18  4 57.0000000  0  8G30G 2G 5G 6G 7G 9G28G13
  20519066.583     -189876.547          85.279          50.000  
  22793861.247     1605529.494       -2370.857          41.000  
  21209291.307    -1127852.739        1447.400          49.000  
  24614789.584     2894643.3793      -4028.991          35.000  
  21414513.762     1328367.037       -1991.473          48.000  
  23628183.951     1096326.1203      -3242.242          40.000  
  23844336.808    -1365698.506        2615.959          43.000  
  23038665.431    -1628497.7312       2247.286          42.000  
 18 10  7 18  4 58.0000000  0  8G30G 2G 5G 6G 7G 9G28G13
  20519050.544     -189961.720          82.697          51.000  
  22794312.925     1607900.782       -2373.292          45.000  
  21209015.975    -1129299.659        1445.093          50.000  
  24615556.085     2898672.5673      -4028.121          35.000  
  21414893.114     1330358.578       -1993.684          47.000  
  23628800.548     1099567.4333      -3243.541          40.000  
  23843838.275    -1368316.516        2614.911          38.000  
  23038237.848    -1630743.9312       2244.703          42.000  
 18 10  7 18  4 59.0000000  0  8G30G 2G 5G 6G 7G 9G28G13
  20519033.563     -190046.601          83.750          50.000  
  22794763.629     1610272.661       -2373.520          44.000  
  21208740.380    -1130746.391        1443.966          50.000  
  24616322.734     2902701.9683      -4031.442          39.000  
  21415272.995     1332350.174       -1992.823          47.000  
  23629418.336     1102808.3313      -3238.867          38.000  
  23843340.695    -1370934.298        2618.143          43.000  
  23037810.329    -1632990.0212       2243.821          42.000  
 18 10  7 18  5  0.0000000  0  8G30G 2G 5G 6G 7G 9G28G13
  20519017.771     -190131.034          84.803          50.000  
  22795215.240     1612644.416       -2367.710          41.000  
  21208464.904    -1132193.091        1447.027          49.000  
  24617088.159     2906730.9083      -4026.678          40.000  
  21415651.254     1334342.049       -1992.660          48.000  
  23630035.777     1106048.2913      -3241.330          38.000  
  23842842.675    -1373552.0893       2618.508          46.000  
  23037382.600    -1635236.4872       2248.450          42.000  
 18 10  7 18  5  1.0000000  0  8G30G 2G 5G 6G 7G 9G28G13
  20519001.446     -190214.657          83.060          50.000  
  22795667.509     1615016.688       -2373.215          43.000  
  21208189.771    -1133639.105        1445.339          48.000  
  24617855.153     2910760.2883      -4027.139          36.000  
  21416030.245     1336334.642       -1993.471          49.000  
  23630651.393     1109290.1843      -3240.304          40.000  
  23842344.868    -1376169.4372       2618.389          46.000  
  23036956.198    -1637482.656        2245.280          41.000  
 18 10  7 18  5  2.0000000  0  8G30G 2G 5G 6G 7G 9G28G13
  20518986.153     -190298.092          82.094          50.000  
  22796119.517     1617389.466       -2373.510          39.000  
  21207915.355    -1135084.529        1445.993          49.000  
  24618623.621     2914788.7952      -4029.277          37.000  
  21416408.690     1338327.528       -1994.210          45.000  
  23631267.876     1112531.5063      -3240.819          39.000  
  23841845.942    -1378787.3952       2617.720          42.000  
  23036529.099    -1639728.447        2246.054          41.000  
 18 10  7 18  5  3.0000000  0  9G30G 2G 5G 6G 7G 9G28G13S27
  20518970.535     -190380.808          83.354          51.000  
  22796570.006     1619762.323       -2373.386          43.000  
  21207640.658    -1136529.620        1446.361          50.000  
  24619390.336     2918817.4213      -4031.254          38.000  
  21416789.109     1340320.889       -1991.377          49.000  
  23631883.777     1115772.7702      -3239.762          42.000  
  23841347.217    -1381405.1432       2616.404          36.000  
  23036101.667    -1641974.258        2245.146          43.000  
  39984109.090       20523.2852       -419.349          38.000  
 18 10  7 18  5  4.0000000  0  9G30G 2G 5G 6G 7G 9G28G13S27
  20518954.638     -190463.017          82.423          50.000  
  22797021.672     1622135.8463      -2374.602          44.000  
  21207365.226    -1137974.184        1444.319          48.000  
  24620156.436     2922845.9752      -4027.100          36.000  
  21417168.705     1342314.432       -1994.080          49.000  
  23632500.330     1119013.9533      -3239.575          42.000  
  23840849.609    -1384023.0112       2618.325          42.000  
  23035674.795    -1644219.741        2245.290          44.000  
  39984189.217       20943.0372       -419.044          38.000  
 18 10  7 18  5  5.0000000  0  9G30G 2G 5G 6G 7G 9G28G13S27
  20518939.971     -190544.314          81.234          51.000  
  22797474.186     1624510.2942      -2375.404          38.000  
  21207090.854    -1139417.836        1443.970          47.000  
  24620922.513     2926875.1483      -4029.311          39.000  
  21417548.112     1344308.826       -1995.649          48.000  
  23633118.273     1122255.8102      -3241.093          42.000  
  23840351.608    -1386640.2012       2617.608          43.000  
  23035247.937    -1646464.568        2244.955          44.000  
  39984268.973       21363.2512       -419.941          38.000  
 18 10  7 18  5  6.0000000  0  9G30G 2G 5G 6G 7G 9G28G13S27
  20518924.048     -190624.912          82.040          50.000  
  22797926.252     1626884.9822      -2372.376          40.000  
  21206815.865    -1140861.281        1445.318          48.000  
  24621688.264     2930904.2332      -4026.203          38.000  
  21417927.428     1346303.961       -1993.815          50.000  
  23633735.330     1125498.3552      -3242.553          37.000  
  23839853.921    -1389256.7382       2618.104          41.000  
  23034819.894    -1648709.582        2246.058          44.000  
  39984349.061       21784.1952       -418.452          36.000  
 18 10  7 18  5  7.0000000  0  9G30G 2G 5G 6G 7G 9G28G13S27
  20518909.291     -190704.917          79.538          52.000  
  22798377.920     1629260.0063      -2374.664          44.000  
  21206541.973    -1142304.309        1442.868          48.000  
  24622454.828     2934933.3273      -4028.659          42.000  
  21418307.156     1348299.383       -1996.270          48.000  
  23634352.353     1128740.5663      -3240.970          43.000  
  23839356.512    -1391873.447        2616.379          45.000  
  23034393.651    -1650954.600        2245.581          41.000  
  39984429.092       22204.8352       -423.422          36.000  
 18 10  7 18  5  8.0000000  0  9G30G 2G 5G 6G 7G 9G28G13S27
  20518893.141     -190785.528          78.662          48.000  
  22798828.836     1631633.9282      -2375.297          39.000  
  21206267.099    -1143748.504        1442.819          48.000  
  24623220.685     2938961.4342      -4027.479          35.000  
  21418686.658     1350294.250       -1995.516          46.000  
  23634969.067     1131982.2932      -3243.036          43.000  
  23838858.227    -1394490.628        2616.724          42.000  
  23033965.468    -1653200.928        2245.543          45.000  
  39984508.999       22625.0733       -417.638          33.000  
 18 10  7 18  5  9.0000000  0  9G30G 2G 5G 6G 7G 9G28G13S27
  20518877.896     -190864.878          80.526          50.000  
  22799281.313     1634009.2092      -2375.363          45.000  
  21205992.097    -1145191.083        1442.748          49.000  
  24623986.800     2942989.4863      -4029.153          35.000  
  21419066.364     1352290.129       -1995.853          48.000  
  23635586.157     1135224.2242      -3240.929          44.000  
  23838359.698    -1397107.871        2616.067          43.000  
  23033539.096    -1655446.155        2245.068          40.000  
  39984588.862       23045.0112       -419.340          37.000  
 18 10  7 18  5 10.0000000  0  9G30G 2G 5G 6G 7G 9G28G13S27
  20518863.465     -190944.176          77.119          50.000  
  22799734.784     1636384.7712      -2376.185          40.000  
  21205718.048    -1146633.438        1441.122          47.000  
  24624754.208     2947017.6482      -4024.894          35.000  
  21419446.280     1354285.915       -1997.867          48.000  
  23636203.360     1138465.7793      -3239.407          44.000  
  23837861.929    -1399725.314        2617.663          44.000  
  23033111.712    -1657691.196        2243.219          44.000  
  39984668.897       23464.4012       -418.557          36.000  
 18 10  7 18  5 11.0000000  0  9G30G 2G 5G 6G 7G 9G28G13S27
  20518848.366     -191022.663          78.729          51.000  
  22800187.250     1638760.6432      -2377.643          41.000  
  21205443.589    -1148075.592        1441.606          49.000  
  24625520.971     2951045.9333      -4029.322          35.000  
  21419826.118     1356282.295       -1995.620          49.000  
  23636821.177     1141707.7253      -3241.310          39.000  
  23837364.460    -1402341.989        2618.022          47.000  
  23032683.852    -1659936.271        2244.693          44.000  
  39984748.839       23884.5393       -416.643          36.000  
 18 10  7 18  5 12.0000000  0  9G30G 2G 5G 6G 7G 9G28G13S27
  20518833.387     -191100.247          78.305          50.000  
  22800638.844     1641137.0002      -2377.055          44.000  
  21205168.508    -1149517.377        1442.493          49.000  
  24626287.314     2955074.4652      -4028.437          39.000  
  21420206.396     1358279.401       -1997.400          48.000  
  23637437.320     1144950.3693      -3250.239          39.000  
  23836866.387    -1404958.021        2614.591          46.000  
  23032256.141    -1662181.460        2245.625          44.000  
  39984828.464       24305.3262       -420.604          35.000  
 18 10  7 18  5 13.0000000  0  9G30G 2G 5G 6G 7G 9G28G13S27
  20518818.616     -191177.237          75.602          51.000  
  22801090.053     1643513.7502      -2377.499          44.000  
  21204894.546    -1150959.466        1441.266          49.000  
  24627054.668     2959103.7743      -4028.900          37.000  
  21420587.103     1360276.616       -1997.925          48.000  
  23638054.235     1148193.3753      -3243.325          42.000  
  23836369.440    -1407573.094        2613.642          47.000  
  23031828.447    -1664427.132        2245.488          42.000  
  39984908.720       24726.9092       -422.653          35.000  
 18 10  7 18  5 14.0000000  0  8G30G 2G 5G 6G 7G 9G28G13
  20518804.132     -191253.596          75.465          51.000  
  22801541.839     1645891.1252      -2379.213          45.000  
  21204619.759    -1152401.625        1440.585          48.000  
  24627821.082     2963134.0493      -4034.942          37.000  
  21420967.317     1362273.996       -1997.184          52.000  
  23638671.323     1151435.8673      -3242.795          47.000  
  23835871.714    -1410186.832        2613.014          41.000  
  23031401.394    -1666672.796        2245.810          43.000  
 18 10  7 18  5 15.0000000  0  8G30G 2G 5G 6G 7G 9G28G13
  20518789.960     -191329.069          76.252          51.000  
  22801993.189     1648269.6492      -2379.581          46.000  
  21204346.247    -1153843.797        1442.160          50.000  
  24628588.800     2967165.7022      -4031.708          44.000  
  21421347.136     1364271.351       -1995.892          52.000  
  23639288.941     1154678.4702      -3241.173          49.000  
  23835374.422    -1412799.535        2612.541          41.000  
  23030975.698    -1668918.477        2244.823          41.000  
 18 10  7 18  5 16.0000000  0  8G30G 2G 5G 6G 7G 9G28G13
  20518775.374     -191404.303          73.200          50.000  
  22802446.781     1650649.7212      -2382.482          42.000  
  21204071.834    -1155286.662        1441.513          47.000  
  24629356.267     2971199.1872      -4034.196          45.000  
  21421726.513     1366267.219       -1997.267          51.000  
  23639904.826     1157919.1762      -3240.344          49.000  
  23834877.684    -1415411.0513       2610.420          37.000  
  23030548.545    -1671163.846        2243.803          41.000  
 18 10  7 18  5 17.0000000  0  8G30G 2G 5G 6G 7G 9G28G13
  20518761.098     -191478.932          73.117          50.000  
  22802899.370     1653031.7142      -2382.246          45.000  
  21203796.504    -1156728.940        1440.748          48.000  
  24630124.004     2975234.3232      -4034.310          41.000  
  21422106.622     1368262.611       -1996.402          50.000  
  23640521.290     1161158.9982      -3239.431          44.000  
  23834381.003    -1418022.0713       2607.317          34.000  
  23030118.965    -1673408.243        2243.703          45.000  
 18 10  7 18  5 18.0000000  0  8G30G 2G 5G 6G 7G 9G28G13
  20518746.928     -191552.331          74.986          50.000  
  22803352.750     1655414.4212      -2382.736          43.000  
  21203521.240    -1158170.276        1442.993          46.000  
  24630891.844     2979269.9102      -4034.266          43.000  
  21422486.219     1370259.083       -1995.177          50.000  
  23641137.239     1164399.4822      -3240.223          44.000  
  23833884.372    -1420632.5673       2611.498          34.000  
  23029692.228    -1675652.006        2244.897          44.000  
 18 10  7 18  5 19.0000000  0  7G30G 2G 5G 6G 7G 9G13
  20518732.850     -191625.054          72.581          51.000  
  22803805.762     1657797.785       -2383.137          43.000  
  21203247.677    -1159610.836        1440.754          48.000  
  24631659.774     2983305.3642      -4038.112          39.000  
  21422866.274     1372256.096       -1996.068          50.000  
  23641754.521     1167640.0012      -3239.948          43.000  
  23029264.785    -1677895.496        2242.374          43.000  
 18 10  7 18  5 20.0000000  0  8G30G 2G 5G 6G 7G 9G28G13
  20518719.686     -191698.159          71.722          51.000  
  22804258.940     1660180.938       -2383.346          46.000  
  21202973.733    -1161051.813        1439.137          46.000  
  24632427.110     2987340.2942      -4032.544          39.000  
  21423246.274     1374252.566       -1997.754          50.000  
  23642370.313     1170879.8052      -3238.891          40.000  
  23832896.194    -1425853.5773       2613.065          30.000  
  23028837.558    -1680139.301        2243.613          43.000  
 18 10  7 18  5 21.0000000  0  8G30G 2G 5G 6G 7G 9G28G13
  20518705.743     -191770.430          74.222          51.000  
  22804712.687     1662564.694       -2383.479          44.000  
  21202699.618    -1162492.067        1441.390          48.000  
  24633195.000     2991375.1692      -4035.774          42.000  
  21423625.934     1376249.582       -1994.951          51.000  
  23642987.200     1174119.6442      -3238.664          40.000  
  23832395.271    -1428463.9343       2610.964          38.000  
  23028411.223    -1682382.837        2242.976          46.000  
