     2.10           OBSERVATION DATA    M (MIXED)           RINEX VERSION / TYPE
RTKCONV 2.4.1                           20181001 074757 UTC PGM / RUN BY / DATE 
log: D:\Nico Personal\Universidad\MSc\PVT\Main Hall\COM6_1  COMMENT             
format: u-blox                                              COMMENT             
                                                            MARKER NAME         
                                                            MARKER NUMBER       
                                                            OBSERVER / AGENCY   
                                                            REC # / TYPE / VERS 
                                                            ANT # / TYPE        
        0.0000        0.0000        0.0000                  APPROX POSITION XYZ 
        0.0000        0.0000        0.0000                  ANTENNA: DELTA H/E/N
     1     1                                                WAVELENGTH FACT L1/2
     8    C1    L1    D1    S1    P2    L2    D2    S2      # / TYPES OF OBSERV 
  2018    10     1     7    19   59.9990000     GPS         TIME OF FIRST OBS   
  2018    10     1     7    46   24.0000000     GPS         TIME OF LAST OBS    
                                                            END OF HEADER       
 18 10  1  7 19 59.9990000  0  8G16G26G21G27G20G10G 8G 7
  20110790.498      405075.290        -881.208          45.000                  
                                                
  20890863.438     1515323.305       -2684.376          48.000                  
                                                
  22059669.324     1572721.865       -2693.340          46.000                  
                                                
  20797992.498     -770204.595        1162.319          48.000                  
                                                
  21183948.103     -566973.866         727.006          43.000                  
                                                
  22297617.779    -1498507.627        2346.010          43.000                  
                                                
  23336047.104    -1398512.205        2254.152          43.000                  
                                                
  24782156.695     -926992.9783       1351.346          30.000                  
                                                
 18 10  1  7 20  0.9990000  0  8G16G26G21G27G20G10G 8G 7
  20110958.422      405956.353        -880.959          45.000                  
                                                
  20891374.393     1518008.010       -2684.423          48.000                  
                                                
  22060181.601     1575415.439       -2693.117          46.000                  
                                                
  20797771.299     -771366.493        1162.082          48.000                  
                                                
  21183809.129     -567700.343         726.819          43.000                  
                                                
  22297171.547    -1500853.526        2346.008          43.000                  
                                                
  23335617.894    -1400766.308        2254.477          43.000                  
                                                
  24781897.895     -928345.1113       1352.611          30.000                  
                                                
 18 10  1  7 20  1.9990000  0  8G16G26G21G27G20G10G 8G 7
  20111126.280      406837.994        -881.726          45.000                  
                                                
  20891885.423     1520693.167       -2685.119          48.000                  
                                                
  22060694.214     1578109.194       -2693.424          46.000                  
                                                
  20797549.851     -772528.153        1161.631          48.000                  
                                                
  21183671.294     -568426.233         726.275          43.000                  
                                                
  22296725.253    -1503199.115        2345.054          43.000                  
                                                
  23335188.562    -1403020.324        2253.414          43.000                  
                                                
  24781640.927     -929696.8453       1350.816          30.000                  
                                                
 18 10  1  7 20  2.9990000  0  7G16G26G21G27G20G10G 8
  20111294.086      407720.346        -882.979          45.000                  
                                                
  20892396.522     1523378.953       -2686.448          48.000                  
                                                
  22061206.832     1580803.283       -2694.069          46.000                  
                                                
  20797329.319     -773689.408        1160.797          48.000                  
                                                
  21183533.987     -569151.387         724.793          43.000                  
                                                
  22296279.479    -1505544.225        2344.888          43.000                  
                                                
  23334759.910    -1405274.116        2253.919          43.000                  
                                                
 18 10  1  7 20  3.9990000  0  7G16G26G21G27G20G10G 8
  20111461.939      408603.389        -883.655          45.000                  
                                                
  20892907.905     1526065.288       -2687.066          48.000                  
                                                
  22061719.332     1583497.660       -2693.993          46.000                  
                                                
  20797108.308     -774850.333        1160.752          48.000                  
                                                
  21183396.039     -569875.865         724.576          43.000                  
                                                
  22295833.556    -1507888.923        2344.224          43.000                  
                                                
  23334330.787    -1407527.748        2253.818          43.000                  
                                                
 18 10  1  7 20  4.9990000  0  7G16G26G21G27G20G10G 8
  20111629.732      409486.961        -883.595          45.000                  
                                                
  20893418.847     1528752.058       -2686.986          48.000                  
                                                
  22062231.914     1586192.166       -2694.768          46.000                  
                                                
  20796888.121     -776011.067        1160.266          48.000                  
                                                
  21183258.139     -570599.817         723.532          43.000                  
                                                
  22295387.485    -1510233.344        2344.383          43.000                  
                                                
  23333902.193    -1409781.383        2253.263          43.000                  
                                                
 18 10  1  7 20  5.9990000  0  7G16G26G21G27G20G10G 8
  20111798.157      410371.111        -884.593          45.000                  
                                                
  20893930.484     1531439.289       -2687.362          48.000                  
                                                
  22062745.104     1588886.851       -2694.855          46.000                  
                                                
  20796666.791     -777171.549        1160.286          48.000                  
                                                
  21183120.666     -571323.194         723.068          43.000                  
                                                
  22294941.474    -1512577.443        2343.987          43.000                  
                                                
  23333473.432    -1412034.952        2254.104          43.000                  
                                                
 18 10  1  7 20  6.9990000  0  7G16G26G21G27G20G10G 8
  20111966.329      411256.152        -885.366          45.000                  
                                                
  20894442.054     1534127.298       -2688.333          48.000                  
                                                
  22063257.948     1591582.039       -2695.728          46.000                  
                                                
  20796446.037     -778331.483        1159.318          48.000                  
                                                
  21182983.529     -572045.672         722.079          44.000                  
                                                
  22294495.809    -1514920.908        2342.800          43.000                  
                                                
  23333044.715    -1414288.161        2252.817          43.000                  
                                                
 18 10  1  7 20  7.9990000  0  7G16G26G21G27G20G10G 8
  20112134.859      412141.979        -886.235          45.000                  
                                                
  20894953.494     1536815.984       -2689.034          48.000                  
                                                
  22063770.915     1594277.621       -2695.354          46.000                  
                                                
  20796225.484     -779490.958        1159.297          48.000                  
                                                
  21182846.248     -572767.357         720.813          44.000                  
                                                
  22294050.052    -1517263.842        2343.066          43.000                  
                                                
  23332616.303    -1416541.105        2252.263          43.000                  
                                                
 18 10  1  7 20  8.9990000  0  7G16G26G21G27G20G10G 8
  20112303.219      413028.512        -886.261          45.000                  
                                                
  20895465.710     1539505.289       -2689.172          48.000                  
                                                
  22064283.750     1596973.498       -2695.784          46.000                  
                                                
  20796004.368     -780650.071        1159.072          48.000                  
                                                
  21182709.129     -573488.338         720.609          44.000                  
                                                
  22293604.334    -1519606.351        2342.316          43.000                  
                                                
  23332187.251    -1418793.859        2252.607          43.000                  
                                                
 18 10  1  7 20  9.9990000  0  7G16G26G21G27G20G10G 8
  20112472.394      413915.560        -886.909          45.000                  
                                                
  20895977.569     1542194.958       -2689.602          48.000                  
                                                
  22064796.992     1599669.494       -2695.872          46.000                  
                                                
  20795784.220     -781808.998        1159.053          48.000                  
                                                
  21182572.197     -574208.814         720.190          44.000                  
                                                
  22293158.756    -1521948.576        2342.279          43.000                  
                                                
  23331758.573    -1421046.580        2252.778          43.000                  
                                                
 18 10  1  7 20 10.9990000  0  8G16G26G21G27G20G10G 8G 7
  20112641.635      414803.129        -888.238          45.000                  
                                                
  20896489.235     1544885.060       -2689.941          48.000                  
                                                
  22065310.495     1602365.607       -2696.329          46.000                  
                                                
  20795563.615     -782967.730        1158.743          48.000                  
                                                
  21182435.226     -574928.746         719.705          44.000                  
                                                
  22292712.946    -1524290.560        2341.668          43.000                  
                                                
  23331329.991    -1423299.308        2252.788          43.000                  
                                                
  24779335.077     -941836.1943       1346.239          30.000                  
                                                
 18 10  1  7 20 11.9990000  0  7G16G26G21G27G20G10G 8
  20112810.527      415691.642        -888.875          45.000                  
                                                
  20897001.665     1547576.000       -2691.474          48.000                  
                                                
  22065822.969     1605062.293       -2697.285          46.000                  
                                                
  20795342.913     -784125.857        1157.796          48.000                  
                                                
  21182297.988     -575647.745         718.729          43.000                  
                                                
  22292267.146    -1526631.828        2340.782          43.000                  
                                                
  23330900.982    -1425551.627        2252.090          43.000                  
                                                
 18 10  1  7 20 12.9990000  0  7G16G26G21G27G20G10G 8
  20112980.025      416581.055        -889.653          45.000                  
                                                
  20897513.737     1550267.723       -2691.324          48.000                  
                                                
  22066336.149     1607759.457       -2697.201          46.000                  
                                                
  20795122.809     -785283.430        1157.622          48.000                  
                                                
  21182160.838     -576365.847         718.192          43.000                  
                                                
  22291821.672    -1528972.469        2341.085          43.000                  
                                                
  23330472.557    -1427803.565        2251.553          43.000                  
                                                
 18 10  1  7 20 13.9990000  0  7G16G26G21G27G20G10G 8
  20113149.327      417470.940        -890.012          45.000                  
                                                
  20898026.351     1552959.767       -2692.197          48.000                  
                                                
  22066849.395     1610456.693       -2697.201          46.000                  
                                                
  20794901.985     -786440.874        1157.223          48.000                  
                                                
  21182024.613     -577083.482         717.872          44.000                  
                                                
  22291376.234    -1531312.901        2340.052          43.000                  
                                                
  23330044.185    -1430055.565        2251.758          43.000                  
                                                
 18 10  1  7 20 14.9990000  0  7G16G26G21G27G20G10G 8
  20113318.463      418361.575        -891.026          45.000                  
                                                
  20898538.462     1555652.500       -2693.216          48.000                  
                                                
  22067362.854     1613154.275       -2697.908          46.000                  
                                                
  20794682.366     -787597.899        1156.997          48.000                  
                                                
  21181888.480     -577800.368         716.356          44.000                  
                                                
  22290930.860    -1533652.835        2340.023          43.000                  
                                                
  23329615.560    -1432307.302        2251.057          43.000                  
                                                
 18 10  1  7 20 15.9990000  0  8G16G26G21G27G20G10G 8G 7
  20113488.088      419253.169        -891.822          45.000                  
                                                
  20899050.945     1558346.064       -2693.719          48.000                  
                                                
  22067876.545     1615852.441       -2698.461          46.000                  
                                                
  20794462.419     -788754.299        1156.125          48.000                  
                                                
  21181752.159     -578516.282         715.824          44.000                  
                                                
  22290486.211    -1535992.085        2338.852          43.000                  
                                                
  23329187.371    -1434558.577        2251.907          43.000                  
                                                
  24778054.009     -948558.9073       1341.486          30.000                  
                                                
 18 10  1  7 20 16.9990000  0  8G16G26G21G27G20G10G 8G 7
  20113657.792      420145.386        -892.670          45.000                  
                                                
  20899563.497     1561040.152       -2694.201          48.000                  
                                                
  22068390.123     1618550.838       -2699.312          46.000                  
                                                
  20794242.520     -789910.403        1155.620          48.000                  
                                                
  21181615.790     -579231.571         715.058          44.000                  
                                                
  22290040.891    -1538330.951        2338.307          43.000                  
                                                
  23328758.942    -1436809.780        2250.951          43.000                  
                                                
  24777798.952     -949901.5203       1341.022          30.000                  
                                                
 18 10  1  7 20 17.9990000  0  8G16G26G21G27G20G10G 8G 7
  20113827.870      421038.065        -893.236          45.000                  
                                                
  20900076.721     1563734.575       -2695.028          48.000                  
                                                
  22068903.355     1621249.280       -2698.377          46.000                  
                                                
  20794022.385     -791066.389        1155.841          48.000                  
                                                
  21181480.324     -579946.420         714.274          44.000                  
                                                
  22289595.600    -1540669.609        2338.290          43.000                  
                                                
  23328330.447    -1439061.045        2251.354          43.000                  
                                                
  24777543.734     -951243.7693       1340.931          30.000                  
                                                
 18 10  1  7 20 18.9990000  0  8G16G26G21G27G20G10G 8G 7
  20113997.892      421931.418        -894.050          45.000                  
                                                
  20900589.299     1566429.560       -2695.277          48.000                  
                                                
  22069416.972     1623947.999       -2699.200          46.000                  
                                                
  20793802.526     -792222.040        1155.739          48.000                  
                                                
  21181344.958     -580660.574         713.444          44.000                  
                                                
  22289150.855    -1543007.867        2337.476          43.000                  
                                                
  23327902.179    -1441312.140        2250.960          43.000                  
                                                
  24777287.547     -952585.5013       1341.404          30.000                  
                                                
 18 10  1  7 20 19.9990000  0  8G16G26G21G27G20G10G 8G 7
  20114167.927      422825.719        -894.872          45.000                  
                                                
  20901102.235     1569125.374       -2696.058          48.000                  
                                                
  22069930.571     1626647.298       -2699.167          46.000                  
                                                
  20793582.876     -793377.067        1154.831          48.000                  
                                                
  21181209.745     -581373.788         712.566          44.000                  
                                                
  22288706.446    -1545345.428        2337.316          43.000                  
                                                
  23327473.816    -1443562.803        2250.177          43.000                  
                                                
  24777032.429     -953926.3563       1340.926          30.000                  
                                                
 18 10  1  7 20 20.9990000  0  8G16G26G21G27G20G10G 8G 7
  20114338.490      423720.769        -895.061          45.000                  
                                                
  20901615.429     1571821.842       -2696.506          48.000                  
                                                
  22070444.122     1629346.925       -2699.065          46.000                  
                                                
  20793362.881     -794531.674        1155.072          48.000                  
                                                
  21181073.546     -582086.244         712.046          44.000                  
                                                
  22288262.133    -1547682.486        2337.197          43.000                  
                                                
  23327045.758    -1445813.220        2250.824          43.000                  
                                                
  24776779.262     -955266.5283       1340.067          30.000                  
                                                
 18 10  1  7 20 21.9990000  0  8G16G26G21G27G20G10G 8G 7
  20114508.817      424616.243        -895.502          45.000                  
                                                
  20902128.522     1574518.615       -2696.608          48.000                  
                                                
  22070958.393     1632046.562       -2699.715          46.000                  
                                                
  20793143.248     -795686.209        1155.059          48.000                  
                                                
  21180937.844     -582798.271         712.156          44.000                  
                                                
  22287817.397    -1550019.386        2336.583          43.000                  
                                                
  23326617.630    -1448063.751        2250.953          43.000                  
                                                
  24776523.664     -956606.3913       1340.147          31.000                  
                                                
 18 10  1  7 20 22.9990000  0  8G16G26G21G27G20G10G 8G 7
  20114678.992      425512.122        -896.527          45.000                  
                                                
  20902641.410     1577215.689       -2697.207          48.000                  
                                                
  22071471.665     1634746.230       -2699.851          46.000                  
                                                
  20792923.489     -796840.665        1153.959          48.000                  
                                                
  21180802.505     -583509.902         710.934          44.000                  
                                                
  22287372.486    -1552356.122        2336.308          43.000                  
                                                
  23326189.563    -1450314.397        2250.455          43.000                  
                                                
  24776269.432     -957945.9363       1335.738          32.000                  
                                                
 18 10  1  7 20 23.9990000  0  8G16G26G21G27G20G10G 8G 7
  20114849.655      426408.984        -897.886          45.000                  
                                                
  20903155.087     1579913.644       -2697.908          48.000                  
                                                
  22071985.823     1637446.484       -2700.513          46.000                  
                                                
  20792704.397     -797994.466        1153.618          48.000                  
                                                
  21180667.410     -584220.519         710.429          44.000                  
                                                
  22286927.654    -1554692.143        2335.478          43.000                  
                                                
  23325761.422    -1452564.555        2249.389          43.000                  
                                                
  24776017.935     -959284.5862       1340.695          33.000                  
                                                
 18 10  1  7 20 24.9990000  0  8G16G26G21G27G20G10G 8G 7
  20115020.436      427306.843        -898.495          45.000                  
                                                
  20903668.700     1582612.476       -2699.502          48.000                  
                                                
  22072500.308     1640147.345       -2701.025          46.000                  
                                                
  20792485.004     -799147.595        1153.273          48.000                  
                                                
  21180532.218     -584930.161         709.072          44.000                  
                                                
  22286483.454    -1557027.414        2334.848          43.000                  
                                                
  23325332.884    -1454814.219        2249.735          43.000                  
                                                
  24775761.050     -960622.3512       1338.160          33.000                  
                                                
 18 10  1  7 20 25.9990000  0  8G16G26G21G27G20G10G 8G 7
  20115191.269      428205.382        -898.648          45.000                  
                                                
  20904182.002     1585311.872       -2699.485          48.000                  
                                                
  22073014.273     1642848.479       -2701.377          46.000                  
                                                
  20792265.436     -800300.399        1152.747          48.000                  
                                                
  21180397.699     -585639.108         708.990          44.000                  
                                                
  22286038.805    -1559362.267        2334.450          43.000                  
                                                
  23324904.934    -1457063.729        2249.918          43.000                  
                                                
  24775508.127     -961959.5573       1335.868          32.000                  
                                                
 18 10  1  7 20 26.9990000  0  8G16G26G21G27G20G10G 8G 7
  20115362.477      429104.400        -898.997          45.000                  
                                                
  20904695.662     1588011.644       -2699.812          48.000                  
                                                
  22073527.685     1645549.689       -2701.522          46.000                  
                                                
  20792045.974     -801453.057        1152.444          48.000                  
                                                
  21180263.167     -586347.588         707.805          44.000                  
                                                
  22285594.370    -1561696.880        2334.847          43.000                  
                                                
  23324477.286    -1459313.307        2249.355          43.000                  
                                                
  24775251.216     -963296.3603       1339.412          33.000                  
                                                
 18 10  1  7 20 27.9990000  0  8G16G26G21G27G20G10G 8G 7
  20115534.070      430004.242        -900.776          45.000                  
                                                
  20905209.916     1590712.136       -2701.160          48.000                  
                                                
  22074042.100     1648251.334       -2702.134          46.000                  
                                                
  20791826.882     -802605.209        1151.783          48.000                  
                                                
  21180128.477     -587055.242         707.299          44.000                  
                                                
  22285150.245    -1564030.937        2333.723          43.000                  
                                                
  23324049.835    -1461562.555        2248.391          43.000                  
                                                
  24774997.608     -964632.5022       1334.702          32.000                  
                                                
 18 10  1  7 20 28.9990000  0  8G16G26G21G27G20G10G 8G 7
  20115705.514      430904.842        -900.856          45.000                  
                                                
  20905723.934     1593413.263       -2701.416          48.000                  
                                                
  22074556.096     1650953.348       -2701.840          46.000                  
                                                
  20791607.698     -803756.949        1151.514          48.000                  
                                                
  21179994.398     -587762.137         706.410          44.000                  
                                                
  22284705.818    -1566364.485        2333.538          43.000                  
                                                
  23323621.990    -1463811.532        2249.341          44.000                  
                                                
  24774741.766     -965967.9503       1333.947          32.000                  
                                                
 18 10  1  7 20 29.9990000  0  8G16G26G21G27G20G10G 8G 7
  20115877.538      431806.067        -901.648          45.000                  
                                                
  20906237.812     1596114.895       -2701.637          48.000                  
                                                
  22075070.319     1653655.586       -2701.761          46.000                  
                                                
  20791388.227     -804908.404        1151.708          48.000                  
                                                
  21179859.696     -588468.394         706.083          44.000                  
                                                
  22284261.719    -1568697.665        2333.407          43.000                  
                                                
  23323194.277    -1466060.437        2249.536          43.000                  
                                                
  24774487.485     -967302.8752       1332.640          32.000                  
                                                
 18 10  1  7 20 30.9990000  0  8G16G26G21G27G20G10G 8G 7
  20116049.636      432707.892        -902.292          45.000                  
                                                
  20906752.437     1598817.028       -2701.918          48.000                  
                                                
  22075584.808     1656358.012       -2702.298          46.000                  
                                                
  20791169.615     -806059.592        1151.223          48.000                  
                                                
  21179725.399     -589174.051         705.662          44.000                  
                                                
  22283818.335    -1571030.527        2332.577          43.000                  
                                                
  23322765.948    -1468309.275        2249.235          44.000                  
                                                
  24774233.641     -968637.2292       1333.853          33.000                  
                                                
 18 10  1  7 20 31.9990000  0  8G16G26G21G27G20G10G 8G 7
  20116221.080      433610.500        -902.549          45.000                  
                                                
  20907267.000     1601519.818       -2703.089          48.000                  
                                                
  22076098.987     1659060.822       -2702.998          46.000                  
                                                
  20790950.593     -807210.324        1150.159          48.000                  
                                                
  21179591.830     -589878.922         704.719          44.000                  
                                                
  22283374.000    -1573362.836        2331.804          43.000                  
                                                
  23322337.872    -1470557.822        2248.558          43.000                  
                                                
  24773979.920     -969970.9973       1329.273          33.000                  
                                                
 18 10  1  7 20 32.9990000  0  8G16G26G21G27G20G10G 8G 7
  20116392.485      434514.129        -904.674          45.000                  
                                                
  20907781.515     1604223.519       -2704.267          48.000                  
                                                
  22076614.039     1661764.276       -2703.692          46.000                  
                                                
  20790731.676     -808360.387        1149.532          48.000                  
                                                
  21179457.438     -590582.777         703.281          44.000                  
                                                
  22282930.341    -1575694.383        2331.283          43.000                  
                                                
  23321910.355    -1472805.874        2248.195          43.000                  
                                                
  24773726.909     -971303.8053       1330.672          33.000                  
                                                
 18 10  1  7 20 33.9990000  0  8G16G26G21G27G20G10G 8G 7
  20116564.937      435418.581        -904.638          45.000                  
                                                
  20908296.039     1606927.935       -2704.844          48.000                  
                                                
  22077127.979     1664468.126       -2703.613          46.000                  
                                                
  20790512.854     -809509.949        1149.335          48.000                  
                                                
  21179323.686     -591285.814         702.815          44.000                  
                                                
  22282486.652    -1578025.369        2330.474          43.000                  
                                                
  23321482.541    -1475053.601        2247.925          43.000                  
                                                
  24773473.536     -972635.8592       1334.724          33.000                  
                                                
 18 10  1  7 20 34.9990000  0  8G16G26G21G27G20G10G 8G 7
  20116737.319      436323.749        -905.100          45.000                  
                                                
  20908811.030     1609632.953       -2704.545          48.000                  
                                                
  22077642.573     1667172.334       -2703.572          46.000                  
                                                
  20790294.090     -810659.134        1149.703          48.000                  
                                                
  21179189.991     -591988.099         703.035          44.000                  
                                                
  22282042.932    -1580355.869        2330.714          43.000                  
                                                
  23321054.736    -1477301.138        2247.906          44.000                  
                                                
  24773220.189     -973967.3152       1330.201          33.000                  
                                                
 18 10  1  7 20 35.9990000  0  8G16G26G21G27G20G10G 8G 7
  20116909.081      437229.097        -905.176          45.000                  
                                                
  20909325.746     1612338.043       -2704.743          48.000                  
                                                
  22078156.900     1669876.257       -2703.385          46.000                  
                                                
  20790075.024     -811808.476        1150.111          48.000                  
                                                
  21179056.519     -592690.227         702.365          44.000                  
                                                
  22281599.400    -1582686.455        2331.273          43.000                  
                                                
  23320626.900    -1479549.005        2248.700          44.000                  
                                                
  24772967.035     -975298.7382       1329.833          33.000                  
                                                
 18 10  1  7 20 36.9990000  0  8G16G26G21G27G20G10G 8G 7
  20117081.629      438134.553        -906.236          45.000                  
                                                
  20909839.803     1615043.123       -2705.466          48.000                  
                                                
  22078671.669     1672579.964       -2704.289          46.000                  
                                                
  20789856.386     -812958.034        1149.155          48.000                  
                                                
  21178922.759     -593392.241         701.168          44.000                  
                                                
  22281156.064    -1585017.203        2330.412          43.000                  
                                                
  23320199.160    -1481797.279        2248.020          44.000                  
                                                
  24772714.290     -976630.0612       1332.623          33.000                  
                                                
 18 10  1  7 20 37.9990000  0  8G16G26G21G27G20G10G 8G 7
  20117253.946      439040.995        -906.970          45.000                  
                                                
  20910354.951     1617749.084       -2706.561          48.000                  
                                                
  22079186.415     1675284.219       -2704.519          46.000                  
                                                
  20789637.809     -814106.957        1148.620          48.000                  
                                                
  21178789.378     -594093.257         700.753          44.000                  
                                                
  22280712.785    -1587347.214        2329.843          43.000                  
                                                
  23319771.600    -1484045.092        2247.734          44.000                  
                                                
  24772461.528     -977960.6102       1330.224          33.000                  
                                                
 18 10  1  7 20 38.9990000  0  8G16G26G21G27G20G10G 8G 7
  20117426.624      439948.080        -907.513          45.000                  
                                                
  20910870.064     1620455.575       -2706.562          48.000                  
                                                
  22079700.983     1677988.746       -2703.992          46.000                  
                                                
  20789419.053     -815255.537        1148.620          48.000                  
                                                
  21178656.141     -594793.615         700.594          44.000                  
                                                
  22280269.323    -1589676.812        2330.044          43.000                  
                                                
  23319343.873    -1486292.758        2247.973          44.000                  
                                                
  24772209.224     -979290.5602       1327.458          33.000                  
                                                
 18 10  1  7 20 39.9990000  0  8G16G26G21G27G20G10G 8G 7
  20117599.146      440855.621        -907.712          45.000                  
                                                
  20911385.208     1623162.405       -2706.918          48.000                  
                                                
  22080215.555     1680693.306       -2704.203          46.000                  
                                                
  20789200.463     -816404.031        1148.343          48.000                  
                                                
  21178522.813     -595493.541         699.622          44.000                  
                                                
  22279826.113    -1592006.251        2328.803          43.000                  
                                                
  23318916.190    -1488540.513        2247.714          43.000                  
                                                
  24771956.227     -980620.1632       1328.054          33.000                  
                                                
 18 10  1  7 20 40.9990000  0  8G16G26G21G27G20G10G 8G 7
  20117771.776      441764.056        -908.751          45.000                  
                                                
  20911900.186     1625870.035       -2707.851          48.000                  
                                                
  22080730.171     1683398.377       -2704.962          46.000                  
                                                
  20788982.222     -817551.943        1147.881          48.000                  
                                                
  21178389.558     -596192.558         698.914          44.000                  
                                                
  22279383.140    -1594335.015        2329.124          43.000                  
                                                
  23318488.245    -1490787.854        2247.421          43.000                  
                                                
  24771703.892     -981948.9582       1326.987          33.000                  
                                                
 18 10  1  7 20 41.9990000  0  8G16G26G21G27G20G10G 8G 7
  20117945.284      442673.327        -909.548          45.000                  
                                                
  20912415.647     1628578.361       -2709.039          48.000                  
                                                
  22081245.349     1686103.886       -2705.804          46.000                  
                                                
  20788763.597     -818699.351        1147.069          48.000                  
                                                
  21178256.932     -596890.736         697.945          44.000                  
                                                
  22278940.118    -1596663.219        2328.633          43.000                  
                                                
  23318061.059    -1493034.903        2246.973          43.000                  
                                                
  24771450.733     -983276.9612       1326.720          33.000                  
                                                
 18 10  1  7 20 42.9990000  0  8G16G26G21G27G20G10G 8G 7
  20118117.928      443583.253        -910.163          45.000                  
                                                
  20912931.031     1631287.251       -2709.013          48.000                  
                                                
  22081759.947     1688809.631       -2706.262          46.000                  
                                                
  20788545.024     -819846.457        1147.214          48.000                  
                                                
  21178124.136     -597588.256         697.267          44.000                  
                                                
  22278497.004    -1598991.005        2327.325          43.000                  
                                                
  23317633.490    -1495281.792        2247.033          43.000                  
                                                
  24771197.962     -984604.458        1327.663          33.000                  
                                                
 18 10  1  7 20 43.9990000  0  8G16G26G21G27G20G10G 8G 7
  20118291.557      444493.906        -911.143          45.000                  
                                                
  20913446.624     1633996.764       -2709.578          48.000                  
                                                
  22082274.964     1691515.732       -2705.952          46.000                  
                                                
  20788326.818     -820993.144        1146.897          48.000                  
                                                
  21177991.807     -598285.030         696.463          44.000                  
                                                
  22278054.236    -1601318.312        2327.032          43.000                  
                                                
  23317205.894    -1497528.451        2246.344          43.000                  
                                                
  24770945.292     -985931.357        1327.602          33.000                  
                                                
 18 10  1  7 20 44.9990000  0  8G16G26G21G27G20G10G 8G 7
  20118464.773      445405.096        -912.618          45.000                  
                                                
  20913962.819     1636706.689       -2710.509          48.000                  
                                                
  22082789.842     1694221.980       -2706.542          46.000                  
                                                
  20788108.995     -822139.641        1145.975          48.000                  
                                                
  21177859.015     -598981.273         695.935          44.000                  
                                                
  22277611.794    -1603645.345        2326.217          43.000                  
                                                
  23316778.058    -1499775.110        2246.035          43.000                  
                                                
  24770692.333     -987257.737        1327.175          33.000                  
                                                
 18 10  1  7 20 45.9990000  0  8G16G26G21G27G20G10G 8G 7
  20118638.245      446317.174        -912.354          45.000                  
                                                
  20914478.647     1639417.376       -2711.142          48.000                  
                                                
  22083305.116     1696928.684       -2706.340          46.000                  
                                                
  20787890.841     -823285.598        1145.677          48.000                  
                                                
  21177726.913     -599676.636         695.167          44.000                  
                                                
  22277169.313    -1605971.744        2326.159          43.000                  
                                                
  23316350.511    -1502021.412        2245.833          43.000                  
                                                
  24770440.200     -988583.4033       1325.925          34.000                  
                                                
 18 10  1  7 20 46.9990000  0  8G16G26G21G27G20G10G 8G 7
  20118811.809      447230.023        -912.905          45.000                  
                                                
  20914994.223     1642128.750       -2711.589          48.000                  
                                                
  22083820.351     1699635.762       -2707.556          46.000                  
                                                
  20787672.757     -824431.102        1145.569          48.000                  
                                                
  21177594.561     -600371.214         694.492          44.000                  
                                                
  22276726.758    -1608297.623        2326.538          43.000                  
                                                
  23315923.011    -1504267.437        2246.665          43.000                  
                                                
  24770188.280     -989908.3512       1325.865          33.000                  
                                                
 18 10  1  7 20 47.9990000  0  8G16G26G21G27G20G10G 8G 7
  20118986.290      448143.422        -913.279          45.000                  
                                                
  20915510.151     1644840.534       -2711.986          48.000                  
                                                
  22084335.058     1702343.002       -2707.320          46.000                  
                                                
  20787454.760     -825576.407        1144.636          48.000                  
                                                
  21177462.149     -601065.246         693.703          44.000                  
                                                
  22276284.129    -1610623.216        2325.384          43.000                  
                                                
  23315495.829    -1506513.457        2246.056          43.000                  
                                                
  24769935.827     -991232.9032       1324.714          33.000                  
                                                
 18 10  1  7 20 48.9990000  0  8G16G26G21G27G20G10G 8G 7
  20119160.111      449057.436        -914.260          45.000                  
                                                
  20916026.412     1647552.833       -2712.026          48.000                  
                                                
  22084850.546     1705050.487       -2707.164          46.000                  
                                                
  20787236.829     -826721.395        1145.226          48.000                  
                                                
  21177330.042     -601758.652         693.263          44.000                  
                                                
  22275841.919    -1612948.434        2325.534          43.000                  
                                                
  23315068.059    -1508759.368        2246.006          43.000                  
                                                
  24769683.855     -992556.9102       1324.429          33.000                  
                                                
 18 10  1  7 20 49.9990000  0  8G16G26G21G27G20G10G 8G 7
  20119333.876      449972.212        -915.283          45.000                  
                                                
  20916542.890     1650265.794       -2713.180          48.000                  
                                                
  22085366.218     1707758.300       -2708.053          46.000                  
                                                
  20787018.937     -827865.975        1144.456          48.000                  
                                                
  21177198.668     -602451.295         692.279          44.000                  
                                                
  22275399.717    -1615273.143        2324.872          44.000                  
                                                
  23314640.516    -1511005.044        2245.076          43.000                  
                                                
  24769432.458     -993880.2272       1322.126          33.000                  
                                                
 18 10  1  7 20 50.9990000  0  8G16G26G21G27G20G10G 8G 7
  20119508.021      450887.599        -915.387          45.000                  
                                                
  20917059.059     1652979.247       -2714.023          48.000                  
                                                
  22085880.951     1710466.310       -2708.094          46.000                  
                                                
  20786801.363     -829010.273        1144.355          48.000                  
                                                
  21177067.002     -603143.318         691.998          44.000                  
                                                
  22274957.293    -1617597.500        2324.243          44.000                  
                                                
  23314213.121    -1513250.617        2245.897          43.000                  
                                                
  24769181.083     -995203.0152       1324.328          34.000                  
                                                
 18 10  1  7 20 51.9990000  0  8G16G26G21G27G20G10G 8G 7
  20119682.440      451803.587        -915.957          45.000                  
                                                
  20917575.332     1655693.167       -2713.977          48.000                  
                                                
  22086396.492     1713174.554       -2707.955          46.000                  
                                                
  20786583.689     -830154.318        1144.141          48.000                  
                                                
  21176935.249     -603834.742         691.285          44.000                  
                                                
  22274514.642    -1619921.513        2323.958          44.000                  
                                                
  23313785.874    -1515496.140        2245.362          43.000                  
                                                
  24768929.316     -996525.3842       1322.842          34.000                  
                                                
 18 10  1  7 20 52.9990000  0  8G16G26G21G27G20G10G 8G 7
  20119857.331      452720.137        -917.338          45.000                  
                                                
  20918092.648     1658407.559       -2714.862          48.000                  
                                                
  22086912.185     1715882.948       -2708.281          46.000                  
                                                
  20786366.006     -831298.129        1143.555          48.000                  
                                                
  21176803.744     -604525.601         690.504          44.000                  
                                                
  22274072.624    -1622245.213        2323.669          44.000                  
                                                
  23313358.623    -1517741.594        2245.534          43.000                  
                                                
  24768677.653     -997847.2472       1321.057          34.000                  
                                                
 18 10  1  7 20 53.9990000  0  8G16G26G21G27G20G10G 8G 7
  20120031.815      453637.675        -918.366          45.000                  
                                                
  20918608.686     1661122.808       -2716.055          48.000                  
                                                
  22087428.192     1718591.919       -2709.104          46.000                  
                                                
  20786148.433     -832441.303        1142.617          48.000                  
                                                
  21176672.767     -605215.472         689.329          44.000                  
                                                
  22273630.571    -1624568.183        2323.059          44.000                  
                                                
  23312931.507    -1519986.583        2244.775          43.000                  
                                                
  24768426.222     -999168.2372       1318.888          34.000                  
                                                
 18 10  1  7 20 54.9990000  0  8G16G26G21G27G20G10G 8G 7
  20120206.509      454555.951        -919.260          45.000                  
                                                
  20919125.688     1663838.703       -2716.265          48.000                  
                                                
  22087943.244     1721301.243       -2709.885          46.000                  
                                                
  20785931.383     -833584.041        1142.649          48.000                  
                                                
  21176541.345     -605904.581         688.717          44.000                  
                                                
  22273189.106    -1626890.648        2322.849          44.000                  
                                                
  23312504.487    -1522231.353        2244.847          43.000                  
                                                
  24768175.205    -1000488.5293       1317.676          34.000                  
                                                
 18 10  1  7 20 55.9990000  0  8G16G26G21G27G20G10G 8G 7
  20120381.164      455474.699        -918.998          45.000                  
                                                
  20919642.276     1666554.927       -2716.058          48.000                  
                                                
  22088458.366     1724010.614       -2709.206          46.000                  
                                                
  20785713.621     -834726.669        1143.059          48.000                  
                                                
  21176410.206     -606593.257         688.293          44.000                  
                                                
  22272746.730    -1629212.942        2321.924          44.000                  
                                                
  23312077.140    -1524476.169        2245.193          43.000                  
                                                
  24767924.153    -1001808.5072       1321.159          34.000                  
                                                
 18 10  1  7 20 56.9990000  0  8G16G26G21G27G20G10G 8G 7
  20120555.771      456394.006        -919.674          45.000                  
                                                
  20920159.282     1669271.603       -2716.980          48.000                  
                                                
  22088974.364     1726720.174       -2710.164          46.000                  
                                                
  20785496.344     -835869.051        1142.018          48.000                  
                                                
  21176279.029     -607281.347         687.657          44.000                  
                                                
  22272305.405    -1631534.877        2321.528          44.000                  
                                                
  23311650.054    -1526720.920        2244.409          43.000                  
                                                
  24767673.341    -1003127.9992       1318.460          34.000                  
                                                
 18 10  1  7 20 57.9990000  0  8G16G26G21G27G20G10G 8G 7
  20120731.233      457314.304        -920.718          45.000                  
                                                
  20920676.310     1671989.156       -2718.039          48.000                  
                                                
  22089490.210     1729430.297       -2709.570          46.000                  
                                                
  20785279.879     -837010.803        1141.099          48.000                  
                                                
  21176148.357     -607968.465         686.217          44.000                  
                                                
  22271863.452    -1633856.124        2320.408          44.000                  
                                                
  23311223.117    -1528965.228        2243.861          43.000                  
                                                
  24767422.237    -1004446.6342       1317.155          33.000                  
                                                
 18 10  1  7 20 58.9990000  0  8G16G26G21G27G20G10G 8G 7
  20120905.945      458235.433        -921.336          45.000                  
                                                
  20921193.962     1674707.440       -2717.975          48.000                  
                                                
  22090006.130     1732140.884       -2710.937          46.000                  
                                                
  20785062.288     -838152.039        1141.409          48.000                  
                                                
  21176018.013     -608654.714         686.495          45.000                  
                                                
  22271421.443    -1636176.755        2320.464          44.000                  
                                                
  23310795.718    -1531209.198        2244.018          43.000                  
                                                
  24767171.573    -1005764.4173       1319.103          33.000                  
                                                
 18 10  1  7 20 59.9990000  0  8G16G26G21G27G20G10G 8G 7
  20121081.446      459156.985        -921.386          45.000                  
                                                
  20921711.230     1677426.019       -2718.403          48.000                  
                                                
  22090521.937     1734851.465       -2710.460          46.000                  
                                                
  20784844.936     -839293.199        1141.166          48.000                  
                                                
  21175887.507     -609340.557         685.595          45.000                  
                                                
  22270980.223    -1638497.229        2320.654          44.000                  
                                                
  23310368.393    -1533453.267        2244.199          43.000                  
                                                
  24766921.106    -1007082.0432       1319.463          34.000                  
                                                
 18 10  1  7 21  0.9990000  0  8G16G26G21G27G20G10G 8G 7
  20121257.100      460079.095        -922.676          45.000                  
                                                
  20922228.773     1680145.036       -2719.643          48.000                  
                                                
  22091037.739     1737562.212       -2710.315          46.000                  
                                                
  20784627.895     -840434.141        1140.645          48.000                  
                                                
  21175757.289     -610025.838         684.860          44.000                  
                                                
  22270538.614    -1640817.410        2320.096          44.000                  
                                                
  23309941.879    -1535697.303        2243.852          43.000                  
                                                
  24766670.137    -1008399.1682       1316.365          34.000                  
                                                
 18 10  1  7 21  1.9990000  0  8G16G26G21G27G20G10G 8G 7
  20121432.906      461002.083        -923.748          45.000                  
                                                
  20922745.932     1682864.830       -2719.947          48.000                  
                                                
  22091553.781     1740273.426       -2711.727          46.000                  
                                                
  20784411.294     -841574.533        1140.429          48.000                  
                                                
  21175627.433     -610710.240         684.698          45.000                  
                                                
  22270097.482    -1643136.955        2319.255          44.000                  
                                                
  23309514.916    -1537940.969        2243.838          43.000                  
                                                
  24766420.084    -1009715.4852       1316.027          34.000                  
                                                
 18 10  1  7 21  2.9990000  0  8G16G26G21G27G20G10G 8G 7
  20121608.578      461925.834        -924.117          45.000                  
                                                
  20923264.073     1685585.264       -2720.438          48.000                  
                                                
  22092069.736     1742985.008       -2712.206          46.000                  
                                                
  20784194.384     -842714.502        1139.882          48.000                  
                                                
  21175497.106     -611393.892         683.502          45.000                  
                                                
  22269656.283    -1645455.993        2318.809          44.000                  
                                                
  23309087.791    -1540184.400        2243.591          43.000                  
                                                
  24766169.477    -1011031.1172       1315.527          34.000                  
                                                
 18 10  1  7 21  3.9990000  0  8G16G26G21G27G20G10G 8G 7
  20121784.362      462849.965        -924.209          45.000                  
                                                
  20923781.995     1688305.964       -2721.100          48.000                  
                                                
  22092586.128     1745696.573       -2712.260          46.000                  
                                                
  20783977.386     -843854.422        1139.516          48.000                  
                                                
  21175367.203     -612077.138         682.744          45.000                  
                                                
  22269214.536    -1647774.910        2318.493          44.000                  
                                                
  23308660.623    -1542427.955        2243.819          43.000                  
                                                
  24765918.682    -1012346.5362       1314.000          33.000                  
                                                
 18 10  1  7 21  4.9990000  0  8G16G26G21G27G20G10G 8G 7
  20121959.890      463774.669        -925.357          45.000                  
                                                
  20924299.621     1691027.123       -2721.143          48.000                  
                                                
  22093101.838     1748408.317       -2711.901          46.000                  
                                                
  20783760.855     -844994.099        1139.693          48.000                  
                                                
  21175237.451     -612759.813         682.379          45.000                  
                                                
  22268773.329    -1650093.477        2319.097          44.000                  
                                                
  23308233.655    -1544671.447        2243.496          43.000                  
                                                
  24765667.670    -1013661.4062       1315.195          33.000                  
                                                
 18 10  1  7 21  5.9990000  0  8G16G26G21G27G20G10G 8G 7
  20122136.233      464700.189        -925.644          45.000                  
                                                
  20924817.116     1693748.973       -2721.947          48.000                  
                                                
  22093617.990     1751120.464       -2712.370          46.000                  
                                                
  20783544.075     -846133.305        1139.170          48.000                  
                                                
  21175107.683     -613441.687         681.697          45.000                  
                                                
  22268332.379    -1652411.529        2317.700          44.000                  
                                                
  23307806.757    -1546914.641        2243.720          43.000                  
                                                
  24765417.918    -1014975.6252       1314.524          33.000                  
                                                
 18 10  1  7 21  6.9990000  0  8G16G26G21G27G20G10G 8G 7
  20122312.349      465626.596        -926.648          45.000                  
                                                
  20925335.571     1696471.614       -2722.581          48.000                  
                                                
  22094133.822     1753833.106       -2712.487          46.000                  
                                                
  20783327.439     -847271.943        1138.479          48.000                  
                                                
  21174977.670     -614122.643         680.732          44.000                  
                                                
  22267891.320    -1654728.920        2317.019          44.000                  
                                                
  23307380.108    -1549157.442        2243.206          43.000                  
                                                
  24765167.664    -1016288.933        1315.033          32.000                  
                                                
 18 10  1  7 21  7.9990000  0  8G16G26G21G27G20G10G 8G 7
  20122488.858      466553.360        -927.172          45.000                  
                                                
  20925853.681     1699194.504       -2723.070          48.000                  
                                                
  22094650.166     1756545.697       -2712.525          46.000                  
                                                
  20783110.725     -848410.561        1138.697          48.000                  
                                                
  21174848.630     -614803.242         680.640          44.000                  
                                                
  22267450.209    -1657046.195        2317.033          44.000                  
                                                
  23306952.853    -1551400.434        2243.203          43.000                  
                                                
  24764917.925    -1017602.0753       1312.755          32.000                  
                                                
 18 10  1  7 21  8.9990000  0  8G16G26G21G27G20G10G 8G 7
  20122665.516      467480.954        -928.382          45.000                  
                                                
  20926371.660     1701918.084       -2723.797          48.000                  
                                                
  22095166.269     1759258.728       -2712.856          46.000                  
                                                
  20782894.225     -849548.694        1137.613          48.000                  
                                                
  21174719.503     -615483.025         679.148          44.000                  
                                                
  22267009.395    -1659362.902        2316.083          44.000                  
                                                
  23306526.077    -1553643.111        2242.787          43.000                  
                                                
  24764667.685    -1018914.4653       1312.669          32.000                  
                                                
 18 10  1  7 21  9.9990000  0  8G16G26G21G27G20G10G 8G 7
  20122842.574      468409.259        -929.604          45.000                  
                                                
  20926890.791     1704642.274       -2725.085          48.000                  
                                                
  22095682.935     1761972.067       -2713.809          46.000                  
                                                
  20782677.772     -850686.441        1137.111          48.000                  
                                                
  21174590.105     -616162.075         678.088          44.000                  
                                                
  22266568.699    -1661679.147        2315.255          44.000                  
                                                
  23306099.690    -1555885.607        2241.995          43.000                  
                                                
  24764418.108    -1020226.2862       1311.473          32.000                  
                                                
 18 10  1  7 21 10.9990000  0  8G16G26G21G27G20G10G 8G 7
  20123019.149      469338.455        -930.015          45.000                  
                                                
  20927409.027     1707367.234       -2725.459          48.000                  
                                                
  22096199.653     1764685.887       -2714.662          46.000                  
                                                
  20782461.564     -851823.633        1137.147          48.000                  
                                                
  21174460.812     -616840.247         677.662          44.000                  
                                                
  22266127.714    -1663994.760        2315.395          44.000                  
                                                
  23305672.770    -1558127.722        2241.910          43.000                  
                                                
  24764168.788    -1021537.2403       1311.273          32.000                  
                                                
 18 10  1  7 21 11.9990000  0  8G16G26G21G27G20G10G 8G 7
  20123196.081      470268.352        -929.805          45.000                  
                                                
  20927927.779     1710092.794       -2725.074          48.000                  
                                                
  22096715.469     1767400.056       -2714.059          46.000                  
                                                
  20782244.723     -852960.459        1136.936          48.000                  
                                                
  21174331.279     -617517.702         677.491          44.000                  
                                                
  22265687.393    -1666309.930        2314.526          44.000                  
                                                
  23305245.868    -1560369.642        2242.052          43.000                  
                                                
  24763919.350    -1022847.6413       1306.264          32.000                  
                                                
 18 10  1  7 21 12.9990000  0  8G16G26G21G27G20G10G 8G 7
  20123373.048      471198.658        -929.886          45.000                  
                                                
  20928446.652     1712818.640       -2725.763          48.000                  
                                                
  22097231.982     1770114.215       -2713.377          46.000                  
                                                
  20782028.257     -854097.204        1136.853          48.000                  
                                                
  21174202.850     -618194.753         676.989          44.000                  
                                                
  22265246.526    -1668624.908        2315.644          44.000                  
                                                
  23304819.572    -1562611.657        2241.878          43.000                  
                                                
  24763669.916    -1024157.7233       1310.094          32.000                  
                                                
 18 10  1  7 21 13.9990000  0  8G16G26G21G27G20G10G 8G 7
  20123550.141      472129.744        -931.602          45.000                  
                                                
  20928965.643     1715545.157       -2727.094          48.000                  
                                                
  22097748.657     1772828.741       -2715.422          46.000                  
                                                
  20781812.477     -855233.506        1135.984          48.000                  
                                                
  21174073.736     -618871.014         675.653          44.000                  
                                                
  22264805.838    -1670939.385        2314.174          44.000                  
                                                
  23304392.622    -1564853.404        2240.316          43.000                  
                                                
  24763420.950    -1025467.0373       1304.696          31.000                  
                                                
 18 10  1  7 21 14.9990000  0  8G16G26G21G27G20G10G 8G 7
  20123727.658      473061.686        -932.304          45.000                  
                                                
  20929484.386     1718272.414       -2727.417          48.000                  
                                                
  22098265.593     1775543.718       -2715.390          46.000                  
                                                
  20781596.530     -856369.283        1135.552          48.000                  
                                                
  21173945.289     -619546.410         675.354          44.000                  
                                                
  22264365.814    -1673253.238        2314.151          44.000                  
                                                
  23303965.895    -1567094.827        2240.798          43.000                  
                                                
  24763171.604    -1026775.6873       1309.578          31.000                  
                                                
 18 10  1  7 21 15.9990000  0  8G16G26G21G27G20G10G 8G 7
  20123905.070      473994.277        -932.671          45.000                  
                                                
  20930003.539     1721000.210       -2728.088          48.000                  
                                                
  22098782.473     1778258.959       -2715.094          46.000                  
                                                
  20781379.851     -857504.753        1135.493          48.000                  
                                                
  21173816.764     -620221.157         674.529          44.000                  
                                                
  22263925.030    -1675566.707        2313.396          44.000                  
                                                
  23303539.869    -1569336.107        2240.865          43.000                  
                                                
  24762922.393    -1028083.7973       1305.784          32.000                  
                                                
 18 10  1  7 21 16.9990000  0  8G16G26G21G27G20G10G 8G 7
  20124082.582      474927.374        -933.185          45.000                  
                                                
  20930523.045     1723728.393       -2728.363          48.000                  
                                                
  22099298.816     1780974.291       -2715.187          46.000                  
                                                
  20781163.948     -858640.035        1135.116          48.000                  
                                                
  21173688.369     -620895.385         674.028          44.000                  
                                                
  22263485.193    -1677879.905        2313.377          44.000                  
                                                
  23303113.024    -1571577.417        2241.916          43.000                  
                                                
  24762673.845    -1029391.4703       1306.416          31.000                  
                                                
 18 10  1  7 21 17.9990000  0  8G16G26G21G27G20G10G 8G 7
  20124260.457      475861.027        -933.785          45.000                  
                                                
  20931041.896     1726457.009       -2728.861          48.000                  
                                                
  22099816.154     1783689.778       -2715.732          46.000                  
                                                
  20780947.801     -859775.110        1134.773          48.000                  
                                                
  21173560.555     -621569.070         673.184          44.000                  
                                                
  22263044.754    -1680192.824        2312.874          44.000                  
                                                
  23302686.104    -1573818.688        2241.348          43.000                  
                                                
  24762424.595    -1030698.6973       1303.829          31.000                  
                                                
 18 10  1  7 21 18.9990000  0  8G16G26G21G27G20G10G 8G 7
  20124438.471      476795.465        -934.804          45.000                  
                                                
  20931561.320     1729186.312       -2729.819          48.000                  
                                                
  22100333.143     1786405.647       -2716.517          46.000                  
                                                
  20780731.763     -860909.729        1134.278          48.000                  
                                                
  21173432.484     -622241.957         672.353          44.000                  
                                                
  22262605.004    -1682505.173        2312.244          44.000                  
                                                
  23302259.787    -1576059.691        2240.698          43.000                  
                                                
  24762176.269    -1032005.1313       1309.705          31.000                  
                                                
 18 10  1  7 21 19.9990000  0  8G16G26G21G27G20G10G 8G 7
  20124616.232      477730.731        -935.579          45.000                  
                                                
  20932080.944     1731916.329       -2730.553          48.000                  
                                                
  22100849.595     1789121.959       -2716.606          46.000                  
                                                
  20780515.921     -862043.842        1133.907          48.000                  
                                                
  21173304.801     -622913.988         671.685          44.000                  
                                                
  22262165.367    -1684816.970        2311.561          44.000                  
                                                
  23301833.635    -1578300.376        2240.981          43.000                  
                                                
  24761927.813    -1033310.9293       1306.177          31.000                  
                                                
 18 10  1  7 21 20.9990000  0  8G16G26G21G27G20G10G 8G 7
  20124794.001      478666.598        -936.130          45.000                  
                                                
  20932600.253     1734646.830       -2730.444          48.000                  
                                                
  22101366.689     1791838.459       -2716.694          46.000                  
                                                
  20780300.045     -863177.692        1133.687          48.000                  
                                                
  21173176.459     -623585.422         670.991          44.000                  
                                                
  22261725.386    -1687128.406        2311.033          44.000                  
                                                
  23301406.580    -1580540.951        2240.877          43.000                  
                                                
  24761678.764    -1034616.2393       1304.306          30.000                  
                                                
 18 10  1  7 21 21.9990000  0  8G16G26G21G27G20G10G 8G 7
  20124972.133      479602.846        -936.388          45.000                  
                                                
  20933119.742     1737377.582       -2731.030          48.000                  
                                                
  22101883.390     1794554.921       -2716.720          46.000                  
                                                
  20780084.700     -864311.514        1133.321          48.000                  
                                                
  21173049.068     -624256.493         670.828          44.000                  
                                                
  22261285.828    -1689439.723        2310.924          44.000                  
                                                
  23300980.341    -1582781.707        2240.409          43.000                  
                                                
  24761430.342    -1035921.2663       1304.538          30.000                  
                                                
 18 10  1  7 21 22.9990000  0  8G16G26G21G27G20G10G 8G 7
  20125150.605      480539.772        -937.286          45.000                  
                                                
  20933639.523     1740108.901       -2731.869          48.000                  
                                                
  22102400.641     1797271.674       -2717.060          46.000                  
                                                
  20779868.710     -865444.987        1132.998          48.000                  
                                                
  21172921.262     -624926.863         670.015          44.000                  
                                                
  22260846.161    -1691750.617        2310.141          44.000                  
                                                
  23300554.024    -1585022.262        2240.039          43.000                  
                                                
  24761181.633    -1037225.7073       1303.187          30.000                  
                                                
 18 10  1  7 21 23.9990000  0  8G16G26G21G27G20G10G 8G 7
  20125329.357      481477.499        -938.177          45.000                  
                                                
  20934159.269     1742840.913       -2732.316          48.000                  
                                                
  22102917.651     1799988.820       -2717.591          46.000                  
                                                
  20779652.463     -866577.985        1132.541          48.000                  
                                                
  21172793.924     -625596.433         668.955          44.000                  
                                                
  22260406.844    -1694060.945        2309.688          44.000                  
                                                
  23300128.094    -1587262.536        2239.932          43.000                  
                                                
  24760933.011    -1038528.7713       1302.527          30.000                  
                                                
 18 10  1  7 21 24.9990000  0  8G16G26G21G27G20G10G 8G 7
  20125507.781      482415.964        -938.524          45.000                  
                                                
  20934679.089     1745573.553       -2732.592          48.000                  
                                                
  22103435.342     1802706.322       -2717.101          46.000                  
                                                
  20779437.411     -867710.566        1132.551          48.000                  
                                                
  21172666.707     -626265.244         668.402          44.000                  
                                                
  22259967.403    -1696370.780        2309.646          44.000                  
                                                
  23299701.903    -1589502.591        2239.181          43.000                  
                                                
  24760685.685    -1039831.8793       1303.222          30.000                  
                                                
 18 10  1  7 21 25.9990000  0  8G16G26G21G27G20G10G 8G 7
  20125686.558      483354.941        -939.367          45.000                  
                                                
  20935199.564     1748306.576       -2733.455          48.000                  
                                                
  22103952.043     1805423.910       -2718.283          46.000                  
                                                
  20779222.014     -868842.996        1131.993          48.000                  
                                                
  21172539.443     -626933.545         668.045          44.000                  
                                                
  22259528.112    -1698680.372        2309.604          44.000                  
                                                
  23299275.756    -1591742.637        2239.199          43.000                  
                                                
  24760436.976    -1041134.5533       1302.062          30.000                  
                                                
 18 10  1  7 21 26.9990000  0  8G16G26G21G27G20G10G 8G 7
  20125865.196      484294.655        -940.003          45.000                  
                                                
  20935719.864     1751040.227       -2733.984          48.000                  
                                                
  22104469.403     1808141.855       -2718.146          46.000                  
                                                
  20779006.120     -869974.996        1131.944          48.000                  
                                                
  21172412.100     -627601.118         666.565          44.000                  
                                                
  22259088.462    -1700989.467        2308.745          44.000                  
                                                
  23298849.438    -1593982.453        2239.614          43.000                  
                                                
  24760188.144    -1042436.6063       1301.223          30.000                  
                                                
 18 10  1  7 21 27.9990000  0  8G16G26G21G27G20G10G 8G 7
  20126044.257      485235.104        -940.896          45.000                  
                                                
  20936239.919     1753774.503       -2734.692          48.000                  
                                                
  22104986.475     1810860.131       -2718.510          46.000                  
                                                
  20778790.788     -871106.610        1131.473          48.000                  
                                                
  21172285.263     -628267.934         666.965          44.000                  
                                                
  22258649.188    -1703298.072        2308.574          44.000                  
                                                
  23298423.374    -1596222.070        2239.364          43.000                  
                                                
  24759941.184    -1043737.9543       1300.937          30.000                  
                                                
 18 10  1  7 21 28.9990000  0  8G16G26G21G27G20G10G 8G 7
  20126223.323      486176.174        -940.910          45.000                  
                                                
  20936760.150     1756509.267       -2734.770          48.000                  
                                                
  22105503.376     1813578.625       -2718.512          46.000                  
                                                
  20778575.453     -872237.919        1131.705          48.000                  
                                                
  21172158.487     -628934.133         666.483          44.000                  
                                                
  22258210.092    -1705606.335        2308.055          44.000                  
                                                
  23297997.187    -1598461.580        2240.164          43.000                  
                                                
  24759690.966    -1045038.8413       1304.041          30.000                  
                                                
 18 10  1  7 21 29.9990000  0  8G16G26G21G27G20G10G 8G 7
  20126402.414      487117.715        -941.726          45.000                  
                                                
  20937280.908     1759244.411       -2735.259          48.000                  
                                                
  22106021.072     1816297.192       -2718.022          46.000                  
                                                
  20778360.575     -873369.099        1131.314          48.000                  
                                                
  21172031.519     -629599.849         665.703          44.000                  
                                                
  22257771.376    -1707914.332        2307.731          44.000                  
                                                
  23297570.861    -1600701.127        2239.552          43.000                  
                                                
  24759442.736    -1046339.3703       1300.603          30.000                  
                                                
 18 10  1  7 21 30.9990000  0  8G16G26G21G27G20G10G 8G 7
  20126581.484      488060.096        -942.124          45.000                  
                                                
  20937800.981     1761980.246       -2735.773          48.000                  
                                                
  22106538.314     1819016.174       -2718.523          46.000                  
                                                
  20778145.187     -874499.793        1130.984          48.000                  
                                                
  21171904.839     -630264.744         665.439          44.000                  
                                                
  22257332.198    -1710221.770        2307.668          44.000                  
                                                
  23297144.687    -1602940.356        2239.253          43.000                  
                                                
  24759198.150    -1047639.0683       1299.848          31.000                  
                                                
 18 10  1  7 21 31.9990000  0  8G16G26G21G27G20G10G 8G 7
  20126760.977      489003.111        -944.085          45.000                  
                                                
  20938321.473     1764716.647       -2737.020          48.000                  
                                                
  22107055.543     1821735.412       -2719.420          46.000                  
                                                
  20777929.821     -875630.163        1129.769          48.000                  
                                                
  21171778.535     -630928.976         663.650          44.000                  
                                                
  22256892.858    -1712528.821        2306.289          44.000                  
                                                
  23296718.911    -1605179.447        2238.833          43.000                  
                                                
  24758950.784    -1048938.2642       1297.914          31.000                  
                                                
 18 10  1  7 21 32.9990000  0  8G16G26G21G27G20G10G 8G 7
  20126940.343      489946.960        -943.633          45.000                  
                                                
  20938842.458     1767453.724       -2737.031          48.000                  
                                                
  22107572.876     1824455.052       -2719.544          46.000                  
                                                
  20777715.109     -876760.046        1129.752          48.000                  
                                                
  21171652.230     -631592.375         662.786          44.000                  
                                                
  22256453.994    -1714835.285        2306.971          44.000                  
                                                
  23296293.200    -1607418.239        2239.052          43.000                  
                                                
  24758704.749    -1050236.7173       1297.864          32.000                  
                                                
 18 10  1  7 21 33.9990000  0  8G16G26G21G27G20G10G 8G 7
  20127120.194      490891.138        -944.400          45.000                  
                                                
  20939363.277     1770191.047       -2737.033          48.000                  
                                                
  22108090.297     1827174.649       -2719.339          46.000                  
                                                
  20777499.525     -877889.928        1130.317          48.000                  
                                                
  21171525.921     -632255.452         662.834          44.000                  
                                                
  22256014.920    -1717141.635        2306.632          44.000                  
                                                
  23295867.236    -1609657.198        2239.314          43.000                  
                                                
  24758460.390    -1051534.9153       1301.846          31.000                  
                                                
 18 10  1  7 21 34.9990000  0  8G16G26G21G27G20G10G 8G 7
  20127299.491      491835.946        -945.341          45.000                  
                                                
  20939884.000     1772928.866       -2738.357          48.000                  
                                                
  22108608.023     1829894.461       -2719.661          46.000                  
                                                
  20777284.625     -879019.507        1129.498          48.000                  
                                                
  21171400.144     -632917.879         661.532          44.000                  
                                                
  22255576.575    -1719447.648        2305.314          44.000                  
                                                
  23295441.743    -1611896.061        2238.571          43.000                  
                                                
  24758210.581    -1052832.6432       1299.317          32.000                  
                                                
 18 10  1  7 21 35.9990000  0  8G16G26G21G27G20G10G 8G 7
  20127479.677      492781.550        -945.318          45.000                  
                                                
  20940405.478     1775667.343       -2738.609          48.000                  
                                                
  22109125.383     1832614.647       -2720.083          46.000                  
                                                
  20777070.153     -880148.632        1129.304          48.000                  
                                                
  21171274.197     -633579.522         661.531          44.000                  
                                                
  22255137.126    -1721753.103        2305.296          44.000                  
                                                
  23295015.298    -1614134.641        2239.206          43.000                  
                                                
  24757964.472    -1054129.6493       1301.595          32.000                  
                                                
 18 10  1  7 21 36.9990000  0  8G16G26G21G27G20G10G 8G 7
  20127660.034      493727.822        -947.225          45.000                  
                                                
  20940926.930     1778406.411       -2739.871          48.000                  
                                                
  22109643.061     1835335.129       -2720.999          46.000                  
                                                
  20776855.411     -881277.418        1128.144          48.000                  
                                                
  21171148.578     -634240.468         660.410          44.000                  
                                                
  22254699.244    -1724058.125        2304.672          44.000                  
                                                
  23294589.282    -1616373.074        2237.742          43.000                  
                                                
  24757717.826    -1055426.0702       1300.070          32.000                  
                                                
 18 10  1  7 21 37.9990000  0  8G16G26G21G27G20G10G 8G 7
  20127840.177      494674.680        -946.903          45.000                  
                                                
  20941448.203     1781145.928       -2740.150          48.000                  
                                                
  22110160.796     1838055.768       -2720.978          46.000                  
                                                
  20776640.494     -882405.961        1128.762          48.000                  
                                                
  21171022.831     -634900.843         660.100          44.000                  
                                                
  22254260.768    -1726362.823        2304.349          44.000                  
                                                
  23294163.065    -1618611.423        2238.578          43.000                  
                                                
  24757470.382    -1056721.9902       1296.428          32.000                  
                                                
 18 10  1  7 21 38.9990000  0  8G16G26G21G27G20G10G 8G 7
  20128019.949      495622.172        -948.226          45.000                  
                                                
  20941969.314     1783885.975       -2740.058          48.000                  
                                                
  22110678.252     1840776.668       -2720.882          46.000                  
                                                
  20776425.760     -883534.190        1128.326          48.000                  
                                                
  21170897.770     -635560.556         659.579          44.000                  
                                                
  22253822.492    -1728667.125        2304.054          44.000                  
                                                
  23293737.026    -1620849.662        2238.527          43.000                  
                                                
  24757223.998    -1058017.4543       1294.912          32.000                  
                                                
 18 10  1  7 21 39.9990000  0  8G16G26G21G27G20G10G 8G 7
  20128201.122      496570.423        -948.703          45.000                  
                                                
  20942491.072     1786626.654       -2741.390          48.000                  
                                                
  22111196.170     1843497.891       -2721.425          46.000                  
                                                
  20776211.280     -884662.008        1127.266          48.000                  
                                                
  21170772.281     -636219.540         658.680          44.000                  
                                                
  22253383.746    -1730970.927        2304.401          44.000                  
                                                
  23293311.747    -1623087.656        2237.763          43.000                  
                                                
  24756978.290    -1059312.1572       1297.614          32.000                  
                                                
 18 10  1  7 21 40.9990000  0  8G16G26G21G27G20G10G 8G 7
  20128381.570      497519.407        -949.700          45.000                  
                                                
  20943012.624     1789367.959       -2741.708          48.000                  
                                                
  22111714.236     1846219.477       -2721.962          46.000                  
                                                
  20775996.847     -885789.412        1127.110          48.000                  
                                                
  21170647.372     -636877.761         658.156          44.000                  
                                                
  22252945.706    -1733274.237        2302.693          44.000                  
                                                
  23292885.635    -1625325.412        2237.807          43.000                  
                                                
  24756731.858    -1060606.2862       1291.452          33.000                  
                                                
 18 10  1  7 21 41.9990000  0  8G16G26G21G27G20G10G 8G 7
  20128562.088      498469.050        -949.894          45.000                  
                                                
  20943535.166     1792109.808       -2742.056          48.000                  
                                                
  22112232.263     1848941.313       -2721.673          46.000                  
                                                
  20775782.445     -886916.491        1126.834          48.000                  
                                                
  21170521.892     -637535.319         657.719          44.000                  
                                                
  22252507.640    -1735577.152        2302.279          44.000                  
                                                
  23292459.836    -1627563.040        2237.823          43.000                  
                                                
  24756486.002    -1061899.8002       1292.895          33.000                  
                                                
 18 10  1  7 21 42.9990000  0  8G16G26G21G27G20G10G 8G 7
  20128742.990      499419.289        -950.802          45.000                  
                                                
  20944057.102     1794852.138       -2742.337          48.000                  
                                                
  22112750.334     1851663.337       -2721.487          46.000                  
                                                
  20775567.969     -888043.317        1126.983          48.000                  
                                                
  21170396.997     -638192.294         657.161          44.000                  
                                                
  22252069.007    -1737879.694        2301.925          44.000                  
                                                
  23292033.772    -1629800.593        2238.229          43.000                  
                                                
  24756239.732    -1063192.8192       1293.162          33.000                  
                                                
 18 10  1  7 21 43.9990000  0  8G16G26G21G27G20G10G 8G 7
  20128924.294      500370.114        -951.170          45.000                  
                                                
  20944578.672     1797594.921       -2743.172          48.000                  
                                                
  22113268.309     1854385.533       -2722.687          46.000                  
                                                
  20775353.754     -889169.887        1126.223          48.000                  
                                                
  21170272.612     -638848.674         656.163          44.000                  
                                                
  22251630.649    -1740181.922        2301.848          44.000                  
                                                
  23291608.554    -1632038.072        2237.467          43.000                  
                                                
  24755993.793    -1064485.3832       1293.846          33.000                  
                                                
 18 10  1  7 21 44.9990000  0  8G16G26G21G27G20G10G 8G 7
  20129105.715      501321.966        -952.310          45.000                  
                                                
  20945101.040     1800338.652       -2743.799          48.000                  
                                                
  22113786.419     1857108.387       -2723.111          46.000                  
                                                
  20775139.592     -890295.736        1125.891          48.000                  
                                                
  21170148.008     -639504.016         655.011          44.000                  
                                                
  22251192.435    -1742483.333        2301.534          44.000                  
                                                
  23291182.834    -1634275.022        2236.496          43.000                  
                                                
  24755748.469    -1065777.0052       1290.572          33.000                  
                                                
 18 10  1  7 21 45.9990000  0  8G16G26G21G27G20G10G 8G 7
  20129286.783      502274.474        -952.828          45.000                  
                                                
  20945623.032     1803082.885       -2744.129          48.000                  
                                                
  22114304.747     1859831.456       -2722.874          46.000                  
                                                
  20774925.251     -891421.290        1125.623          48.000                  
                                                
  21170023.702     -640158.708         654.470          44.000                  
                                                
  22250754.452    -1744784.374        2300.998          44.000                  
                                                
  23290757.214    -1636511.831        2237.086          43.000                  
                                                
  24755502.848    -1067068.0752       1288.671          33.000                  
                                                
 18 10  1  7 21 46.9990000  0  8G16G26G21G27G20G10G 8G 7
  20129467.911      503227.417        -953.375          45.000                  
                                                
  20946145.706     1805827.437       -2744.827          48.000                  
                                                
  22114822.705     1862554.558       -2723.078          46.000                  
                                                
  20774711.359     -892546.753        1125.240          48.000                  
                                                
  21169898.701     -640812.957         654.038          44.000                  
                                                
  22250317.267    -1747085.213        2301.014          44.000                  
                                                
  23290331.629    -1638748.728        2236.454          43.000                  
                                                
  24755257.699    -1068358.7992       1289.929          33.000                  
                                                
 18 10  1  7 21 47.9990000  0  8G16G26G21G27G20G10G 8G 7
  20129649.267      504180.860        -953.948          45.000                  
                                                
  20946667.724     1808572.395       -2745.392          48.000                  
                                                
  22115340.976     1865277.780       -2723.270          46.000                  
                                                
  20774497.446     -893672.029        1125.265          48.000                  
                                                
  21169774.670     -641466.693         653.757          44.000                  
                                                
  22249879.581    -1749385.801        2300.068          44.000                  
                                                
  23289905.587    -1640985.628        2237.125          43.000                  
                                                
  24755012.794    -1069649.0662       1291.033          34.000                  
                                                
 18 10  1  7 21 48.9990000  0  8G16G26G21G27G20G10G 8G 7
  20129830.697      505135.395        -955.015          45.000                  
                                                
  20947190.402     1811318.320       -2745.885          48.000                  
                                                
  22115859.374     1868001.687       -2724.071          46.000                  
                                                
  20774283.663     -894796.553        1123.951          49.000                  
                                                
  21169650.280     -642119.333         652.081          44.000                  
                                                
  22249441.410    -1751685.552        2298.890          44.000                  
                                                
  23289479.867    -1643221.962        2236.133          43.000                  
                                                
  24754767.540    -1070938.899        1286.898          34.000                  
                                                
 18 10  1  7 21 49.9990000  0  8G16G26G21G27G20G10G 8G 7
  20130012.938      506090.598        -955.002          45.000                  
                                                
  20947713.106     1814064.794       -2746.480          48.000                  
                                                
  22116377.624     1870725.843       -2723.798          46.000                  
                                                
  20774069.815     -895920.729        1123.903          49.000                  
                                                
  21169526.523     -642771.300         651.781          45.000                  
                                                
  22249003.859    -1753984.862        2299.142          44.000                  
                                                
  23289054.322    -1645458.145        2236.065          43.000                  
                                                
  24754522.748    -1072227.643        1288.672          34.000                  
                                                
 18 10  1  7 21 50.9990000  0  8G16G26G21G27G20G10G 8G 7
  20130194.626      507046.392        -955.844          45.000                  
                                                
  20948235.906     1816811.749       -2747.167          48.000                  
                                                
  22116896.432     1873450.197       -2723.812          46.000                  
                                                
  20773855.880     -897044.675        1124.023          48.000                  
                                                
  21169402.365     -643422.668         651.535          45.000                  
                                                
  22248566.234    -1756283.862        2299.274          44.000                  
                                                
  23288628.458    -1647694.243        2236.221          43.000                  
                                                
  24754277.830    -1073515.866        1288.926          34.000                  
                                                
 18 10  1  7 21 51.9990000  0  8G16G26G21G27G20G10G 8G 7
  20130376.553      508002.715        -956.433          45.000                  
                                                
  20948758.998     1819559.105       -2747.325          48.000                  
                                                
  22117414.450     1876174.680       -2724.597          46.000                  
                                                
  20773641.997     -898168.406        1123.638          49.000                  
                                                
  21169278.717     -644073.503         650.598          45.000                  
                                                
  22248128.931    -1758582.558        2298.436          44.000                  
                                                
  23288203.318    -1649930.321        2236.030          43.000                  
                                                
  24754032.824    -1074803.693        1287.107          35.000                  
                                                
 18 10  1  7 21 52.9990000  0  8G16G26G21G27G20G10G 8G 7
  20130558.288      508959.782        -957.547          45.000                  
                                                
  20949281.649     1822307.095       -2748.480          48.000                  
                                                
  22117932.717     1878899.498       -2724.906          46.000                  
                                                
  20773428.424     -899291.714        1123.161          49.000                  
                                                
  21169154.532     -644723.572         649.898          45.000                  
                                                
  22247691.389    -1760880.763        2297.569          44.000                  
                                                
  23287777.568    -1652166.208        2235.681          43.000                  
                                                
  24753788.264    -1076090.853        1287.551          35.000                  
                                                
 18 10  1  7 21 53.9990000  0  8G16G26G21G27G20G10G 8G 7
  20130740.874      509917.760        -957.870          45.000                  
                                                
  20949804.916     1825055.871       -2748.751          48.000                  
                                                
  22118451.089     1881624.820       -2725.266          46.000                  
                                                
  20773214.580     -900414.464        1123.003          49.000                  
                                                
  21169031.561     -645372.746         648.896          45.000                  
                                                
  22247254.348    -1763178.286        2297.537          44.000                  
                                                
  23287352.712    -1654401.672        2235.955          43.000                  
                                                
  24753543.760    -1077377.180        1285.888          35.000                  
                                                
 18 10  1  7 21 54.9990000  0  8G16G26G21G27G20G10G 8G 7
  20130923.041      510876.234        -959.029          45.000                  
                                                
  20950327.877     1827805.054       -2749.421          48.000                  
                                                
  22118969.814     1884350.254       -2725.830          46.000                  
                                                
  20773001.343     -901537.032        1122.533          49.000                  
                                                
  21168908.724     -646021.397         648.328          45.000                  
                                                
  22246817.303    -1765475.559        2297.505          44.000                  
                                                
  23286927.362    -1656637.144        2235.524          43.000                  
                                                
  24753299.457    -1078663.135        1286.523          35.000                  
                                                
 18 10  1  7 21 55.9990000  0  8G16G26G21G27G20G10G 8G 7
  20131105.846      511835.323        -959.399          45.000                  
                                                
  20950851.078     1830554.704       -2749.608          48.000                  
                                                
  22119488.840     1887075.876       -2725.564          46.000                  
                                                
  20772787.342     -902659.343        1122.388          48.000                  
                                                
  21168784.775     -646669.446         647.542          45.000                  
                                                
  22246380.468    -1767772.497        2296.414          44.000                  
                                                
  23286501.211    -1658872.544        2235.382          43.000                  
                                                
  24753054.587    -1079948.567        1284.950          35.000                  
                                                
 18 10  1  7 21 56.9990000  0  8G16G26G21G27G20G10G 8G 7
  20131288.733      512795.424        -960.481          45.000                  
                                                
  20951374.742     1833305.259       -2750.806          48.000                  
                                                
  22120007.504     1889802.111       -2727.009          46.000                  
                                                
  20772573.812     -903780.963        1121.029          48.000                  
                                                
  21168661.812     -647316.462         646.820          45.000                  
                                                
  22245943.165    -1770068.643        2295.319          44.000                  
                                                
  23286076.285    -1661107.458        2234.618          43.000                  
                                                
  24752810.467    -1081233.039        1284.936          35.000                  
                                                
 18 10  1  7 21 57.9990000  0  8G16G26G21G27G20G10G 8G 7
  20131471.825      513756.320        -961.583          45.000                  
                                                
  20951897.821     1836056.495       -2751.907          48.000                  
                                                
  22120526.631     1892528.747       -2726.552          46.000                  
                                                
  20772360.248     -904902.106        1121.194          48.000                  
                                                
  21168538.771     -647962.695         645.588          45.000                  
                                                
  22245506.386    -1772364.241        2294.752          44.000                  
                                                
  23285651.019    -1663342.077        2234.105          43.000                  
                                                
  24752566.251    -1082516.852        1282.900          35.000                  
                                                
 18 10  1  7 21 58.9990000  0  8G16G26G21G27G20G10G 8G 7
  20131654.589      514717.865        -962.010          45.000                  
                                                
  20952421.620     1838808.253       -2752.283          48.000                  
                                                
  22121045.443     1895255.608       -2727.025          46.000                  
                                                
  20772146.954     -906022.953        1120.754          48.000                  
                                                
  21168415.974     -648608.271         645.364          45.000                  
                                                
  22245069.385    -1774659.464        2294.439          44.000                  
                                                
  23285225.443    -1665576.577        2233.879          43.000                  
                                                
  24752322.406    -1083800.135        1283.390          35.000                  
                                                
 18 10  1  7 21 59.9990000  0  8G16G26G21G27G20G10G 8G 7
  20131838.100      515680.058        -962.613          45.000                  
                                                
  20952945.366     1841560.539       -2752.886          48.000                  
                                                
  22121564.605     1897982.718       -2727.330          46.000                  
                                                
  20771933.634     -907143.486        1120.068          48.000                  
                                                
  21168293.133     -649253.188         643.985          45.000                  
                                                
  22244632.850    -1776954.265        2293.804          44.000                  
                                                
  23284800.225    -1667810.924        2233.724          43.000                  
                                                
  24752078.692    -1085082.824        1283.168          36.000                  
                                                
 18 10  1  7 22  0.9990000  0  8G16G26G21G27G20G10G 8G 7
  20132020.739      516643.133        -963.574          45.000                  
                                                
  20953469.217     1844313.603       -2753.099          48.000                  
                                                
  22122083.758     1900710.310       -2727.759          46.000                  
                                                
  20771720.283     -908263.470        1119.982          48.000                  
                                                
  21168170.458     -649897.217         644.451          45.000                  
                                                
  22244196.010    -1779248.446        2294.156          44.000                  
                                                
  23284375.233    -1670044.905        2233.974          43.000                  
                                                
  24751834.804    -1086364.760        1280.979          35.000                  
                                                
 18 10  1  7 22  1.9990000  0  8G16G26G21G27G20G10G 8G 7
  20132204.258      517606.862        -964.270          45.000                  
                                                
  20953992.781     1847067.191       -2753.864          48.000                  
                                                
  22122602.631     1903438.147       -2727.947          46.000                  
                                                
  20771507.321     -909383.135        1119.120          48.000                  
                                                
  21168047.857     -650540.585         643.051          45.000                  
                                                
  22243759.829    -1781542.223        2293.399          44.000                  
                                                
  23283950.713    -1672278.746        2233.787          43.000                  
                                                
  24751590.470    -1087646.083        1281.293          35.000                  
                                                
 18 10  1  7 22  2.9990000  0  8G16G26G21G27G20G10G 8G 7
  20132388.262      518571.249        -964.772          45.000                  
                                                
  20954516.837     1849821.322       -2754.173          48.000                  
                                                
  22123120.815     1906166.239       -2728.176          46.000                  
                                                
  20771293.965     -910502.465        1119.228          48.000                  
                                                
  21167925.409     -651183.289         642.706          44.000                  
                                                
  22243323.045    -1783835.564        2293.335          44.000                  
                                                
  23283525.229    -1674512.436        2233.816          43.000                  
                                                
  24751346.813    -1088926.882        1280.382          35.000                  
                                                
 18 10  1  7 22  3.9990000  0  8G16G26G21G27G20G10G 8G 7
  20132571.873      519536.073        -965.000          45.000                  
                                                
  20955041.094     1852575.774       -2754.489          48.000                  
                                                
  22123640.151     1908894.367       -2728.068          46.000                  
                                                
  20771081.234     -911621.705        1119.170          48.000                  
                                                
  21167802.764     -651825.553         642.133          44.000                  
                                                
  22242887.021    -1786128.734        2292.971          44.000                  
                                                
  23283100.172    -1676746.197        2234.102          42.000                  
                                                
  24751103.539    -1090207.297        1281.355          35.000                  
                                                
 18 10  1  7 22  4.9990000  0  8G16G26G21G27G20G10G 8G 7
  20132755.258      520501.553        -965.823          45.000                  
                                                
  20955565.351     1855330.759       -2755.997          48.000                  
                                                
  22124159.483     1911622.734       -2729.162          46.000                  
                                                
  20770868.320     -912740.611        1118.811          48.000                  
                                                
  21167680.561     -652467.167         640.479          44.000                  
                                                
  22242450.587    -1788421.500        2292.547          44.000                  
                                                
  23282675.037    -1678979.843        2234.093          42.000                  
                                                
  24750859.738    -1091487.238        1279.240          35.000                  
                                                
 18 10  1  7 22  5.9990000  0  8G16G26G21G27G20G10G 8G 7
  20132938.590      521467.842        -966.864          45.000                  
                                                
  20956089.529     1858086.426       -2755.789          47.000                  
                                                
  22124679.377     1914351.510       -2728.796          46.000                  
                                                
  20770655.837     -913859.056        1118.393          48.000                  
                                                
  21167558.802     -653107.945         640.351          44.000                  
                                                
  22242014.615    -1790713.695        2291.625          44.000                  
                                                
  23282249.675    -1681213.193        2233.125          42.000                  
                                                
  24750616.076    -1092766.394        1280.047          34.000                  
                                                
 18 10  1  7 22  6.9990000  0  8G16G26G21G27G20G10G 8G 7
  20133123.065      522434.779        -966.845          45.000                  
                                                
  20956613.786     1860842.656       -2756.250          47.000                  
                                                
  22125198.303     1917080.546       -2729.144          46.000                  
                                                
  20770442.822     -914977.155        1118.242          48.000                  
                                                
  21167436.864     -653748.063         640.100          44.000                  
                                                
  22241578.778    -1793005.468        2292.254          44.000                  
                                                
  23281824.805    -1683446.401        2233.092          42.000                  
                                                
  24750372.279    -1094045.045        1279.399          34.000                  
                                                
 18 10  1  7 22  7.9990000  0  8G16G26G21G27G20G10G 8G 7
  20133306.584      523402.399        -968.188          45.000                  
                                                
  20957138.370     1863599.434       -2756.889          47.000                  
                                                
  22125717.499     1919809.845       -2729.438          46.000                  
                                                
  20770230.536     -916094.932        1117.617          48.000                  
                                                
  21167314.782     -654387.503         638.747          44.000                  
                                                
  22241143.068    -1795296.817        2291.633          44.000                  
                                                
  23281400.124    -1685679.470        2232.727          43.000                  
                                                
  24750128.949    -1095323.079        1275.536          34.000                  
                                                
 18 10  1  7 22  8.9990000  0  8G16G26G21G27G20G10G 8G 7
  20133491.295      524370.648        -968.217          45.000                  
                                                
  20957662.976     1866356.713       -2757.378          48.000                  
                                                
  22126236.779     1922539.370       -2729.268          46.000                  
                                                
  20770017.486     -917212.413        1117.423          48.000                  
                                                
  21167193.036     -655026.301         638.511          44.000                  
                                                
  22240707.061    -1797587.801        2290.350          44.000                  
                                                
  23280975.386    -1687912.387        2233.434          42.000                  
                                                
  24749885.955    -1096600.573        1277.388          34.000                  
                                                
 18 10  1  7 22  9.9990000  0  8G16G26G21G27G20G10G 8G 7
  20133675.486      525339.603        -969.328          45.000                  
                                                
  20958187.826     1869114.592       -2757.902          47.000                  
                                                
  22126756.372     1925269.200       -2730.272          46.000                  
                                                
  20769805.034     -918329.517        1116.736          48.000                  
                                                
  21167071.264     -655664.386         637.634          44.000                  
                                                
  22240270.723    -1799878.301        2289.801          44.000                  
                                                
  23280550.342    -1690145.156        2232.572          42.000                  
                                                
  24749643.283    -1097877.433        1278.730          34.000                  
                                                
 18 10  1  7 22 10.9990000  0  8G16G26G21G27G20G10G 8G 7
  20133860.188      526309.282        -970.382          45.000                  
                                                
  20958712.305     1871873.073       -2758.479          47.000                  
                                                
  22127276.253     1927999.364       -2729.440          46.000                  
                                                
  20769592.691     -919446.215        1116.594          48.000                  
                                                
  21166949.684     -656301.721         637.411          44.000                  
                                                
  22239835.157    -1802168.320        2289.549          44.000                  
                                                
  23280125.569    -1692377.676        2232.390          43.000                  
                                                
  24749399.813    -1099153.653        1276.142          34.000                  
                                                
 18 10  1  7 22 11.9990000  0  8G16G26G21G27G20G10G 8G 7
  20134044.510      527279.586        -970.218          45.000                  
                                                
  20959237.387     1874632.045       -2759.260          47.000                  
                                                
  22127795.947     1930729.712       -2730.569          46.000                  
                                                
  20769379.938     -920562.642        1116.578          48.000                  
                                                
  21166828.933     -656938.456         636.486          44.000                  
                                                
  22239399.669    -1804457.975        2290.220          44.000                  
                                                
  23279700.787    -1694610.097        2232.416          42.000                  
                                                
  24749157.194    -1100429.463        1274.729          34.000                  
                                                
 18 10  1  7 22 12.9990000  0  8G16G26G21G27G20G10G 8G 7
  20134229.408      528250.658        -971.015          45.000                  
                                                
  20959762.669     1877391.679       -2759.274          47.000                  
                                                
  22128315.161     1933460.446       -2730.585          46.000                  
                                                
  20769167.761     -921678.635        1116.027          48.000                  
                                                
  21166707.362     -657574.403         635.961          44.000                  
                                                
  22238963.793    -1806747.100        2289.301          44.000                  
                                                
  23279275.774    -1696842.270        2231.006          43.000                  
                                                
  24748914.697    -1101704.527        1274.428          34.000                  
                                                
 18 10  1  7 22 13.9990000  0  8G16G26G21G27G20G10G 8G 7
  20134414.202      529222.508        -972.730          45.000                  
                                                
  20960288.125     1880151.976       -2760.322          47.000                  
                                                
  22128834.462     1936191.537       -2731.324          46.000                  
                                                
  20768955.715     -922794.171        1115.444          48.000                  
                                                
  21166586.894     -658209.574         635.314          44.000                  
                                                
  22238528.860    -1809035.717        2288.232          44.000                  
                                                
  23278851.210    -1699074.189        2231.534          43.000                  
                                                
  24748672.597    -1102978.883        1273.337          34.000                  
                                                
 18 10  1  7 22 14.9990000  0  8G16G26G21G27G20G10G 8G 7
  20134599.641      530195.019        -972.691          45.000                  
                                                
  20960813.159     1882912.807       -2760.618          47.000                  
                                                
  22129354.177     1938922.901       -2731.348          46.000                  
                                                
  20768743.145     -923909.376        1115.123          48.000                  
                                                
  21166466.492     -658844.062         634.539          44.000                  
                                                
  22238092.761    -1811323.892        2288.331          44.000                  
                                                
  23278426.864    -1701305.929        2232.340          43.000                  
                                                
  24748429.834    -1104252.654        1274.944          34.000                  
                                                
 18 10  1  7 22 15.9990000  0  8G16G26G21G27G20G10G 8G 7
  20134784.709      531168.022        -973.749          45.000                  
                                                
  20961338.908     1885674.015       -2761.688          47.000                  
                                                
  22129874.499     1941654.350       -2731.497          46.000                  
                                                
  20768530.937     -925024.425        1114.368          48.000                  
                                                
  21166345.601     -659478.055         633.250          44.000                  
                                                
  22237657.204    -1813611.837        2287.461          44.000                  
                                                
  23278001.642    -1703537.687        2231.566          42.000                  
                                                
  24748187.420    -1105526.082        1272.990          34.000                  
                                                
 18 10  1  7 22 16.9990000  0  8G16G26G21G27G20G10G 8G 7
  20134969.930      532141.598        -973.839          45.000                  
                                                
  20961864.975     1888435.677       -2761.632          47.000                  
                                                
  22130394.542     1944385.951       -2731.568          46.000                  
                                                
  20768318.913     -926139.239        1115.062          48.000                  
                                                
  21166224.946     -660111.473         633.856          44.000                  
                                                
  22237221.873    -1815899.437        2287.611          44.000                  
                                                
  23277576.637    -1705769.402        2231.406          42.000                  
                                                
  24747945.137    -1106798.997        1274.533          34.000                  
                                                
 18 10  1  7 22 17.9990000  0  8G16G26G21G27G20G10G 8G 7
  20135155.483      533115.864        -974.208          45.000                  
                                                
  20962390.323     1891197.914       -2762.224          47.000                  
                                                
  22130913.808     1947117.837       -2732.065          46.000                  
                                                
  20768107.133     -927253.698        1114.368          48.000                  
                                                
  21166104.884     -660744.204         632.221          44.000                  
                                                
  22236786.211    -1818186.612        2287.464          44.000                  
                                                
  23277152.086    -1708000.931        2231.585          42.000                  
                                                
  24747703.547    -1108071.347        1271.366          34.000                  
                                                
 18 10  1  7 22 18.9990000  0  8G16G26G21G27G20G10G 8G 7
  20135341.210      534090.784        -975.069          45.000                  
                                                
  20962915.980     1893960.691       -2763.115          47.000                  
                                                
  22131434.086     1949849.985       -2732.510          46.000                  
                                                
  20767895.117     -928367.820        1114.240          48.000                  
                                                
  21165984.600     -661376.241         631.987          44.000                  
                                                
  22236351.683    -1820473.361        2286.384          44.000                  
                                                
  23276727.610    -1710232.341        2232.083          42.000                  
                                                
  24747461.858    -1109343.088        1271.009          35.000                  
                                                
 18 10  1  7 22 19.9990000  0  8G16G26G21G27G20G10G 8G 7
  20135526.479      535066.281        -976.500          45.000                  
                                                
  20963441.842     1896723.935       -2763.347          47.000                  
                                                
  22131953.985     1952582.318       -2732.334          46.000                  
                                                
  20767683.284     -929481.702        1114.222          48.000                  
                                                
  21165864.931     -662007.711         631.367          44.000                  
                                                
  22235916.567    -1822759.773        2286.388          44.000                  
                                                
  23276303.194    -1712463.659        2231.689          42.000                  
                                                
  24747220.390    -1110614.357        1272.655          34.000                  
                                                
 18 10  1  7 22 20.9990000  0  8G16G26G21G27G20G10G 8G 7
  20135712.310      536042.288        -976.316          45.000                  
                                                
  20963967.233     1899487.547       -2763.770          47.000                  
                                                
  22132474.132     1955314.731       -2732.735          46.000                  
                                                
  20767471.290     -930595.415        1113.779          48.000                  
                                                
  21165744.188     -662638.670         631.061          44.000                  
                                                
  22235481.367    -1825045.931        2285.832          44.000                  
                                                
  23275878.282    -1714695.028        2230.993          42.000                  
                                                
  24746978.255    -1111885.264        1270.554          35.000                  
                                                
 18 10  1  7 22 21.9990000  0  8G16G26G21G27G20G10G 8G 7
  20135898.474      537019.007        -977.167          45.000                  
                                                
  20964493.357     1902251.758       -2765.128          47.000                  
                                                
  22132993.939     1958047.460       -2732.762          46.000                  
                                                
  20767258.969     -931708.738        1113.123          48.000                  
                                                
  21165624.048     -663268.902         629.344          44.000                  
                                                
  22235046.778    -1827331.604        2284.962          44.000                  
                                                
  23275453.879    -1716926.170        2230.343          42.000                  
                                                
  24746736.858    -1113155.503        1271.041          34.000                  
                                                
 18 10  1  7 22 22.9990000  0  8G16G26G21G27G20G10G 8G 7
  20136084.345      537996.611        -977.991          45.000                  
                                                
  20965019.691     1905016.738       -2764.978          47.000                  
                                                
  22133514.174     1960780.666       -2732.950          46.000                  
                                                
  20767047.246     -932821.521        1113.096          48.000                  
                                                
  21165504.632     -663898.240         628.940          44.000                  
                                                
  22234611.753    -1829616.675        2284.932          44.000                  
                                                
  23275029.411    -1719156.955        2230.753          43.000                  
                                                
  24746494.723    -1114424.966        1269.381          34.000                  
                                                
 18 10  1  7 22 23.9990000  0  8G16G26G21G27G20G10G 8G 7
  20136270.377      538974.965        -979.004          45.000                  
                                                
  20965545.832     1907782.337       -2766.316          47.000                  
                                                
  22134034.208     1963514.199       -2734.242          46.000                  
                                                
  20766835.880     -933933.887        1111.640          48.000                  
                                                
  21165385.246     -664526.832         627.666          44.000                  
                                                
  22234177.225    -1831901.215        2284.483          44.000                  
                                                
  23274605.175    -1721387.516        2230.405          43.000                  
                                                
  24746253.888    -1115693.782        1267.027          35.000                  
                                                
 18 10  1  7 22 24.9990000  0  8G16G26G21G27G20G10G 8G 7
  20136456.645      539953.776        -979.998          45.000                  
                                                
  20966072.122     1910548.295       -2766.412          47.000                  
                                                
  22134554.198     1966247.818       -2733.945          46.000                  
                                                
  20766624.012     -935046.111        1112.174          48.000                  
                                                
  21165265.725     -665154.953         627.535          44.000                  
                                                
  22233742.056    -1834185.548        2283.545          44.000                  
                                                
  23274180.960    -1723618.130        2230.895          42.000                  
                                                
  24746011.784    -1116962.191        1266.440          35.000                  
                                                
 18 10  1  7 22 25.9990000  0  8G16G26G21G27G20G10G 8G 7
  20136642.856      540933.253        -979.449          45.000                  
                                                
  20966598.866     1913314.787       -2766.591          47.000                  
                                                
  22135074.707     1968981.670       -2733.698          46.000                  
                                                
  20766412.647     -936158.018        1111.713          48.000                  
                                                
  21165146.357     -665782.417         626.756          44.000                  
                                                
  22233307.519    -1836469.469        2283.580          44.000                  
                                                
  23273756.950    -1725848.620        2230.575          43.000                  
                                                
  24745770.870    -1118230.118        1268.042          35.000                  
                                                
 18 10  1  7 22 26.9990000  0  8G16G26G21G27G20G10G 8G 7
  20136829.255      541913.252        -980.573          45.000                  
                                                
  20967125.413     1916081.698       -2767.327          47.000                  
                                                
  22135595.130     1971715.666       -2734.209          46.000                  
                                                
  20766200.788     -937269.729        1111.422          48.000                  
                                                
  21165027.159     -666409.315         626.182          44.000                  
                                                
  22232872.730    -1838753.078        2282.982          44.000                  
                                                
  23273332.578    -1728079.057        2229.714          43.000                  
                                                
  24745529.625    -1119497.558        1266.888          35.000                  
                                                
 18 10  1  7 22 27.9990000  0  8G16G26G21G27G20G10G 8G 7
  20137016.274      542893.822        -980.619          45.000                  
                                                
  20967651.917     1918849.034       -2767.512          47.000                  
                                                
  22136115.085     1974449.799       -2734.169          46.000                  
                                                
  20765989.274     -938381.224        1111.357          48.000                  
                                                
  21164908.044     -667035.663         626.557          44.000                  
                                                
  22232438.062    -1841036.395        2283.078          44.000                  
                                                
  23272907.796    -1730309.465        2229.877          43.000                  
                                                
  24745288.542    -1120764.534        1265.814          34.000                  
                                                
 18 10  1  7 22 28.9990000  0  8G16G26G21G27G20G10G 8G 7
  20137203.004      543874.847        -981.635          45.000                  
                                                
  20968178.529     1921616.726       -2768.131          47.000                  
                                                
  22136635.547     1977183.998       -2734.378          46.000                  
                                                
  20765777.747     -939492.564        1111.202          48.000                  
                                                
  21164789.142     -667661.535         624.916          44.000                  
                                                
  22232003.216    -1843319.489        2282.551          44.000                  
                                                
  23272483.307    -1732539.917        2229.675          43.000                  
                                                
  24745047.354    -1122031.075        1267.162          34.000                  
                                                
 18 10  1  7 22 29.9990000  0  8G16G26G21G27G20G10G 8G 7
  20137389.796      544856.599        -982.699          45.000                  
                                                
  20968705.434     1924385.020       -2768.981          47.000                  
                                                
  22137155.881     1979918.503       -2734.919          46.000                  
                                                
  20765566.294     -940603.526        1110.686          48.000                  
                                                
  21164670.315     -668286.677         624.751          44.000                  
                                                
  22231568.683    -1845602.115        2282.215          44.000                  
                                                
  23272058.782    -1734770.182        2230.139          43.000                  
                                                
  24744805.917    -1123297.078        1265.059          34.000                  
                                                
 18 10  1  7 22 30.9990000  0  8G16G26G21G27G20G10G 8G 7
  20137576.391      545838.962        -982.597          45.000                  
                                                
  20969232.126     1927153.796       -2768.906          47.000                  
                                                
  22137675.990     1982653.216       -2734.559          46.000                  
                                                
  20765355.429     -941714.216        1110.753          48.000                  
                                                
  21164551.396     -668911.200         624.434          44.000                  
                                                
  22231134.910    -1847884.346        2282.139          44.000                  
                                                
  23271634.768    -1737000.334        2230.373          43.000                  
                                                
  24744565.017    -1124562.521        1264.855          34.000                  
                                                
 18 10  1  7 22 31.9990000  0  8G16G26G21G27G20G10G 8G 7
  20137763.588      546821.811        -982.601          45.000                  
                                                
  20969758.996     1929922.949       -2769.185          47.000                  
                                                
  22138196.329     1985387.994       -2734.583          46.000                  
                                                
  20765143.928     -942824.744        1110.582          48.000                  
                                                
  21164433.123     -669535.235         623.680          44.000                  
                                                
  22230700.151    -1850166.363        2282.172          44.000                  
                                                
  23271210.069    -1739230.548        2230.448          43.000                  
                                                
  24744323.933    -1125827.568        1265.233          35.000                  
                                                
 18 10  1  7 22 32.9990000  0  8G16G26G21G27G20G10G 8G 7
  20137950.554      547805.281        -983.693          45.000                  
                                                
  20970286.162     1932692.601       -2769.756          47.000                  
                                                
  22138716.694     1988123.010       -2734.899          46.000                  
                                                
  20764932.807     -943934.982        1110.265          49.000                  
                                                
  21164314.383     -670158.632         623.101          44.000                  
                                                
  22230265.981    -1852447.982        2281.888          44.000                  
                                                
  23270785.601    -1741460.641        2230.693          43.000                  
                                                
  24744083.513    -1127092.121        1264.947          35.000                  
                                                
 18 10  1  7 22 33.9990000  0  8G16G26G21G27G20G10G 8G 7
  20138138.043      548789.448        -985.114          45.000                  
                                                
  20970813.272     1935462.844       -2770.773          47.000                  
                                                
  22139237.269     1990858.319       -2735.792          46.000                  
                                                
  20764721.747     -945044.843        1108.958          48.000                  
                                                
  21164195.774     -670781.301         622.007          44.000                  
                                                
  22229832.199    -1854729.130        2280.571          43.000                  
                                                
  23270361.749    -1743690.529        2229.783          43.000                  
                                                
  24743843.529    -1128356.002        1263.715          35.000                  
                                                
 18 10  1  7 22 34.9990000  0  8G16G26G21G27G20G10G 8G 7
  20138325.328      549774.437        -984.898          45.000                  
                                                
  20971340.600     1938233.766       -2770.837          47.000                  
                                                
  22139758.123     1993594.045       -2735.500          46.000                  
                                                
  20764510.499     -946154.236        1109.459          48.000                  
                                                
  21164077.243     -671403.169         621.508          44.000                  
                                                
  22229398.190    -1857009.741        2280.630          43.000                  
                                                
  23269937.900    -1745920.132        2229.558          43.000                  
                                                
  24743603.213    -1129619.197        1263.725          35.000                  
                                                
 18 10  1  7 22 35.9990000  0  8G16G26G21G27G20G10G 8G 7
  20138513.241      550759.886        -985.467          45.000                  
                                                
  20971867.793     1941005.050       -2771.402          47.000                  
                                                
  22140278.934     1996329.850       -2735.728          46.000                  
                                                
  20764298.993     -947263.486        1109.334          49.000                  
                                                
  21163958.726     -672024.552         620.716          44.000                  
                                                
  22228964.190    -1859290.104        2280.613          43.000                  
                                                
  23269513.350    -1748149.754        2229.698          43.000                  
                                                
  24743363.164    -1130881.964        1262.798          35.000                  
                                                
 18 10  1  7 22 36.9990000  0  8G16G26G21G27G20G10G 8G 7
  20138701.271      551745.654        -985.771          45.000                  
                                                
  20972395.335     1943776.534       -2771.403          47.000                  
                                                
  22140799.413     1999065.555       -2735.539          46.000                  
                                                
  20764088.094     -948372.750        1109.392          49.000                  
                                                
  21163841.116     -672645.607         621.222          44.000                  
                                                
  22228530.679    -1861570.385        2280.851          43.000                  
                                                
  23269088.446    -1750379.562        2229.675          43.000                  
                                                
  24743122.883    -1132144.597        1262.351          35.000                  
                                                
 18 10  1  7 22 37.9990000  0  8G16G26G21G27G20G10G 8G 7
  20138888.734      552731.656        -987.136          45.000                  
                                                
  20972922.777     1946548.118       -2772.008          47.000                  
                                                
  22141319.765     2001801.088       -2736.409          46.000                  
                                                
  20763877.344     -949482.105        1109.122          49.000                  
                                                
  21163722.755     -673266.433         620.674          44.000                  
                                                
  22228096.217    -1863850.688        2280.323          43.000                  
                                                
  23268664.379    -1752609.679        2229.626          43.000                  
                                                
  24742882.742    -1133407.004        1262.256          35.000                  
                                                
 18 10  1  7 22 38.9990000  0  8G16G26G21G27G20G10G 8G 7
  20139076.486      553718.644        -986.895          45.000                  
                                                
  20973450.676     1949320.556       -2772.630          47.000                  
                                                
  22141840.837     2004537.191       -2735.778          46.000                  
                                                
  20763666.052     -950590.832        1108.685          49.000                  
                                                
  21163604.949     -673886.269         619.556          44.000                  
                                                
  22227662.413    -1866130.278        2279.482          43.000                  
                                                
  23268240.033    -1754839.339        2229.401          43.000                  
                                                
  24742643.320    -1134668.599        1261.466          35.000                  
                                                
 18 10  1  7 22 39.9990000  0  8G16G26G21G27G20G10G 8G 7
  20139264.577      554706.397        -988.588          45.000                  
                                                
  20973978.340     1952093.665       -2773.542          47.000                  
                                                
  22142361.609     2007273.664       -2736.345          46.000                  
                                                
  20763455.284     -951699.115        1107.665          48.000                  
                                                
  21163487.177     -674505.319         618.157          44.000                  
                                                
  22227228.391    -1868409.318        2277.935          43.000                  
                                                
  23267815.906    -1757068.727        2229.140          43.000                  
                                                
  24742403.764    -1135929.465        1259.934          35.000                  
                                                
 18 10  1  7 22 40.9990000  0  8G16G26G21G27G20G10G 8G 7
  20139452.455      555694.648        -988.792          45.000                  
                                                
  20974506.122     1954867.133       -2773.797          47.000                  
                                                
  22142882.066     2010010.218       -2736.901          46.000                  
                                                
  20763244.136     -952807.230        1107.550          48.000                  
                                                
  21163369.236     -675123.861         618.958          44.000                  
                                                
  22226795.137    -1870688.102        2278.543          43.000                  
                                                
  23267391.154    -1759298.130        2229.434          43.000                  
                                                
  24742163.618    -1137189.993        1260.317          34.000                  
                                                
 18 10  1  7 22 41.9990000  0  8G16G26G21G27G20G10G 8G 7
  20139641.061      556683.439        -989.191          45.000                  
                                                
  20975034.153     1957641.030       -2773.838          47.000                  
                                                
  22143403.125     2012746.914       -2736.318          46.000                  
                                                
  20763033.713     -953915.140        1107.929          48.000                  
                                                
  21163251.386     -675741.875         618.010          44.000                  
                                                
  22226361.163    -1872966.595        2277.933          43.000                  
                                                
  23266966.826    -1761527.518        2229.421          43.000                  
                                                
  24741923.446    -1138449.5283       1260.555          34.000                  
                                                
 18 10  1  7 22 42.9990000  0  8G16G26G21G27G20G10G 8G 7
  20139829.209      557672.999        -990.249          45.000                  
                                                
  20975561.913     1960415.580       -2774.448          47.000                  
                                                
  22143924.140     2015483.954       -2737.436          46.000                  
                                                
  20762822.417     -955022.597        1107.621          48.000                  
                                                
  21163133.741     -676359.092         616.737          44.000                  
                                                
  22225927.713    -1875244.543        2277.581          43.000                  
                                                
  23266543.152    -1763756.643        2228.833          43.000                  
                                                
  24741683.654    -1139708.8852       1258.954          34.000                  
                                                
 18 10  1  7 22 43.9990000  0  8G16G26G21G27G20G10G 8G 7
  20140017.567      558663.248        -990.549          45.000                  
                                                
  20976089.948     1963190.687       -2775.629          47.000                  
                                                
  22144444.358     2018221.278       -2737.778          46.000                  
                                                
  20762611.871     -956129.717        1106.520          48.000                  
                                                
  21163016.414     -676975.634         615.986          44.000                  
                                                
  22225494.586    -1877522.089        2277.266          43.000                  
                                                
  23266118.972    -1765985.578        2228.876          43.000                  
                                                
  24741444.490    -1140967.6522       1258.634          34.000                  
                                                
 18 10  1  7 22 44.9990000  0  8G16G26G21G27G20G10G 8G 7
  20140205.397      559653.957        -990.618          45.000                  
                                                
  20976618.532     1965966.144       -2775.579          47.000                  
                                                
  22144965.159     2020958.669       -2737.345          46.000                  
                                                
  20762401.321     -957236.702        1107.067          48.000                  
                                                
  21162899.026     -677591.696         615.501          44.000                  
                                                
  22225060.948    -1879799.374        2276.863          44.000                  
                                                
  23265694.732    -1768214.562        2229.293          43.000                  
                                                
  24741204.990    -1142226.0442       1257.794          35.000                  
                                                
 18 10  1  7 22 45.9990000  0  8G16G26G21G27G20G10G 8G 7
  20140394.152      560645.146        -991.678          45.000                  
                                                
  20977146.728     1968741.962       -2775.875          47.000                  
                                                
  22145486.332     2023696.135       -2737.540          46.000                  
                                                
  20762190.623     -958343.535        1106.936          48.000                  
                                                
  21162781.857     -678207.252         615.739          44.000                  
                                                
  22224627.776    -1882076.427        2277.130          44.000                  
                                                
  23265270.569    -1770443.583        2229.272          43.000                  
                                                
  24740965.259    -1143484.0502       1257.836          34.000                  
                                                
 18 10  1  7 22 46.9990000  0  8G16G26G21G27G20G10G 8G 7
  20140583.286      561636.979        -991.963          45.000                  
                                                
  20977675.047     1971518.300       -2776.526          48.000                  
                                                
  22146007.552     2026433.829       -2737.832          46.000                  
                                                
  20761979.916     -959450.067        1106.268          48.000                  
                                                
  21162664.888     -678822.172         614.739          44.000                  
                                                
  22224194.928    -1884353.106        2276.105          44.000                  
                                                
  23264846.494    -1772672.495        2229.474          43.000                  
                                                
  24740725.594    -1144741.5772       1258.641          34.000                  
                                                
 18 10  1  7 22 47.9990000  0  8G16G26G21G27G20G10G 8G 7
  20140771.923      562629.552        -992.832          45.000                  
                                                
  20978203.671     1974295.238       -2776.870          47.000                  
                                                
  22146528.629     2029171.839       -2738.093          46.000                  
                                                
  20761769.165     -960556.189        1105.842          48.000                  
                                                
  21162547.841     -679436.348         613.726          44.000                  
                                                
  22223762.154    -1886629.265        2276.386          44.000                  
                                                
  23264421.695    -1774901.181        2228.543          43.000                  
                                                
  24740486.395    -1145998.3972       1254.884          34.000                  
                                                
 18 10  1  7 22 48.9990000  0  8G16G26G21G27G20G10G 8G 7
  20140960.686      563622.568        -993.560          45.000                  
                                                
  20978731.710     1977072.535       -2777.327          47.000                  
                                                
  22147049.679     2031909.902       -2738.131          46.000                  
                                                
  20761558.646     -961662.188        1106.008          48.000                  
                                                
  21162431.103     -680050.055         613.291          44.000                  
                                                
  22223329.131    -1888905.218        2275.785          44.000                  
                                                
  23263998.169    -1777129.940        2228.992          43.000                  
                                                
  24740248.038    -1147255.310        1257.497          34.000                  
                                                
 18 10  1  7 22 49.9990000  0  8G16G26G21G27G20G10G 8G 7
  20141149.877      564615.769        -993.177          45.000                  
                                                
  20979260.382     1979849.870       -2777.254          47.000                  
                                                
  22147570.944     2034647.731       -2737.330          46.000                  
                                                
  20761347.961     -962768.346        1106.093          48.000                  
                                                
  21162314.008     -680663.589         613.814          44.000                  
                                                
  22222896.274    -1891181.237        2276.084          44.000                  
                                                
  23263573.658    -1779359.029        2229.423          43.000                  
                                                
  24740008.848    -1148511.1543       1256.950          34.000                  
                                                
 18 10  1  7 22 50.9990000  0  8G16G26G21G27G20G10G 8G 7
  20141338.963      565609.305        -993.852          45.000                  
                                                
  20979788.801     1982627.435       -2777.672          47.000                  
                                                
  22148092.103     2037385.503       -2738.044          46.000                  
                                                
  20761137.581     -963874.479        1106.447          48.000                  
                                                
  21162197.109     -681276.765         613.240          44.000                  
                                                
  22222462.711    -1893457.167        2275.996          44.000                  
                                                
  23263149.731    -1781588.288        2229.759          43.000                  
                                                
  24739769.575    -1149767.2982       1258.141          34.000                  
                                                
 18 10  1  7 22 51.9990000  0  8G16G26G21G27G20G10G 8G 7
  20141528.167      566603.613        -994.604          45.000                  
                                                
  20980317.324     1985405.632       -2777.975          47.000                  
                                                
  22148612.708     2040123.621       -2737.365          46.000                  
                                                
  20760927.315     -964980.201        1105.678          48.000                  
                                                
  21162081.008     -681889.166         612.170          44.000                  
                                                
  22222030.259    -1895732.578        2275.092          44.000                  
                                                
  23262725.119    -1783817.300        2229.143          43.000                  
                                                
  24739530.070    -1151022.7712       1253.863          34.000                  
                                                
 18 10  1  7 22 52.9990000  0  8G16G26G21G27G20G10G 8G 7
  20141717.445      567598.373        -994.518          45.000                  
                                                
  20980846.061     1988184.173       -2778.401          47.000                  
                                                
  22149134.112     2042861.784       -2738.052          46.000                  
                                                
  20760716.909     -966085.793        1105.991          48.000                  
                                                
  21161964.131     -682501.117         612.289          44.000                  
                                                
  22221596.979    -1898007.757        2275.815          44.000                  
                                                
  23262301.375    -1786046.374        2229.456          43.000                  
                                                
  24739290.758    -1152277.8312       1254.730          34.000                  
                                                
 18 10  1  7 22 53.9990000  0  8G16G26G21G27G20G10G 8G 7
  20141907.046      568593.320        -995.141          45.000                  
                                                
  20981375.213     1990962.757       -2779.162          47.000                  
                                                
  22149655.280     2045599.725       -2738.056          46.000                  
                                                
  20760506.394     -967191.544        1105.672          48.000                  
                                                
  21161847.175     -683112.870         611.791          44.000                  
                                                
  22221164.039    -1900282.994        2275.418          44.000                  
                                                
  23261877.287    -1788275.767        2229.322          43.000                  
                                                
  24739051.839    -1153532.7902       1256.364          34.000                  
                                                
 18 10  1  7 22 54.9990000  0  8G16G26G21G27G20G10G 8G 7
  20142096.049      569588.792        -996.412          45.000                  
                                                
  20981903.671     1993741.784       -2779.420          47.000                  
                                                
  22150176.117     2048337.798       -2737.947          46.000                  
                                                
  20760295.333     -968297.089        1105.441          48.000                  
                                                
  21161731.210     -683724.070         610.676          44.000                  
                                                
  22220731.029    -1902557.968        2274.386          44.000                  
                                                
  23261453.356    -1790505.140        2229.287          43.000                  
                                                
  24738813.141    -1154787.3782       1253.185          34.000                  
                                                
 18 10  1  7 22 55.9990000  0  8G16G26G21G27G20G10G 8G 7
  20142285.956      570585.156        -996.723          45.000                  
                                                
  20982432.321     1996521.537       -2780.327          47.000                  
                                                
  22150697.962     2051076.337       -2738.559          46.000                  
                                                
  20760085.211     -969402.091        1104.747          48.000                  
                                                
  21161615.297     -684334.393         610.006          44.000                  
                                                
  22220298.587    -1904832.284        2273.732          44.000                  
                                                
  23261028.949    -1792734.156        2228.673          43.000                  
                                                
  24738574.789    -1156041.1683       1255.066          33.000                  
                                                
 18 10  1  7 22 56.9990000  0  8G16G26G21G27G20G10G 8G 7
  20142475.709      571582.181        -997.105          45.000                  
                                                
  20982961.394     1999301.862       -2779.981          47.000                  
                                                
  22151219.064     2053815.134       -2738.925          46.000                  
                                                
  20759875.101     -970506.745        1104.764          48.000                  
                                                
  21161499.170     -684944.037         609.933          44.000                  
                                                
  22219865.712    -1907106.181        2273.648          44.000                  
                                                
  23260604.621    -1794963.024        2228.452          43.000                  
                                                
  24738336.188    -1157294.3493       1254.341          33.000                  
                                                
 18 10  1  7 22 57.9990000  0  8G16G26G21G27G20G10G 8G 7
  20142665.132      572579.479        -997.449          45.000                  
                                                
  20983490.249     2002082.334       -2780.175          48.000                  
                                                
  22151740.224     2056553.808       -2738.409          46.000                  
                                                
  20759665.262     -971611.465        1105.174          48.000                  
                                                
  21161383.252     -685553.396         609.489          44.000                  
                                                
  22219432.995    -1909380.012        2274.065          44.000                  
                                                
  23260180.201    -1797192.112        2229.245          43.000                  
                                                
  24738098.058    -1158547.3933       1254.757          33.000                  
                                                
 18 10  1  7 22 58.9990000  0  8G16G26G21G27G20G10G 8G 7
  20142855.060      573577.001        -998.485          45.000                  
                                                
  20984020.020     2004862.911       -2781.262          48.000                  
                                                
  22152261.680     2059292.290       -2738.979          46.000                  
                                                
  20759455.048     -972716.295        1104.416          48.000                  
                                                
  21161267.174     -686162.536         608.486          44.000                  
                                                
  22218999.915    -1911653.909        2273.643          44.000                  
                                                
  23259756.392    -1799421.487        2229.105          43.000                  
                                                
  24737859.771    -1159800.2452       1251.863          33.000                  
                                                
 18 10  1  7 22 59.9990000  0  8G16G26G21G27G20G10G 8G 7
  20143044.914      574575.295        -998.062          45.000                  
                                                
  20984549.386     2007644.108       -2781.330          47.000                  
                                                
  22152782.538     2062031.114       -2738.880          46.000                  
                                                
  20759244.734     -973820.686        1104.232          48.000                  
                                                
  21161151.767     -686770.908         607.378          44.000                  
                                                
  22218567.756    -1913927.257        2273.581          44.000                  
                                                
  23259332.129    -1801650.641        2229.274          43.000                  
                                                
  24737621.270    -1161052.4332       1251.562          33.000                  
                                                
 18 10  1  7 23  0.9990000  0  8G16G26G21G27G20G10G 8G 7
  20143234.973      575574.038        -999.016          45.000                  
                                                
  20985078.747     2010425.682       -2781.711          48.000                  
                                                
  22153303.458     2064770.018       -2738.915          46.000                  
                                                
  20759035.035     -974924.935        1104.138          48.000                  
                                                
  21161035.849     -687378.774         607.515          44.000                  
                                                
  22218135.126    -1916200.369        2273.709          44.000                  
                                                
  23258908.019    -1803879.824        2228.852          43.000                  
                                                
  24737382.991    -1162304.1693       1251.135          33.000                  
                                                
 18 10  1  7 23  1.9990000  0  8G16G26G21G27G20G10G 8G 7
  20143424.788      576573.166        -999.233          45.000                  
                                                
  20985608.112     2013207.491       -2781.785          48.000                  
                                                
  22153824.709     2067508.877       -2738.509          46.000                  
                                                
  20758825.113     -976029.154        1104.510          48.000                  
                                                
  21160920.782     -687986.263         606.971          44.000                  
                                                
  22217702.636    -1918473.372        2272.401          44.000                  
                                                
  23258483.573    -1806109.137        2229.608          43.000                  
                                                
  24737144.726    -1163555.8402       1250.090          32.000                  
                                                
 18 10  1  7 23  2.9990000  0  8G16G26G21G27G20G10G 8G 7
  20143615.060      577572.829        -999.879          45.000                  
                                                
  20986137.185     2015989.727       -2782.437          48.000                  
                                                
  22154346.178     2070247.875       -2739.146          46.000                  
                                                
  20758614.375     -977133.164        1103.768          48.000                  
                                                
  21160805.738     -688593.205         606.566          44.000                  
                                                
  22217270.472    -1920746.067        2272.701          44.000                  
                                                
  23258059.555    -1808338.448        2229.367          43.000                  
                                                
  24736906.360    -1164806.9563       1250.469          32.000                  
                                                
 18 10  1  7 23  3.9990000  0  8G16G26G21G27G20G10G 8G 7
  20143805.477      578573.194       -1000.739          45.000                  
                                                
  20986667.022     2018772.529       -2782.772          47.000                  
                                                
  22154867.307     2072987.151       -2739.454          46.000                  
                                                
  20758404.266     -978236.811        1103.781          48.000                  
                                                
  21160690.204     -689199.454         606.333          44.000                  
                                                
  22216837.877    -1923018.313        2271.949          44.000                  
                                                
  23257635.074    -1810567.593        2229.168          43.000                  
                                                
  24736668.230    -1166057.4723       1249.084          32.000                  
                                                
 18 10  1  7 23  4.9990000  0  8G16G26G21G27G20G10G 8G 7
  20143996.047      579574.139       -1001.097          45.000                  
                                                
  20987196.483     2021555.815       -2782.933          48.000                  
                                                
  22155388.772     2075726.623       -2739.213          46.000                  
                                                
  20758194.288     -979340.196        1103.260          48.000                  
                                                
  21160574.871     -689805.095         605.527          44.000                  
                                                
  22216405.273    -1925290.205        2271.883          44.000                  
                                                
  23257210.322    -1812796.633        2229.062          43.000                  
                                                
  24736430.606    -1167307.4732       1250.074          32.000                  
                                                
 18 10  1  7 23  5.9990000  0  8G16G26G21G27G20G10G 8G 7
  20144186.943      580575.361       -1001.477          45.000                  
                                                
  20987726.276     2024339.229       -2783.696          48.000                  
                                                
  22155910.058     2078465.938       -2739.371          46.000                  
                                                
  20757984.427     -980443.648        1103.124          48.000                  
                                                
  21160459.817     -690410.447         605.137          44.000                  
                                                
  22215973.175    -1927562.037        2271.632          44.000                  
                                                
  23256785.963    -1815025.927        2229.365          43.000                  
                                                
  24736192.564    -1168557.2663       1249.263          32.000                  
                                                
 18 10  1  7 23  6.9990000  0  8G16G26G21G27G20G10G 8G 7
  20144377.072      581577.012       -1001.517          45.000                  
                                                
  20988255.742     2027122.968       -2783.325          48.000                  
                                                
  22156431.405     2081205.283       -2739.319          46.000                  
                                                
  20757774.592     -981546.994        1103.577          48.000                  
                                                
  21160344.572     -691015.363         604.740          44.000                  
                                                
  22215540.994    -1929833.725        2271.360          44.000                  
                                                
  23256362.189    -1817255.296        2229.392          43.000                  
                                                
  24735954.211    -1169806.7903       1246.308          32.000                  
                                                
 18 10  1  7 23  7.9990000  0  8G16G26G21G27G20G10G 8G 7
  20144568.100      582579.155       -1002.636          45.000                  
                                                
  20988785.526     2029907.078       -2784.814          47.000                  
                                                
  22156953.044     2083944.734       -2739.615          46.000                  
                                                
  20757564.867     -982650.166        1102.824          48.000                  
                                                
  21160229.767     -691619.768         603.889          44.000                  
                                                
  22215108.447    -1932105.120        2271.445          44.000                  
                                                
  23255938.140    -1819484.665        2229.245          43.000                  
                                                
  24735716.260    -1171055.7982       1249.576          32.000                  
                                                
 18 10  1  7 23  8.9990000  0  8G16G26G21G27G20G10G 8G 7
  20144759.049      583581.942       -1003.167          45.000                  
                                                
  20989315.328     2032691.704       -2784.606          47.000                  
                                                
  22157473.877     2086684.387       -2740.029          46.000                  
                                                
  20757355.015     -983753.045        1102.838          48.000                  
                                                
  21160115.259     -692223.536         603.655          44.000                  
                                                
  22214676.149    -1934376.132        2270.409          44.000                  
                                                
  23255514.131    -1821713.943        2228.862          43.000                  
                                                
  24735478.963    -1172304.3302       1248.332          32.000                  
                                                
 18 10  1  7 23  9.9990000  0  8G16G26G21G27G20G10G 8G 7
  20144949.788      584585.142       -1003.500          45.000                  
                                                
  20989845.252     2035476.611       -2784.825          47.000                  
                                                
  22157995.311     2089424.054       -2739.724          46.000                  
                                                
  20757144.893     -984855.848        1102.822          48.000                  
                                                
  21160000.449     -692826.883         603.217          44.000                  
                                                
  22214244.038    -1936646.984        2270.740          44.000                  
                                                
  23255089.615    -1823943.303        2229.986          43.000                  
                                                
  24735241.082    -1173552.5963       1248.744          32.000                  
                                                
 18 10  1  7 23 10.9990000  0  8G16G26G21G27G20G10G 8G 7
  20145140.397      585588.700       -1003.975          45.000                  
                                                
  20990375.643     2038261.779       -2785.205          47.000                  
                                                
  22158517.077     2092163.683       -2739.524          46.000                  
                                                
  20756935.272     -985958.614        1102.360          48.000                  
                                                
  21159886.146     -693429.848         602.896          45.000                  
                                                
  22213811.887    -1938917.710        2270.139          44.000                  
                                                
  23254665.845    -1826172.811        2229.724          43.000                  
                                                
  24735002.908    -1174800.5172       1244.791          32.000                  
                                                
 18 10  1  7 23 11.9990000  0  8G16G26G21G27G20G10G 8G 7
  20145331.673      586592.860       -1004.092          45.000                  
                                                
  20990905.148     2041047.396       -2786.029          47.000                  
                                                
  22159038.612     2094903.487       -2739.585          46.000                  
                                                
  20756725.455     -987061.117        1102.446          48.000                  
                                                
  21159771.415     -694032.235         602.168          45.000                  
                                                
  22213379.480    -1941188.079        2270.265          44.000                  
                                                
  23254241.329    -1828402.256        2229.383          43.000                  
                                                
  24734764.926    -1176047.9043       1251.529          32.000                  
                                                
 18 10  1  7 23 12.9990000  0  8G16G26G21G27G20G10G 8G 7
  20145522.583      587597.611       -1004.437          45.000                  
                                                
  20991435.207     2043833.504       -2786.184          48.000                  
                                                
  22159559.932     2097643.476       -2740.110          46.000                  
                                                
  20756515.921     -988163.353        1102.675          48.000                  
                                                
  21159657.164     -694633.984         601.772          45.000                  
                                                
  22212947.268    -1943458.083        2269.490          44.000                  
                                                
  23253816.988    -1830631.621        2229.594          43.000                  
                                                
  24734527.564    -1177294.9083       1247.261          32.000                  
                                                
 18 10  1  7 23 13.9990000  0  8G16G26G21G27G20G10G 8G 7
  20145714.117      588602.748       -1005.261          45.000                  
                                                
  20991965.759     2046619.880       -2786.457          48.000                  
                                                
  22160081.092     2100383.453       -2740.404          46.000                  
                                                
  20756306.104     -989265.526        1102.329          48.000                  
                                                
  21159542.359     -695235.355         600.886          45.000                  
                                                
  22212515.471    -1945727.937        2270.018          44.000                  
                                                
  23253392.773    -1832861.114        2229.104          44.000                  
                                                
  24734290.198    -1178541.5202       1247.635          32.000                  
                                                
 18 10  1  7 23 14.9990000  0  8G16G26G21G27G20G10G 8G 7
  20145905.393      589608.281       -1005.847          45.000                  
                                                
  20992496.477     2049406.507       -2787.190          48.000                  
                                                
  22160602.570     2103123.397       -2740.374          46.000                  
                                                
  20756096.383     -990367.653        1101.806          48.000                  
                                                
  21159428.344     -695836.322         600.501          45.000                  
                                                
  22212083.997    -1947997.648        2269.457          44.000                  
                                                
  23252968.013    -1835090.731        2229.364          43.000                  
                                                
  24734053.538    -1179787.8863       1244.595          32.000                  
                                                
 18 10  1  7 23 15.9990000  0  8G16G26G21G27G20G10G 8G 7
  20146096.647      590614.218       -1006.013          45.000                  
                                                
  20993026.632     2052193.431       -2787.129          47.000                  
                                                
  22161124.048     2105863.344       -2740.268          46.000                  
                                                
  20755887.159     -991469.703        1101.803          48.000                  
                                                
  21159314.350     -696436.873         600.119          45.000                  
                                                
  22211652.283    -1950267.184        2269.568          44.000                  
                                                
  23252543.610    -1837320.454        2229.730          43.000                  
                                                
  24733816.385    -1181033.8992       1244.565          32.000                  
                                                
 18 10  1  7 23 16.9990000  0  8G16G26G21G27G20G10G 8G 7
  20146288.342      591620.710       -1007.161          45.000                  
                                                
  20993557.131     2054980.788       -2788.000          48.000                  
                                                
  22161645.155     2108603.455       -2740.186          46.000                  
                                                
  20755677.190     -992571.524        1101.560          48.000                  
                                                
  21159200.601     -697036.844         599.504          45.000                  
                                                
  22211220.469    -1952536.396        2268.799          44.000                  
                                                
  23252119.492    -1839550.122        2229.206          43.000                  
                                                
  24733579.533    -1182279.3962       1243.033          32.000                  
                                                
 18 10  1  7 23 17.9990000  0  8G16G26G21G27G20G10G 8G 7
  20146480.046      592627.693       -1007.285          45.000                  
                                                
  20994087.361     2057768.528       -2787.823          47.000                  
                                                
  22162166.210     2111343.639       -2740.497          46.000                  
                                                
  20755467.678     -993673.193        1101.591          48.000                  
                                                
  21159085.848     -697636.336         598.769          45.000                  
                                                
  22210788.493    -1954805.361        2268.931          44.000                  
                                                
  23251695.273    -1841779.811        2229.682          43.000                  
                                                
  24733342.411    -1183524.5763       1245.064          31.000                  
                                                
 18 10  1  7 23 18.9990000  0  8G16G26G21G27G20G10G 8G 7
  20146671.920      593635.041       -1007.211          45.000                  
                                                
  20994617.782     2060556.486       -2788.014          47.000                  
                                                
  22162687.775     2114083.755       -2740.145          46.000                  
                                                
  20755257.948     -994774.832        1101.481          48.000                  
                                                
  21158972.021     -698235.452         599.038          45.000                  
                                                
  22210356.365    -1957074.235        2268.932          44.000                  
                                                
  23251270.949    -1844009.662        2230.070          43.000                  
                                                
  24733105.149    -1184769.4463       1242.939          31.000                  
                                                
 18 10  1  7 23 19.9990000  0  8G16G26G21G27G20G10G 8G 7
  20146863.719      594642.954       -1008.460          45.000                  
                                                
  20995148.958     2063344.897       -2788.837          47.000                  
                                                
  22163209.406     2116824.052       -2739.846          46.000                  
                                                
  20755048.733     -995876.214        1101.270          48.000                  
                                                
  21158857.783     -698833.982         598.263          45.000                  
                                                
  22209924.459    -1959342.738        2268.482          44.000                  
                                                
  23250846.834    -1846239.446        2230.127          43.000                  
                                                
  24732868.489    -1186013.8482       1244.998          32.000                  
                                                
 18 10  1  7 23 20.9990000  0  8G16G26G21G27G20G10G 8G 7
  20147055.650      595651.515       -1009.431          45.000                  
                                                
  20995679.488     2066133.838       -2789.525          47.000                  
                                                
  22163730.940     2119564.580       -2740.790          46.000                  
                                                
  20754839.082     -996977.292        1100.549          48.000                  
                                                
  21158744.186     -699431.854         597.071          44.000                  
                                                
  22209493.438    -1961610.857        2267.739          44.000                  
                                                
  23250422.646    -1848469.097        2229.387          43.000                  
                                                
  24732631.725    -1187257.6853       1241.056          32.000                  
                                                
 18 10  1  7 23 21.9990000  0  8G16G26G21G27G20G10G 8G 7
  20147247.851      596660.743       -1009.336          45.000                  
                                                
  20996210.075     2068923.313       -2789.818          47.000                  
                                                
  22164252.776     2122305.356       -2740.584          46.000                  
                                                
  20754629.627     -998078.022        1101.043          48.000                  
                                                
  21158630.420     -700029.049         597.268          45.000                  
                                                
  22209061.750    -1963878.533        2267.926          44.000                  
                                                
  23249998.309    -1850698.599        2229.683          43.000                  
                                                
  24732395.305    -1188500.9573       1242.776          32.000                  
                                                
 18 10  1  7 23 22.9990000  0  8G16G26G21G27G20G10G 8G 7
  20147439.790      597670.272       -1009.810          45.000                  
                                                
  20996740.932     2071712.968       -2790.281          47.000                  
                                                
  22164774.276     2125046.020       -2741.162          46.000                  
                                                
  20754420.076     -999178.817        1100.449          48.000                  
                                                
  21158516.945     -700625.944         596.666          45.000                  
                                                
  22208630.289    -1966146.160        2267.722          44.000                  
                                                
  23249573.898    -1852928.321        2229.617          43.000                  
                                                
  24732159.391    -1189744.0393       1241.330          32.000                  
                                                
 18 10  1  7 23 23.9990000  0  8G16G26G21G27G20G10G 8G 7
  20147631.878      598680.277       -1010.127          45.000                  
                                                
  20997271.633     2074502.973       -2789.986          47.000                  
                                                
  22165295.710     2127786.763       -2740.451          46.000                  
                                                
  20754211.070    -1000279.442        1100.403          48.000                  
                                                
  21158402.978     -701222.351         596.512          44.000                  
                                                
  22208198.811    -1968413.554        2267.328          44.000                  
                                                
  23249149.390    -1855158.059        2230.303          43.000                  
                                                
  24731923.115    -1190986.7102       1242.693          32.000                  
                                                
 18 10  1  7 23 24.9990000  0  8G16G26G21G27G20G10G 8G 7
  20147824.367      599690.769       -1010.590          45.000                  
                                                
  20997803.101     2077293.344       -2790.655          47.000                  
                                                
  22165817.266     2130527.570       -2740.579          46.000                  
                                                
  20754001.707    -1001379.913        1100.542          48.000                  
                                                
  21158289.634     -701818.273         595.446          45.000                  
                                                
  22207767.712    -1970680.688        2267.419          44.000                  
                                                
  23248725.132    -1857387.871        2230.303          43.000                  
                                                
  24731686.215    -1192228.9763       1241.805          32.000                  
                                                
 18 10  1  7 23 25.9990000  0  8G16G26G21G27G20G10G 8G 7
  20148016.577      600701.928       -1011.215          45.000                  
                                                
  20998333.858     2080084.267       -2791.359          47.000                  
                                                
  22166338.557     2133268.646       -2741.370          46.000                  
                                                
  20753792.706    -1002480.051        1100.263          48.000                  
                                                
  21158176.622     -702413.504         594.724          45.000                  
                                                
  22207336.138    -1972947.395        2266.943          44.000                  
                                                
  23248301.240    -1859617.487        2229.969          43.000                  
                                                
  24731449.782    -1193470.6752       1242.402          32.000                  
                                                
 18 10  1  7 23 26.9990000  0  8G16G26G21G27G20G10G 8G 7
  20148209.354      601713.484       -1011.954          45.000                  
                                                
  20998864.825     2082875.468       -2791.637          47.000                  
                                                
  22166860.519     2136009.715       -2741.208          46.000                  
                                                
  20753582.727    -1003580.117        1099.787          48.000                  
                                                
  21158063.357     -703008.318         594.867          45.000                  
                                                
  22206905.087    -1975213.946        2266.136          44.000                  
                                                
  23247876.589    -1861847.223        2229.627          43.000                  
                                                
  24731212.922    -1194712.0833       1239.529          32.000                  
                                                
 18 10  1  7 23 27.9990000  0  8G16G26G21G27G20G10G 8G 7
  20148401.790      602725.717       -1012.914          45.000                  
                                                
  20999396.140     2085667.216       -2792.341          47.000                  
                                                
  22167382.054     2138751.047       -2741.145          46.000                  
                                                
  20753373.351    -1004679.850        1099.466          48.000                  
                                                
  21157950.201     -703602.457         593.523          45.000                  
                                                
  22206474.097    -1977480.060        2265.867          44.000                  
                                                
  23247452.252    -1864076.822        2229.029          43.000                  
                                                
  24730976.471    -1195952.9283       1239.490          32.000                  
                                                
 18 10  1  7 23 28.9990000  0  8G16G26G21G27G20G10G 8G 7
  20148594.716      603738.716       -1013.300          45.000                  
                                                
  20999927.914     2088459.610       -2792.676          47.000                  
                                                
  22167903.523     2141492.717       -2741.672          46.000                  
                                                
  20753164.363    -1005779.139        1099.345          48.000                  
                                                
  21157837.377     -704195.809         593.198          45.000                  
                                                
  22206042.579    -1979745.641        2265.097          44.000                  
                                                
  23247028.042    -1866306.167        2229.415          44.000                  
                                                
  24730740.775    -1197193.0183       1241.222          32.000                  
                                                
 18 10  1  7 23 29.9990000  0  8G16G26G21G27G20G10G 8G 7
  20148787.580      604752.379       -1013.817          45.000                  
                                                
  21000459.233     2091252.536       -2793.378          47.000                  
                                                
  22168425.385     2144234.666       -2742.105          46.000                  
                                                
  20752954.842    -1006878.090        1098.508          48.000                  
                                                
  21157724.182     -704788.489         592.242          45.000                  
                                                
  22205611.585    -1982010.768        2265.699          44.000                  
                                                
  23246604.420    -1868535.354        2229.027          44.000                  
                                                
  24730505.555    -1198432.6382       1238.089          32.000                  
                                                
 18 10  1  7 23 30.9990000  0  8G16G26G21G27G20G10G 8G 7
  20148980.618      605766.429       -1014.157          45.000                  
                                                
  21000990.911     2094045.730       -2793.763          47.000                  
                                                
  22168947.539     2146976.596       -2742.162          46.000                  
                                                
  20752746.238    -1007976.993        1098.799          48.000                  
                                                
  21157611.549     -705380.762         592.380          44.000                  
                                                
  22205180.691    -1984275.786        2265.036          44.000                  
                                                
  23246180.271    -1870764.686        2229.618          44.000                  
                                                
  24730268.839    -1199671.8322       1238.756          32.000                  
                                                
 18 10  1  7 23 31.9990000  0  8G16G26G21G27G20G10G 8G 7
  20149173.513      606780.925       -1014.222          45.000                  
                                                
  21001522.004     2096839.264       -2793.157          47.000                  
                                                
  22169469.056     2149718.548       -2741.704          46.000                  
                                                
  20752536.613    -1009075.772        1099.069          48.000                  
                                                
  21157498.694     -705972.583         591.776          44.000                  
                                                
  22204750.268    -1986540.573        2265.026          44.000                  
                                                
  23245756.248    -1872994.055        2230.048          44.000                  
                                                
  24730032.279    -1200910.7932       1238.135          32.000                  
                                                
 18 10  1  7 23 32.9990000  0  8G16G26G21G27G20G10G 8G 7
  20149366.412      607796.096       -1015.942          45.000                  
                                                
  21002053.682     2099633.321       -2794.493          47.000                  
                                                
  22169990.953     2152460.778       -2742.672          46.000                  
                                                
  20752327.782    -1010174.222        1097.990          48.000                  
                                                
  21157386.036     -706563.727         591.031          44.000                  
                                                
  22204318.786    -1988804.925        2264.465          44.000                  
                                                
  23245332.042    -1875223.280        2229.033          44.000                  
                                                
  24729796.527    -1202149.0672       1240.938          32.000                  
                                                
 18 10  1  7 23 33.9990000  0  8G16G26G21G27G20G10G 8G 7
  20149559.717      608811.962       -1016.084          45.000                  
                                                
  21002585.586     2102427.968       -2795.188          47.000                  
                                                
  22170512.915     2155203.288       -2742.304          46.000                  
                                                
  20752118.576    -1011272.309        1097.839          48.000                  
                                                
  21157274.424     -707154.161         589.678          44.000                  
                                                
  22203888.158    -1991068.820        2263.027          44.000                  
                                                
  23244907.727    -1877452.311        2228.758          44.000                  
                                                
  24729561.123    -1203386.7993       1237.616          31.000                  
                                                
 18 10  1  7 23 34.9990000  0  8G16G26G21G27G20G10G 8G 7
  20149753.571      609828.085       -1016.351          45.000                  
                                                
  21003117.560     2105222.746       -2794.901          47.000                  
                                                
  22171034.720     2157945.651       -2741.996          46.000                  
                                                
  20751909.439    -1012370.473        1098.069          48.000                  
                                                
  21157161.875     -707744.331         590.311          44.000                  
                                                
  22203457.386    -1993332.732        2263.713          44.000                  
                                                
  23244483.447    -1879681.618        2229.275          44.000                  
                                                
  24729325.903    -1204624.3233       1236.919          31.000                  
                                                
 18 10  1  7 23 35.9990000  0  8G16G26G21G27G20G10G 8G 7
  20149946.728      610844.637       -1017.019          45.000                  
                                                
  21003649.456     2108017.829       -2795.226          47.000                  
                                                
  22171556.626     2160688.023       -2742.737          46.000                  
                                                
  20751700.447    -1013468.527        1097.678          48.000                  
                                                
  21157049.556     -708334.053         589.729          44.000                  
                                                
  22203026.322    -1995596.400        2264.086          44.000                  
                                                
  23244059.280    -1881910.998        2229.630          44.000                  
                                                
  24729090.905    -1205861.5802       1237.222          32.000                  
                                                
 18 10  1  7 23 36.9990000  0  8G16G26G21G27G20G10G 8G 7
  20150140.386      611861.924       -1017.359          45.000                  
                                                
  21004181.483     2110813.521       -2795.770          47.000                  
                                                
  22172078.343     2163430.699       -2742.948          46.000                  
                                                
  20751491.419    -1014566.185        1097.886          48.000                  
                                                
  21156937.164     -708923.041         588.920          44.000                  
                                                
  22202595.803    -1997859.616        2263.031          44.000                  
                                                
  23243635.135    -1884140.171        2229.120          44.000                  
                                                
  24728855.004    -1207098.0533       1237.918          32.000                  
                                                
 18 10  1  7 23 37.9990000  0  8G16G26G21G27G20G10G 8G 7
  20150334.018      612879.731       -1018.621          45.000                  
                                                
  21004713.352     2113609.609       -2796.589          47.000                  
                                                
  22172600.524     2166173.516       -2743.220          46.000                  
                                                
  20751282.409    -1015663.644        1096.912          48.000                  
                                                
  21156825.151     -709511.487         587.941          44.000                  
                                                
  22202164.892    -2000122.519        2262.578          44.000                  
                                                
  23243211.243    -1886369.321        2228.595          44.000                  
                                                
  24728620.042    -1208334.2083       1236.337          32.000                  
                                                
 18 10  1  7 23 38.9990000  0  8G16G26G21G27G20G10G 8G 7
  20150527.990      613898.176       -1018.918          45.000                  
                                                
  21005245.501     2116406.197       -2796.948          47.000                  
                                                
  22173122.660     2168916.535       -2743.170          46.000                  
                                                
  20751073.338    -1016760.816        1097.063          48.000                  
                                                
  21156713.155     -710099.298         587.591          44.000                  
                                                
  22201734.308    -2002385.050        2262.971          44.000                  
                                                
  23242787.159    -1888598.366        2229.416          44.000                  
                                                
  24728385.301    -1209569.8192       1236.101          32.000                  
                                                
 18 10  1  7 23 39.9990000  0  8G16G26G21G27G20G10G 8G 7
  20150722.102      614917.113       -1019.370          45.000                  
                                                
  21005777.702     2119203.158       -2797.002          47.000                  
                                                
  22173644.461     2171659.638       -2743.357          46.000                  
                                                
  20750864.747    -1017857.812        1096.558          48.000                  
                                                
  21156601.779     -710686.599         586.658          44.000                  
                                                
  22201303.973    -2004647.324        2262.030          44.000                  
                                                
  23242362.626    -1890827.415        2229.273          44.000                  
                                                
  24728150.583    -1210804.9713       1235.665          32.000                  
                                                
 18 10  1  7 23 40.9990000  0  8G16G26G21G27G20G10G 8G 7
  20150915.939      615936.656       -1019.942          45.000                  
                                                
  21006310.025     2122000.624       -2797.723          47.000                  
                                                
  22174166.868     2174402.958       -2743.345          46.000                  
                                                
  20750655.863    -1018954.526        1095.785          48.000                  
                                                
  21156490.395     -711273.275         586.188          44.000                  
                                                
  22200873.925    -2006909.194        2261.113          44.000                  
                                                
  23241938.354    -1893056.379        2228.630          44.000                  
                                                
  24727915.751    -1212039.6852       1236.303          32.000                  
                                                
 18 10  1  7 23 41.9990000  0  8G16G26G21G27G20G10G 8G 7
  20151109.737      616956.861       -1020.418          45.000                  
                                                
  21006842.309     2124798.602       -2798.317          47.000                  
                                                
  22174688.455     2177146.502       -2743.343          46.000                  
                                                
  20750447.861    -1020050.925        1096.464          48.000                  
                                                
  21156378.465     -711859.296         585.819          45.000                  
                                                
  22200443.494    -2009170.662        2261.458          44.000                  
                                                
  23241513.969    -1895285.186        2229.171          44.000                  
                                                
  24727681.015    -1213273.7712       1233.853          33.000                  
                                                
 18 10  1  7 23 42.9990000  0  8G16G26G21G27G20G10G 8G 7
  20151304.224      617977.508       -1020.552          45.000                  
                                                
  21007374.907     2127596.898       -2798.286          47.000                  
                                                
  22175210.400     2179890.078       -2743.737          46.000                  
                                                
  20750239.344    -1021147.210        1096.588          48.000                  
                                                
  21156267.438     -712444.857         585.608          45.000                  
                                                
  22200012.351    -2011431.939        2261.403          44.000                  
                                                
  23241090.186    -1897514.093        2229.053          44.000                  
                                                
  24727446.475    -1214507.4943       1234.785          32.000                  
                                                
 18 10  1  7 23 43.9990000  0  8G16G26G21G27G20G10G 8G 7
  20151498.598      618998.629       -1020.922          45.000                  
                                                
  21007907.619     2130395.566       -2798.523          47.000                  
                                                
  22175732.751     2182633.741       -2743.134          46.000                  
                                                
  20750030.391    -1022243.343        1096.020          48.000                  
                                                
  21156155.952     -713029.916         584.775          45.000                  
                                                
  22199582.578    -2013692.944        2260.527          44.000                  
                                                
  23240665.958    -1899742.999        2229.376          44.000                  
                                                
  24727211.229    -1215740.9053       1230.617          32.000                  
                                                
 18 10  1  7 23 44.9990000  0  8G16G26G21G27G20G10G 8G 7
  20151693.032      620020.375       -1022.467          45.000                  
                                                
  21008440.627     2133194.729       -2799.795          48.000                  
                                                
  22176254.822     2185377.597       -2744.479          46.000                  
                                                
  20749822.171    -1023339.184        1095.100          48.000                  
                                                
  21156044.611     -713614.352         583.346          44.000                  
                                                
  22199152.099    -2015953.574        2259.690          44.000                  
                                                
  23240242.241    -1901971.823        2228.417          44.000                  
                                                
  24726976.907    -1216973.6993       1231.172          32.000                  
                                                
 18 10  1  7 23 45.9990000  0  8G16G26G21G27G20G10G 8G 7
  20151887.851      621042.931       -1022.636          45.000                  
                                                
  21008973.073     2135994.571       -2799.865          47.000                  
                                                
  22176777.146     2188121.859       -2744.268          46.000                  
                                                
  20749613.383    -1024434.554        1095.399          48.000                  
                                                
  21155933.584     -714197.970         583.274          44.000                  
                                                
  22198722.112    -2018213.639        2259.869          44.000                  
                                                
  23239818.214    -1904200.344        2228.628          44.000                  
                                                
  24726742.599    -1218205.8182       1232.297          33.000                  
                                                
 18 10  1  7 23 46.9990000  0  8G16G26G21G27G20G10G 8G 7
  20152082.512      622066.154       -1022.769          45.000                  
                                                
  21009505.736     2138794.965       -2800.519          47.000                  
                                                
  22177299.117     2190866.385       -2744.279          46.000                  
                                                
  20749405.577    -1025529.580        1095.197          48.000                  
                                                
  21155822.985     -714780.908         583.250          44.000                  
                                                
  22198292.484    -2020473.269        2259.506          44.000                  
                                                
  23239394.034    -1906428.693        2228.835          44.000                  
                                                
  24726508.173    -1219437.3652       1234.608          33.000                  
                                                
 18 10  1  7 23 47.9990000  0  8G16G26G21G27G20G10G 8G 7
  20152277.344      623089.902       -1023.855          45.000                  
                                                
  21010038.583     2141595.769       -2800.454          47.000                  
                                                
  22177821.642     2193611.012       -2745.036          46.000                  
                                                
  20749197.086    -1026624.397        1095.103          48.000                  
                                                
  21155712.032     -715363.302         582.407          44.000                  
                                                
  22197862.140    -2022732.578        2260.111          44.000                  
                                                
  23238970.133    -1908657.037        2228.250          44.000                  
                                                
  24726273.707    -1220668.4413       1229.816          33.000                  
                                                
 18 10  1  7 23 48.9990000  0  8G16G26G21G27G20G10G 8G 7
  20152472.359      624114.175       -1024.551          45.000                  
                                                
  21010572.363     2144396.973       -2801.127          47.000                  
                                                
  22178344.363     2196355.767       -2744.467          46.000                  
                                                
  20748989.106    -1027719.018        1094.416          48.000                  
                                                
  21155601.232     -715945.157         582.008          44.000                  
                                                
  22197431.808    -2024991.629        2258.507          44.000                  
                                                
  23238545.556    -1910885.358        2228.264          44.000                  
                                                
  24726040.023    -1221899.0602       1230.193          33.000                  
                                                
 18 10  1  7 23 49.9990000  0  8G16G26G21G27G20G10G 8G 7
  20152667.627      625139.125       -1025.786          45.000                  
                                                
  21011104.739     2147198.726       -2802.078          47.000                  
                                                
  22178866.766     2199100.789       -2745.363          46.000                  
                                                
  20748780.685    -1028813.300        1093.821          48.000                  
                                                
  21155490.693     -716526.330         580.619          45.000                  
                                                
  22197002.066    -2027250.238        2258.210          44.000                  
                                                
  23238121.647    -1913113.524        2227.670          44.000                  
                                                
  24725805.919    -1223129.1213       1229.124          33.000                  
                                                
 18 10  1  7 23 50.9990000  0  8G16G26G21G27G20G10G 8G 7
  20152863.052      626164.713       -1025.571          45.000                  
                                                
  21011638.105     2150000.974       -2802.108          48.000                  
                                                
  22179388.885     2201846.017       -2745.309          47.000                  
                                                
  20748572.552    -1029907.297        1094.061          48.000                  
                                                
  21155380.740     -717106.860         580.417          45.000                  
                                                
  22196572.233    -2029508.451        2257.900          44.000                  
                                                
  23237697.829    -1915341.577        2228.108          44.000                  
                                                
  24725572.601    -1224358.6362       1230.451          33.000                  
                                                
 18 10  1  7 23 51.9990000  0  8G16G26G21G27G20G10G 8G 7
  20153057.871      627190.497       -1025.538          45.000                  
                                                
  21012171.676     2152803.310       -2802.534          47.000                  
                                                
  22179910.957     2204591.022       -2745.023          46.000                  
                                                
  20748364.340    -1031001.422        1093.875          48.000                  
                                                
  21155270.232     -717687.164         580.037          45.000                  
                                                
  22196142.765    -2031766.688        2258.704          44.000                  
                                                
  23237273.815    -1917569.964        2228.683          44.000                  
                                                
  24725338.432    -1225588.0582       1229.047          33.000                  
                                                
 18 10  1  7 23 52.9990000  0  8G16G26G21G27G20G10G 8G 7
  20153252.733      628216.720       -1026.382          45.000                  
                                                
  21012705.343     2155605.955       -2803.071          48.000                  
                                                
  22180433.403     2207336.073       -2745.397          46.000                  
                                                
  20748156.115    -1032095.437        1093.925          48.000                  
                                                
  21155159.776     -718267.031         578.667          45.000                  
                                                
  22195713.311    -2034024.734        2258.040          44.000                  
                                                
  23236850.137    -1919798.408        2228.224          44.000                  
                                                
  24725104.569    -1226817.1102       1228.408          34.000                  
                                                
 18 10  1  7 23 53.9990000  0  8G16G26G21G27G20G10G 8G 7
  20153448.577      629243.796       -1027.407          45.000                  
                                                
  21013238.599     2158409.320       -2803.478          48.000                  
                                                
  22180955.876     2210081.546       -2745.307          46.000                  
                                                
  20747947.956    -1033188.927        1093.469          48.000                  
                                                
  21155050.036     -718846.029         578.967          45.000                  
                                                
  22195283.774    -2036282.159        2257.009          44.000                  
                                                
  23236425.778    -1922026.528        2228.218          44.000                  
                                                
  24724870.081    -1228045.4162       1228.129          33.000                  
                                                
 18 10  1  7 23 54.9990000  0  8G16G26G21G27G20G10G 8G 7
  20153644.407      630271.574       -1027.679          45.000                  
                                                
  21013772.249     2161213.266       -2804.048          48.000                  
                                                
  22181478.248     2212827.317       -2745.569          46.000                  
                                                
  20747739.740    -1034282.037        1093.367          48.000                  
                                                
  21154940.000     -719424.314         578.007          45.000                  
                                                
  22194854.472    -2038539.109        2256.939          44.000                  
                                                
  23236001.720    -1924254.424        2228.227          44.000                  
                                                
  24724636.960    -1229273.0592       1227.939          33.000                  
                                                
 18 10  1  7 23 55.9990000  0  8G16G26G21G27G20G10G 8G 7
  20153839.784      631299.733       -1028.657          45.000                  
                                                
  21014306.021     2164017.484       -2804.565          48.000                  
                                                
  22182000.926     2215573.067       -2745.727          46.000                  
                                                
  20747531.681    -1035375.108        1092.779          48.000                  
                                                
  21154829.662     -720002.211         577.859          45.000                  
                                                
  22194424.643    -2040795.940        2256.559          44.000                  
                                                
  23235577.497    -1926482.458        2228.548          43.000                  
                                                
  24724403.668    -1230500.4972       1228.468          34.000                  
                                                
 18 10  1  7 23 56.9990000  0  8G16G26G21G27G20G10G 8G 7
  20154035.083      632328.521       -1029.398          45.000                  
                                                
  21014839.897     2166822.194       -2804.833          48.000                  
                                                
  22182523.110     2218319.026       -2746.238          46.000                  
                                                
  20747324.381    -1036467.870        1092.657          48.000                  
                                                
  21154719.978     -720579.456         576.883          45.000                  
                                                
  22193995.608    -2043052.357        2256.200          44.000                  
                                                
  23235153.269    -1928710.387        2228.125          44.000                  
                                                
  24724170.533    -1231727.3452       1225.763          34.000                  
                                                
 18 10  1  7 23 57.9990000  0  8G16G26G21G27G20G10G 8G 7
  20154230.678      633358.024       -1029.476          45.000                  
                                                
  21015373.703     2169627.491       -2805.292          48.000                  
                                                
  22183046.054     2221065.290       -2746.477          46.000                  
                                                
  20747116.061    -1037560.254        1092.276          48.000                  
                                                
  21154610.526     -721155.985         576.001          45.000                  
                                                
  22193566.110    -2045308.311        2255.736          44.000                  
                                                
  23234729.721    -1930938.106        2227.900          43.000                  
                                                
  24723936.504    -1232953.5472       1225.638          34.000                  
                                                
 18 10  1  7 23 58.9990000  0  8G16G26G21G27G20G10G 8G 7
  20154427.106      634388.320       -1029.987          45.000                  
                                                
  21015907.654     2172433.471       -2806.041          48.000                  
                                                
  22183568.627     2223811.936       -2746.562          46.000                  
                                                
  20746908.560    -1038652.172        1091.736          48.000                  
                                                
  21154500.812     -721731.708         575.861          45.000                  
                                                
  22193137.153    -2047563.666        2255.876          44.000                  
                                                
  23234305.904    -1933165.544        2227.980          44.000                  
                                                
  24723703.482    -1234179.0692       1226.333          34.000                  
                                                
 18 10  1  7 23 59.9990000  0  8G16G26G21G27G20G10G 8G 7
  20154623.452      635418.957       -1030.251          45.000                  
                                                
  21016441.692     2175239.641       -2806.080          48.000                  
                                                
  22184090.733     2226558.501       -2746.482          46.000                  
                                                
  20746700.737    -1039744.088        1092.197          48.000                  
                                                
  21154391.596     -722307.096         575.115          45.000                  
                                                
  22192708.096    -2049818.960        2255.263          44.000                  
                                                
  23233881.863    -1935393.168        2227.440          44.000                  
                                                
  24723470.740    -1235404.3312       1225.080          34.000                  
                                                
 18 10  1  7 24  0.9990000  0  8G16G26G21G27G20G10G 8G 7
  20154819.697      636449.844       -1030.706          45.000                  
                                                
  21016975.729     2178045.976       -2806.339          48.000                  
                                                
  22184613.415     2229304.930       -2746.602          46.000                  
                                                
  20746492.905    -1040836.068        1091.700          48.000                  
                                                
  21154282.253     -722882.194         575.055          45.000                  
                                                
  22192278.772    -2052074.203        2255.061          44.000                  
                                                
  23233458.028    -1937621.025        2227.720          43.000                  
                                                
  24723237.819    -1236629.938        1224.897          35.000                  
                                                
 18 10  1  7 24  1.9990000  0  8G16G26G21G27G20G10G 8G 7
  20155015.959      637481.341       -1032.036          45.000                  
                                                
  21017509.793     2180852.775       -2806.959          48.000                  
                                                
  22185135.757     2232051.550       -2746.923          46.000                  
                                                
  20746284.963    -1041927.775        1091.613          48.000                  
                                                
  21154172.831     -723456.676         573.946          45.000                  
                                                
  22191849.314    -2054329.089        2254.611          44.000                  
                                                
  23233033.975    -1939848.792        2227.374          43.000                  
                                                
  24723005.225    -1237854.522        1223.661          34.000                  
                                                
 18 10  1  7 24  2.9990000  0  8G16G26G21G27G20G10G 8G 7
  20155212.021      638513.748       -1032.718          45.000                  
                                                
  21018044.154     2183660.354       -2807.810          48.000                  
                                                
  22185658.570     2234798.646       -2747.325          46.000                  
                                                
  20746077.389    -1043018.915        1091.083          48.000                  
                                                
  21154063.152     -724030.246         572.823          45.000                  
                                                
  22191420.034    -2056583.313        2253.534          44.000                  
                                                
  23232610.022    -1942076.168        2227.448          43.000                  
                                                
  24722772.085    -1239078.237        1223.932          35.000                  
                                                
 18 10  1  7 24  3.9990000  0  8G16G26G21G27G20G10G 8G 7
  20155408.672      639546.636       -1032.566          45.000                  
                                                
  21018578.117     2186468.284       -2807.942          48.000                  
                                                
  22186181.282     2237545.818       -2746.885          46.000                  
                                                
  20745869.906    -1044109.898        1091.138          48.000                  
                                                
  21153954.407     -724603.316         572.865          45.000                  
                                                
  22190991.003    -2058837.270        2254.384          44.000                  
                                                
  23232186.025    -1944303.602        2227.600          43.000                  
                                                
  24722539.374    -1240301.671        1223.365          35.000                  
                                                
 18 10  1  7 24  4.9990000  0  8G16G26G21G27G20G10G 8G 7
  20155605.070      640580.117       -1033.782          45.000                  
                                                
  21019112.543     2189276.703       -2808.157          48.000                  
                                                
  22186703.511     2240293.187       -2747.450          46.000                  
                                                
  20745662.366    -1045200.604        1090.776          48.000                  
                                                
  21153845.439     -725175.777         572.080          45.000                  
                                                
  22190562.722    -2061090.864        2253.363          44.000                  
                                                
  23231762.050    -1946530.939        2227.167          43.000                  
                                                
  24722307.343    -1241524.527        1223.638          35.000                  
                                                
 18 10  1  7 24  5.9990000  0  8G16G26G21G27G20G10G 8G 7
  20155801.926      641614.208       -1034.647          45.000                  
                                                
  21019647.257     2192085.607       -2809.326          48.000                  
                                                
  22187227.052     2243040.748       -2747.905          46.000                  
                                                
  20745455.009    -1046291.034        1090.241          48.000                  
                                                
  21153736.593     -725747.610         571.178          45.000                  
                                                
  22190133.626    -2063344.073        2252.795          44.000                  
                                                
  23231337.613    -1948758.167        2227.312          43.000                  
                                                
  24722074.622    -1242746.890        1222.301          35.000                  
                                                
 18 10  1  7 24  6.9990000  0  8G16G26G21G27G20G10G 8G 7
  20155998.804      642648.918       -1034.387          44.000                  
                                                
  21020181.884     2194894.975       -2809.751          48.000                  
                                                
  22187749.154     2245788.495       -2747.769          46.000                  
                                                
  20745247.404    -1047381.182        1089.858          48.000                  
                                                
  21153627.669     -726318.846         571.017          45.000                  
                                                
  22189704.974    -2065596.926        2252.858          44.000                  
                                                
  23230913.939    -1950985.309        2227.024          43.000                  
                                                
  24721842.155    -1243968.696        1221.620          35.000                  
                                                
 18 10  1  7 24  7.9990000  0  8G16G26G21G27G20G10G 8G 7
  20156195.555      643684.363       -1035.315          44.000                  
                                                
  21020716.288     2197704.983       -2809.624          48.000                  
                                                
  22188272.010     2248536.576       -2747.342          46.000                  
                                                
  20745039.794    -1048470.925        1090.391          48.000                  
                                                
  21153519.102     -726889.304         570.301          44.000                  
                                                
  22189276.576    -2067849.269        2252.955          44.000                  
                                                
  23230490.326    -1953212.233        2227.215          43.000                  
                                                
  24721610.176    -1245189.835        1221.908          35.000                  
                                                
 18 10  1  7 24  8.9990000  0  8G16G26G21G27G20G10G 8G 7
  20156392.769      644720.113       -1035.940          44.000                  
                                                
  21021251.421     2200515.166       -2810.216          48.000                  
                                                
  22188795.133     2251284.576       -2748.360          46.000                  
                                                
  20744832.704    -1049560.692        1089.693          48.000                  
                                                
  21153410.885     -727459.448         569.816          44.000                  
                                                
  22188847.824    -2070101.534        2251.891          44.000                  
                                                
  23230066.055    -1955439.337        2227.292          43.000                  
                                                
  24721377.407    -1246410.751        1221.078          36.000                  
                                                
 18 10  1  7 24  9.9990000  0  8G16G26G21G27G20G10G 8G 7
  20156590.759      645756.449       -1036.785          45.000                  
                                                
  21021785.847     2203325.794       -2811.031          48.000                  
                                                
  22189318.190     2254032.736       -2747.785          46.000                  
                                                
  20744625.186    -1050650.206        1089.425          48.000                  
                                                
  21153302.013     -728028.996         569.738          44.000                  
                                                
  22188419.347    -2072353.459        2251.605          44.000                  
                                                
  23229642.233    -1957666.398        2226.989          43.000                  
                                                
  24721145.529    -1247631.224        1220.535          36.000                  
                                                
 18 10  1  7 24 10.9990000  0  8G16G26G21G27G20G10G 8G 7
  20156787.946      646793.593       -1037.712          45.000                  
                                                
  21022320.674     2206137.097       -2811.965          48.000                  
                                                
  22189841.300     2256781.270       -2748.621          46.000                  
                                                
  20744418.139    -1051739.253        1088.558          48.000                  
                                                
  21153193.647     -728597.757         568.239          44.000                  
                                                
  22187990.844    -2074604.810        2251.150          44.000                  
                                                
  23229218.947    -1959893.158        2225.885          43.000                  
                                                
  24720913.781    -1248851.020        1217.408          36.000                  
                                                
 18 10  1  7 24 11.9990000  0  8G16G26G21G27G20G10G 8G 7
  20156985.321      647831.153       -1037.217          45.000                  
                                                
  21022855.532     2208948.709       -2811.087          48.000                  
                                                
  22190364.030     2259529.823       -2747.868          46.000                  
                                                
  20744211.040    -1052828.190        1089.448          48.000                  
                                                
  21153084.950     -729166.055         568.730          44.000                  
                                                
  22187563.300    -2076855.978        2252.522          44.000                  
                                                
  23228794.955    -1962119.981        2227.428          43.000                  
                                                
  24720681.580    -1250070.443        1221.111          35.000                  
                                                
 18 10  1  7 24 12.9990000  0  8G16G26G21G27G20G10G 8G 7
  20157182.740      648868.868       -1038.003          45.000                  
                                                
  21023390.704     2211760.340       -2812.201          48.000                  
                                                
  22190886.934     2262278.095       -2748.239          46.000                  
                                                
  20744003.849    -1053917.322        1088.578          48.000                  
                                                
  21152976.907     -729734.205         567.481          44.000                  
                                                
  22187134.431    -2079107.220        2251.068          44.000                  
                                                
  23228370.936    -1964347.204        2226.884          43.000                  
                                                
  24720450.238    -1251289.775        1219.240          36.000                  
                                                
 18 10  1  7 24 13.9990000  0  8G16G26G21G27G20G10G 8G 7
  20157380.346      649907.065       -1038.815          44.000                  
                                                
  21023925.968     2214572.341       -2812.531          48.000                  
                                                
  22191409.852     2265026.503       -2747.752          46.000                  
                                                
  20743796.541    -1055006.287        1088.960          48.000                  
                                                
  21152868.750     -730301.842         567.542          44.000                  
                                                
  22186706.534    -2081358.217        2250.318          44.000                  
                                                
  23227947.345    -1966574.419        2227.459          43.000                  
                                                
  24720218.010    -1252508.715        1218.888          36.000                  
                                                
 18 10  1  7 24 14.9990000  0  8G16G26G21G27G20G10G 8G 7
  20157577.529      650946.062       -1039.480          45.000                  
                                                
  21024460.978     2217384.999       -2813.070          47.000                  
                                                
  22191932.953     2267775.232       -2748.594          46.000                  
                                                
  20743589.049    -1056094.805        1088.366          48.000                  
                                                
  21152760.576     -730868.680         566.588          44.000                  
                                                
  22186278.153    -2083608.643        2250.433          44.000                  
                                                
  23227523.824    -1968801.375        2226.989          43.000                  
                                                
  24719986.154    -1253726.986        1218.056          36.000                  
                                                
 18 10  1  7 24 15.9990000  0  8G16G26G21G27G20G10G 8G 7
  20157775.855      651985.507       -1039.824          45.000                  
                                                
  21024995.928     2220197.983       -2813.087          48.000                  
                                                
  22192455.770     2270524.003       -2748.338          46.000                  
                                                
  20743381.963    -1057183.202        1088.664          48.000                  
                                                
  21152653.114     -731435.053         566.613          44.000                  
                                                
  22185849.737    -2085858.879        2250.499          44.000                  
                                                
  23227100.133    -1971028.403        2226.869          43.000                  
                                                
  24719754.053    -1254944.862        1216.739          36.000                  
                                                
 18 10  1  7 24 16.9990000  0  8G16G26G21G27G20G10G 8G 7
  20157973.409      653025.353       -1040.286          45.000                  
                                                
  21025531.868     2223011.238       -2813.147          47.000                  
                                                
  22192978.740     2273272.777       -2748.325          46.000                  
                                                
  20743174.855    -1058271.520        1088.528          48.000                  
                                                
  21152545.267     -732001.019         565.892          44.000                  
                                                
  22185421.373    -2088108.926        2250.063          44.000                  
                                                
  23226675.840    -1973255.521        2227.574          43.000                  
                                                
  24719523.090    -1256162.437        1217.293          36.000                  
                                                
 18 10  1  7 24 17.9990000  0  8G16G26G21G27G20G10G 8G 7
  20158171.338      654065.619       -1040.581          45.000                  
                                                
  21026066.891     2225824.797       -2814.194          47.000                  
                                                
  22193502.128     2276021.542       -2749.114          46.000                  
                                                
  20742967.581    -1059359.751        1088.040          48.000                  
                                                
  21152437.922     -732566.544         564.998          44.000                  
                                                
  22184993.263    -2090358.762        2249.101          44.000                  
                                                
  23226252.467    -1975482.736        2227.299          43.000                  
                                                
  24719291.286    -1257379.639        1217.280          36.000                  
                                                
 18 10  1  7 24 18.9990000  0  8G16G26G21G27G20G10G 8G 7
  20158369.385      655106.581       -1041.132          45.000                  
                                                
  21026602.277     2228638.920       -2814.381          47.000                  
                                                
  22194025.295     2278770.606       -2749.017          46.000                  
                                                
  20742760.687    -1060447.615        1087.392          48.000                  
                                                
  21152329.813     -733131.371         564.139          44.000                  
                                                
  22184565.427    -2092608.187        2249.272          44.000                  
                                                
  23225828.728    -1977709.810        2226.607          43.000                  
                                                
  24719059.796    -1258596.299        1217.185          36.000                  
                                                
 18 10  1  7 24 19.9990000  0  8G16G26G21G27G20G10G 8G 7
  20158567.912      656148.319       -1041.538          45.000                  
                                                
  21027137.794     2231453.708       -2814.607          47.000                  
                                                
  22194548.343     2281520.022       -2749.094          46.000                  
                                                
  20742553.343    -1061535.041        1087.579          48.000                  
                                                
  21152222.730     -733695.410         563.956          44.000                  
                                                
  22184137.343    -2094857.054        2248.943          44.000                  
                                                
  23225404.622    -1979936.580        2227.249          43.000                  
                                                
  24718828.882    -1259812.259        1215.028          36.000                  
                                                
 18 10  1  7 24 20.9990000  0  8G16G26G21G27G20G10G 8G 7
  20158766.513      657190.431       -1043.108          45.000                  
                                                
  21027673.825     2234268.728       -2815.233          48.000                  
                                                
  22195071.684     2284269.407       -2749.819          46.000                  
                                                
  20742346.964    -1062622.404        1086.963          48.000                  
                                                
  21152115.581     -734259.037         563.266          44.000                  
                                                
  22183709.651    -2097105.764        2248.102          44.000                  
                                                
  23224981.044    -1982163.475        2226.844          43.000                  
                                                
  24718597.671    -1261027.922        1213.288          36.000                  
                                                
 18 10  1  7 24 21.9990000  0  8G16G26G21G27G20G10G 8G 7
  20158964.756      658233.152       -1043.133          45.000                  
                                                
  21028209.407     2237084.227       -2815.431          48.000                  
                                                
  22195594.728     2287018.981       -2749.545          46.000                  
                                                
  20742140.105    -1063709.506        1087.271          48.000                  
                                                
  21152008.136     -734822.084         562.725          44.000                  
                                                
  22183282.051    -2099354.114        2248.342          44.000                  
                                                
  23224557.518    -1984390.307        2226.155          43.000                  
                                                
  24718366.263    -1262243.050        1215.488          36.000                  
                                                
 18 10  1  7 24 22.9990000  0  8G16G26G21G27G20G10G 8G 7
  20159163.148      659276.655       -1044.135          44.000                  
                                                
  21028745.426     2239900.389       -2816.693          48.000                  
                                                
  22196117.781     2289768.927       -2750.473          46.000                  
                                                
  20741932.953    -1064796.149        1085.942          48.000                  
                                                
  21151900.922     -735384.299         561.685          44.000                  
                                                
  22182854.224    -2101601.905        2246.931          44.000                  
                                                
  23224133.343    -1986616.825        2226.247          43.000                  
                                                
  24718135.091    -1263457.481        1214.691          36.000                  
                                                
 18 10  1  7 24 23.9990000  0  8G16G26G21G27G20G10G 8G 7
  20159362.015      660320.808       -1044.732          44.000                  
                                                
  21029281.749     2242717.064       -2816.885          48.000                  
                                                
  22196641.231     2292519.105       -2750.716          45.000                  
                                                
  20741726.447    -1065882.464        1086.175          48.000                  
                                                
  21151794.301     -735945.866         561.490          44.000                  
                                                
  22182426.602    -2103849.278        2247.494          44.000                  
                                                
  23223710.062    -1988843.257        2226.532          43.000                  
                                                
  24717904.160    -1264671.363        1212.567          36.000                  
                                                
 18 10  1  7 24 24.9990000  0  8G16G26G21G27G20G10G 8G 7
  20159560.677      661365.183       -1044.681          44.000                  
                                                
  21029817.567     2245533.838       -2816.938          48.000                  
                                                
  22197164.589     2295269.089       -2749.910          46.000                  
                                                
  20741519.780    -1066968.902        1086.301          48.000                  
                                                
  21151687.706     -736507.211         561.256          44.000                  
                                                
  22181999.255    -2106096.669        2247.113          44.000                  
                                                
  23223286.519    -1991069.961        2226.812          43.000                  
                                                
  24717673.132    -1265885.119        1213.504          36.000                  
                                                
 18 10  1  7 24 25.9990000  0  8G16G26G21G27G20G10G 8G 7
  20159759.273      662410.040       -1045.124          44.000                  
                                                
  21030353.860     2248350.984       -2817.521          48.000                  
                                                
  22197687.777     2298019.164       -2750.348          46.000                  
                                                
  20741313.209    -1068055.168        1086.033          48.000                  
                                                
  21151580.776     -737068.036         560.373          44.000                  
                                                
  22181571.454    -2108343.795        2247.133          44.000                  
                                                
  23222863.373    -1993296.689        2226.274          43.000                  
                                                
  24717442.527    -1267098.426        1212.689          36.000                  
                                                
 18 10  1  7 24 26.9990000  0  8G16G26G21G27G20G10G 8G 7
  20159958.276      663455.499       -1045.906          44.000                  
                                                
  21030889.922     2251168.590       -2818.023          48.000                  
                                                
  22198211.462     2300769.402       -2750.347          46.000                  
                                                
  20741106.747    -1069141.188        1085.612          48.000                  
                                                
  21151474.116     -737628.263         559.645          44.000                  
                                                
  22181143.609    -2110590.581        2245.883          44.000                  
                                                
  23222438.800    -1995523.325        2226.642          43.000                  
                                                
  24717211.412    -1268311.283        1210.720          36.000                  
                                                
 18 10  1  7 24 27.9990000  0  8G16G26G21G27G20G10G 8G 7
  20160157.679      664501.559       -1046.805          45.000                  
                                                
  21031426.329     2253986.672       -2818.697          48.000                  
                                                
  22198734.690     2303519.845       -2751.283          46.000                  
                                                
  20740900.018    -1070226.920        1085.572          48.000                  
                                                
  21151368.276     -738187.864         559.013          44.000                  
                                                
  22180716.145    -2112836.957        2246.350          44.000                  
                                                
  23222015.602    -1997749.867        2226.424          43.000                  
                                                
  24716981.370    -1269523.536        1211.563          36.000                  
                                                
