     2.11           OBSERVATION DATA    M (MIXED)           RINEX VERSION / TYPE
RTKCONV 2.4.2       Liu.TY              20181004 132226 UTC PGM / RUN BY / DATE 
log: C:\Users\time0\Desktop\PVT  Project\DataFile\GYM\COM5  COMMENT             
format: u-blox                                              COMMENT             
Antenna in CA548                                            COMMENT             
LIU                                                         MARKER NAME         
                                                            MARKER NUMBER       
Liu.TY              Liu.TY                                  OBSERVER / AGENCY   
u-blox              AEK-4T                                  REC # / TYPE / VERS 
                                                            ANT # / TYPE        
        0.0000        0.0000        0.0000                  APPROX POSITION XYZ 
        0.0000        0.0000        0.0000                  ANTENNA: DELTA H/E/N
     1     1                                                WAVELENGTH FACT L1/2
     4    C1    L1    D1    S1                              # / TYPES OF OBSERV 
  2018    10     4    12    57   40.0000000     GPS         TIME OF FIRST OBS   
  2018    10     4    13    20   46.0010000     GPS         TIME OF LAST OBS    
                                                            END OF HEADER       
 18 10  4 12 57 40.0000000  0 11G23G31G17G32G18G 1G19G 9G11G14G22
  22188878.175    -1097666.0933       2057.803          26.000  
  24103363.044     -229165.407         380.428          37.000  
  22041679.446     -342720.5683        712.833          20.000  
  25957621.942     1947337.1853      -4136.057          14.000  
  22325474.274     1745477.078       -3602.940          35.000  
  20790364.328      924038.585       -2058.645          33.000  
  23354920.064    -1096214.6143       2180.126          14.000  
  23778451.629    -1564636.103        3130.880          34.000  
  21605855.023     1486074.2583      -3540.969          14.000  
  24009520.520     1718220.0973      -3437.557          25.000  
  20995879.329      215012.5783      -1764.852          26.000  
 18 10  4 12 57 41.0000000  0 10G23G31G17G18G 1G19G 9G11G14G22
  22188489.279    -1099723.2853       2057.087          26.000  
  24103289.963     -229545.221         380.251          37.000  
  22041543.805     -343436.4263        719.016          20.000  
  22326160.347     1749080.720       -3603.003          35.000  
  20790756.486      926098.715       -2059.569          33.000  
  23354506.494    -1098398.0343       2191.211          16.000  
  23777855.460    -1567767.190        3131.214          34.000  
  21606526.367     1489604.7513      -3528.621          16.000  
  24010174.728     1721657.6363      -3436.324          25.000  
  20996213.570      216779.7913      -1767.527          26.000  
 18 10  4 12 57 42.0000000  0 10G23G31G17G18G 1G19G 9G11G14G22
  22188097.662    -1101780.0563       2056.693          26.000  
  24103217.614     -229924.348         378.249          37.000  
  22041406.856     -344150.4833        731.295          18.000  
  22326846.367     1752684.843       -3603.388          34.000  
  20791148.610      928159.368       -2061.006          33.000  
  23354090.394    -1100591.9073       2182.437          16.000  
  23777259.989    -1570898.005        3130.274          34.000  
  21607201.865     1493143.5813      -3529.062          17.000  
  24010830.874     1725097.5253      -3433.228          25.000  
  20996549.557      218547.5183      -1767.814          25.000  
 18 10  4 12 57 43.0000000  0 10G23G31G17G18G 1G19G 9G11G14G22
  22187704.002    -1103837.0893       2056.780          27.000  
  24103145.056     -230303.532         379.876          37.000  
  22041271.564     -344867.4023        713.344          16.000  
  22327531.602     1756288.649       -3603.845          34.000  
  20791541.048      930219.912       -2059.964          33.000  
  23353673.787    -1102775.4303       2175.577          16.000  
  23776664.064    -1574029.269        3131.635          34.000  
  21607879.387     1496678.8893      -3530.125          17.000  
  24011486.775     1728535.9753      -3434.853          26.000  
  20996885.770      220314.8983      -1766.583          25.000  
 18 10  4 12 57 44.0000000  0 10G23G31G17G18G 1G19G 9G11G14G22
  22187313.815    -1105894.1873       2057.453          26.000  
  24103071.887     -230682.587         377.530          37.000  
  22041139.745     -345578.6303        714.434          15.000  
  22328217.343     1759892.348       -3604.234          34.000  
  20791933.137      932280.423       -2061.711          33.000  
  23353257.792    -1104953.3893       2174.286          17.000  
  23776068.715    -1577160.848        3130.222          34.000  
  21608557.608     1500223.6243      -3553.280          16.000  
  24012139.797     1731973.5723      -3439.099          26.000  
  20997218.476      222083.1303      -1768.637          24.000  
 18 10  4 12 57 45.0000000  0 11G23G31G17G18G 1G19G 9G11G 3G14G22
  22186924.257    -1107950.0713       2055.705          26.000  
  24103000.499     -231060.185         378.071          37.000  
  22041005.640     -346292.8713        712.908          17.000  
  22328903.189     1763497.248       -3604.032          33.000  
  20792325.959      934342.202       -2064.208          33.000  
  23352842.441    -1107134.5883       2167.265          17.000  
  23775473.523    -1580291.382        3129.759          33.000  
  21609232.879     1503766.9353      -3541.058          17.000  
  20294566.909       31449.5403       -544.922          29.000  
  24012798.822     1735413.4773      -3440.458          25.000  
  20997553.537      223853.0833      -1765.899          24.000  
 18 10  4 12 57 46.0000000  0 11G23G31G17G18G 1G19G 9G11G 3G14G22
  22186531.522    -1110005.2493       2054.941          27.000  
  24102928.569     -231436.980         376.898          37.000  
  22040874.258     -347003.0253        714.857          18.000  
  22329587.761     1767102.625       -3605.656          34.000  
  20792718.624      936404.777       -2060.987          33.000  
  23352430.913    -1109312.6473       2177.422          18.000  
  23774878.017    -1583421.544        3130.825          33.000  
  21609908.429     1507310.5013      -3541.580          19.000  
  20294669.307       31994.4143       -545.324          29.000  
  24013454.357     1738853.9813      -3440.641          26.000  
  20997892.037      225623.8823      -1765.458          23.000  
 18 10  4 12 57 47.0000000  0 11G23G31G17G18G 1G19G 9G11G 3G14G22
  22186141.422    -1112060.6603       2055.361          26.000  
  24102856.761     -231813.755         376.167          37.000  
  22040741.148     -347709.8623        704.052          17.000  
  22330273.433     1770707.805       -3605.808          33.000  
  20793111.812      938467.167       -2063.188          34.000  
  23352017.203    -1111489.5713       2183.802          18.000  
  23774283.034    -1586552.069        3130.295          33.000  
  21610583.665     1510850.9973      -3541.233          20.000  
  20294771.949       32539.1163       -544.752          28.000  
  24014109.316     1742294.3723      -3439.172          26.000  
  20998225.981      227390.8333      -1769.591          23.000  
 18 10  4 12 57 48.0000000  0 11G23G31G17G18G 1G19G 9G11G 3G14G22
  22185752.003    -1114116.1893       2056.178          26.000  
  24102785.302     -232190.436         376.091          38.000  
  22040607.339     -348422.8233        714.598          16.000  
  22330958.493     1774312.791       -3603.985          33.000  
  20793504.180      940529.494       -2062.765          33.000  
  23351602.237    -1113670.3523       2172.029          17.000  
  23773687.371    -1589682.932        3131.417          33.000  
  21611258.064     1514390.5143      -3544.323          19.000  
  20294874.434       33083.7523       -544.403          28.000  
  24014764.101     1745734.4703      -3440.922          26.000  
  20998564.167      229161.8033      -1769.884          23.000  
 18 10  4 12 57 49.0000000  0 11G23G31G17G18G 1G19G 9G11G 3G14G22
  22185360.420    -1116171.4013       2052.358          26.000  
  24102713.163     -232566.173         375.609          38.000  
  22040474.979     -349120.8273        706.757          16.000  
  22331643.903     1777918.407       -3606.815          33.000  
  20793897.072      942592.713       -2063.199          33.000  
  23351186.939    -1115851.4403       2181.176          17.000  
  23773091.795    -1592813.299        3129.827          33.000  
  21611931.886     1517931.1443      -3545.179          20.000  
  20294977.355       33629.1683       -546.254          28.000  
  24015419.828     1749175.3173      -3442.295          27.000  
  20998895.302      230925.7443      -1776.382          23.000  
 18 10  4 12 57 50.0000000  0 11G23G31G17G18G 1G19G 9G11G 3G14G22
  22184970.827    -1118223.8683       2050.617          26.000  
  24102642.019     -232940.929         374.580          38.000  
  22040340.944     -349828.3743        703.750          16.000  
  22332328.859     1781524.811       -3606.740          33.000  
  20794290.295      944656.710       -2062.782          33.000  
  23350775.533    -1118034.9073       2177.997          17.000  
  23772496.202    -1595943.004        3129.674          33.000  
  21612603.650     1521472.7823      -3532.152          20.000  
  20295081.306       34175.4293       -546.095          28.000  
  24016073.146     1752616.9673      -3441.644          27.000  
  20999230.730      232694.5513      -1765.200          23.000  
 18 10  4 12 57 51.0000000  0 11G23G31G17G18G 1G19G 9G11G 3G14G22
  22184580.710    -1120276.8733       2054.751          26.000  
  24102570.944     -233315.639         374.361          38.000  
  22040204.030     -350539.6803        707.057          17.000  
  22333015.089     1785130.944       -3606.386          33.000  
  20794683.466      946720.701       -2065.594          33.000  
  23350361.945    -1120212.0443       2177.870          18.000  
  23771900.503    -1599073.151        3131.105          33.000  
  21613278.939     1525017.6243      -3552.065          19.000  
  20295184.908       34721.5503       -545.888          28.000  
  24016729.972     1756058.4473      -3441.168          27.000  
  20999565.513      234461.8003      -1771.496          22.000  
 18 10  4 12 57 52.0000000  0 11G23G31G17G18G 1G19G 9G11G 3G14G22
  22184189.109    -1122333.1813       2053.558          26.000  
  24102499.189     -233690.149         373.297          37.000  
  22040067.709     -351246.9273        716.442          19.000  
  22333701.057     1788737.022       -3608.195          33.000  
  20795076.410      948784.745       -2066.110          33.000  
  23349948.934    -1122388.7563       2176.048          19.000  
  23771304.247    -1602203.495        3129.524          33.000  
  21613955.553     1528561.3693      -3556.770          20.000  
  20295288.929       35267.7333       -545.792          27.000  
  24017385.176     1759499.7843      -3440.906          27.000  
  20999902.790      236236.5113      -1769.584          21.000  
 18 10  4 12 57 53.0000000  0 11G23G31G17G18G 1G19G 9G11G 3G14G22
  22183797.893    -1124386.4763       2051.539          26.000  
  24102427.399     -234063.651         373.963          37.000  
  22039929.608     -351959.0323        708.584          21.000  
  22334387.409     1792343.899       -3606.921          33.000  
  20795469.546      950849.6763      -2065.813          34.000  
  23349537.964    -1124562.7743       2168.843          20.000  
  23770708.095    -1605333.238        3129.532          33.000  
  21614631.941     1532107.8223      -3544.757          20.000  
  20295396.021       35814.6843       -548.178          28.000  
  24018039.559     1762941.9463      -3442.745          27.000  
  21000238.375      238005.2393      -1765.204          20.000  
 18 10  4 12 57 54.0000000  0 11G23G31G17G18G 1G19G 9G11G 3G14G22
  22183409.852    -1126439.0063       2048.738          25.000  
  24102356.760     -234436.255         373.077          37.000  
  22039791.716     -352665.7523        701.529          22.000  
  22335073.464     1795951.317       -3607.980          32.000  
  20795863.310      952915.3412      -2065.865          34.000  
  23349125.737    -1126739.2983       2174.849          20.000  
  23770112.816    -1608462.513        3129.934          32.000  
  21615308.992     1535655.4093      -3543.734          20.000  
  20295501.542       36362.4523       -547.309          28.000  
  24018695.722     1766384.7333      -3441.596          27.000  
  21000574.100      239775.1313      -1771.088          19.000  
 18 10  4 12 57 55.0000000  0 11G23G31G17G18G 1G19G 9G11G 3G14G22
  22183019.282    -1128492.2623       2054.470          25.000  
  24102285.528     -234808.701         372.045          37.000  
  22039653.475     -353368.7553        704.784          22.000  
  22335759.362     1799558.685       -3607.190          33.000  
  20796256.708      954981.0212      -2066.595          34.000  
  23348712.795    -1128912.8443       2170.634          21.000  
  23769517.257    -1611592.022        3128.667          32.000  
  21615982.640     1539196.2743      -3538.759          20.000  
  20295603.382       36910.2293       -548.599          28.000  
  24019352.583     1769827.4813      -3441.914          27.000  
  21000912.041      241542.7903      -1758.872          19.000  
 18 10  4 12 57 56.0000000  0 11G23G31G17G18G 1G19G 9G11G 3G14G22
  22182630.212    -1130544.3263       2049.008          25.000  
  24102214.349     -235180.786         370.466          37.000  
  22039514.886     -354078.1893        709.263          22.000  
  22336446.011     1803166.111       -3607.751          32.000  
  20796650.594      957046.9862      -2065.977          35.000  
  23348304.931    -1131088.6813       2171.227          22.000  
  23768921.629    -1614721.612        3129.176          32.000  
  21616659.534     1542741.5853      -3551.579          21.000  
  20295704.593       37458.2053       -547.230          28.000  
  24020006.390     1773270.4263      -3442.423          27.000  
  21001249.092      243312.7853      -1770.813          18.000  
 18 10  4 12 57 57.0000000  0 11G23G31G17G18G 1G19G 9G11G 3G14G22
  22182238.838    -1132597.5413       2053.293          24.000  
  24102143.100     -235552.532         370.457          37.000  
  22039372.405     -354783.7443        709.015          22.000  
  22337132.171     1806773.674       -3605.546          32.000  
  20797044.410      959113.0862      -2065.899          35.000  
  23347892.984    -1133263.0343       2169.038          22.000  
  23768326.402    -1617851.331        3128.956          32.000  
  21617332.240     1546288.3233      -3548.985          21.000  
  20295808.544       38006.2663       -547.618          28.000  
  24020662.658     1776713.2983      -3442.918          27.000  
  21001586.457      245086.8143      -1778.206          18.000  
 18 10  4 12 57 58.0000000  0 11G23G31G17G18G 1G19G 9G11G 3G14G22
  22181848.983    -1134650.5953       2049.374          24.000  
  24102072.845     -235923.338         369.554          37.000  
  22039234.723     -355484.0273        706.555          21.000  
  22337819.221     1810381.838       -3608.250          32.000  
  20797438.681      961180.0242      -2066.527          35.000  
  23347479.501    -1135442.1623       2171.552          22.000  
  23767731.385    -1620980.410        3130.713          32.000  
  21618007.023     1549831.8203      -3552.663          22.000  
  20295913.682       38555.1653       -548.810          27.000  
  24021317.635     1780156.9683      -3444.861          27.000  
  21001922.845      246861.2173      -1765.249          17.000  
 18 10  4 12 57 59.0000000  0 11G23G31G17G18G 1G19G 9G11G 3G14G22
  22181457.086    -1136700.8133       2061.919          23.000  
  24102002.782     -236293.425         369.315          37.000  
  22039094.091     -356190.1163        711.125          21.000  
  22338506.882     1813990.479       -3608.520          33.000  
  20797833.143      963247.5632      -2067.899          35.000  
  23347067.466    -1137617.9243       2177.946          22.000  
  23767135.826    -1624109.271        3126.004          32.000  
  21618683.829     1553377.3623      -3537.105          22.000  
  20296015.329       39104.5353       -549.768          27.000  
  24021974.810     1783601.0213      -3445.667          27.000  
  21002258.168      248641.0613      -1774.676          17.000  
 18 10  4 12 58  0.0000000  0 11G23G31G17G18G 1G19G 9G11G 3G14G22
  22181065.590    -1138756.2603       2051.928          22.000  
  24101931.987     -236663.471         369.782          37.000  
  22038955.397     -356897.1573        717.569          21.000  
  22339193.443     1817598.920       -3609.016          32.000  
  20798227.169      965314.9832      -2068.459          35.000  
  23346652.570    -1139796.3223       2176.628          22.000  
  23766540.913    -1627238.460        3130.845          32.000  
  21619357.233     1556920.1223      -3540.518          21.000  
  20296119.036       39653.9123       -548.036          27.000  
  24022630.921     1787045.0573      -3443.302          26.000  
  21002592.218      250411.2453      -1769.458          16.000  
 18 10  4 12 58  1.0000000  0 11G23G31G17G18G 1G19G 9G11G 3G14G22
  22180676.398    -1140805.5593       2049.780          22.000  
  24101861.174     -237033.343         370.769          36.000  
  22038820.524     -357598.5363        687.462          20.000  
  22339879.865     1821207.233       -3608.539          32.000  
  20798620.950      967382.470       -2067.548          35.000  
  23346237.883    -1141971.4933       2168.640          21.000  
  23765945.285    -1630367.9883       3130.419          31.000  
  21620030.253     1560466.2923      -3539.784          21.000  
  20296223.912       40203.2593       -549.833          27.000  
  24023284.623     1790488.9013      -3442.752          27.000  
  21002929.897      252181.2913      -1773.375          16.000  
 18 10  4 12 58  2.0000000  0 11G23G31G17G18G 1G19G 9G11G 3G14G22
  22180284.902    -1142855.2783       2052.506          22.000  
  24101790.727     -237402.129         368.357          36.000  
  22038684.116     -358299.6083        707.680          20.000  
  22340567.054     1824816.339       -3608.561          32.000  
  20799015.081      969450.920       -2068.895          35.000  
  23345823.196    -1144144.7833       2170.135          20.000  
  23765349.901    -1633496.7112       3129.536          31.000  
  21620703.081     1564010.8903      -3545.031          20.000  
  20296327.967       40753.4583       -550.608          27.000  
  24023939.443     1793933.5733      -3445.697          27.000  
  21003269.775      253961.6583      -1789.743          16.000  
 18 10  4 12 58  3.0000000  0 11G23G31G17G18G 1G19G 9G11G 3G14G22
  22179895.082    -1144904.3133       2045.982          21.000  
  24101720.734     -237769.959         367.497          36.000  
  22038545.805     -359004.7203        696.075          21.000  
  22341253.598     1828426.1743      -3609.872          32.000  
  20799409.281      971520.204       -2069.518          35.000  
  23345408.596    -1146316.3323       2167.635          20.000  
  23764754.884    -1636624.9753       3127.557          31.000  
  21621375.054     1567555.5743      -3542.446          20.000  
  20296431.971       41304.5433       -550.736          27.000  
  24024596.321     1797378.9793      -3446.471          27.000  
  21003604.906      255736.8173      -1772.583          15.000  
 18 10  4 12 58  4.0000000  0 11G23G31G17G18G 1G19G 9G11G 3G14G22
  22179503.517    -1146952.6223       2046.415          21.000  
  24101651.021     -238137.418         366.977          36.000  
  22038414.196     -359702.8953        697.652          21.000  
  22341940.090     1832036.1502      -3608.622          32.000  
  20799804.372      973589.746       -2069.745          34.000  
  23344994.852    -1148486.6453       2163.981          20.000  
  23764159.796    -1639753.2493       3128.689          30.000  
  21622051.128     1571103.9663      -3541.731          20.000  
  20296537.893       41855.8513       -550.143          27.000  
  24025252.694     1800824.5973      -3445.237          27.000  
  21003943.284      257508.5113      -1774.104          16.000  
 18 10  4 12 58  5.0000000  0 11G23G31G17G18G 1G19G 9G11G 3G14G22
  22179110.887    -1149003.2143       2045.122          21.000  
  24101580.749     -238504.862         367.238          36.000  
  22038281.016     -360404.4563        699.931          22.000  
  22342626.110     1835645.7642      -3609.981          32.000  
  20800198.502      975659.074       -2069.781          34.000  
  23344579.694    -1150657.5993       2173.946          20.000  
  23763563.836    -1642882.0093       3129.059          30.000  
  21622725.527     1574649.9493      -3553.941          20.000  
  20296642.909       42406.8993       -551.672          27.000  
  24025907.356     1804269.8823      -3444.756          27.000  
  21004282.341      259280.4563      -1776.779          18.000  
 18 10  4 12 58  6.0000000  0 11G23G31G17G18G 1G19G 9G11G 3G14G22
  22178721.537    -1151050.2283       2048.714          21.000  
  24101510.773     -238871.749         367.512          35.000  
  22038148.412     -361105.2903        704.679          22.000  
  22343313.876     1839255.8072      -3611.058          32.000  
  20800592.179      977728.916       -2070.739          34.000  
  23344166.507    -1152830.0933       2168.199          20.000  
  23762967.824    -1646010.3643       3130.168          29.000  
  21623397.465     1578198.7433      -3538.824          20.000  
  20296746.965       42958.4033       -551.107          27.000  
  24026562.298     1807715.5003      -3446.246          27.000  
  21004621.626      261054.1563      -1770.411          19.000  
 18 10  4 12 58  7.0000000  0 11G23G31G17G18G 1G19G 9G11G 3G14G22
  22178335.713    -1153098.9973       2041.210          21.000  
  24101440.484     -239237.497         364.461          35.000  
  22038018.390     -361805.6753        698.686          23.000  
  22344001.955     1842866.6092      -3609.808          32.000  
  20800986.676      979799.736       -2070.853          34.000  
  23343752.379    -1155003.0123       2169.095          19.000  
  23762372.039    -1649138.2143       3129.081          29.000  
  21624067.239     1581744.5883      -3545.152          20.000  
  20296852.765       43510.8683       -552.001          26.000  
  24027219.857     1811162.0313      -3447.250          28.000  
  21004960.823      262827.9943      -1777.809          19.000  
 18 10  4 12 58  8.0000000  0 11G23G31G17G18G 1G19G 9G11G 3G14G22
  22177948.004    -1155143.3613       2044.694          22.000  
  24101370.858     -239602.539         364.815          35.000  
  22037886.501     -362505.3573        699.749          23.000  
  22344689.703     1846477.9462      -3611.013          32.000  
  20801380.022      981871.180       -2070.702          33.000  
  23343338.215    -1157173.4103       2173.701          18.000  
  23761776.411    -1652265.8203       3131.203          28.000  
  21624737.205     1585287.6853      -3549.516          20.000  
  20296959.927       44063.8153       -553.100          26.000  
  24027875.479     1814609.0233      -3446.405          27.000  
  21005298.450      264602.2523      -1775.764          19.000  
 18 10  4 12 58  9.0000000  0 11G23G31G17G18G 1G19G 9G11G 3G14G22
  22177560.522    -1157193.6213       2042.718          21.000  
  24101301.057     -239967.323         364.693          35.000  
  22037756.253     -363203.7223        693.579          24.000  
  22345377.399     1850089.2672      -3611.325          32.000  
  20801773.175      983942.673       -2072.185          32.000  
  23342925.779    -1159339.7533       2167.166          18.000  
  23761180.468    -1655393.4553       3129.227          28.000  
  21625407.468     1588837.7933      -3547.616          21.000  
  20297066.600       44616.9633       -552.225          27.000  
  24028532.881     1818056.1083      -3447.772          27.000  
  21005637.054      266375.2423      -1773.440          20.000  
 18 10  4 12 58 10.0000000  0 11G23G31G17G18G 1G19G 9G11G 3G14G22
  22177169.637    -1159241.5883       2050.873          21.000  
  24101231.081     -240332.132         365.516          36.000  
  22037626.790     -363901.8233        697.305          25.000  
  22346064.920     1853700.2662      -3612.137          32.000  
  20802166.835      986014.0363      -2073.396          31.000  
  23342510.063    -1161510.4133       2173.970          18.000  
  23760584.997    -1658521.5533       3124.181          28.000  
  21626077.190     1592388.6013      -3546.753          22.000  
  20297173.902       45169.9183       -552.839          26.000  
  24029186.531     1821502.9283      -3445.418          28.000  
  21005977.473      268148.7663      -1780.153          20.000  
 18 10  4 12 58 11.0000000  0 11G23G31G17G18G 1G19G 9G11G 3G14G22
  22176781.265    -1161283.1953       2047.540          20.000  
  24101161.106     -240695.916         363.818          35.000  
  22037496.210     -364598.8233        692.503          25.000  
  22346752.511     1857312.0282      -3612.915          32.000  
  20802560.267      988086.2723      -2074.537          31.000  
  23342093.578    -1163681.0383       2167.994          18.000  
  23759989.229    -1661649.1073       3127.299          28.000  
  21626749.495     1595939.7063      -3552.112          23.000  
  20297277.137       45723.6503       -555.691          27.000  
  24029842.171     1824950.3843      -3447.258          28.000  
  21006317.159      269925.9593      -1779.811          20.000  
 18 10  4 12 58 12.0000000  0 11G23G31G17G18G 1G19G 9G11G 3G14G22
  22176392.753    -1163330.0503       2045.160          21.000  
  24101091.480     -241058.840         362.065          35.000  
  22037365.071     -365295.3543        696.575          25.000  
  22347439.020     1860924.3673      -3611.096          31.000  
  20802954.258      990159.3093      -2070.788          30.000  
  23341677.810    -1165852.6893       2169.607          18.000  
  23759393.758    -1664776.1843       3127.243          28.000  
  21627422.933     1599492.7163      -3549.285          25.000  
  20297383.531       46278.1553       -555.611          27.000  
  24030497.671     1828398.5773      -3447.265          28.000  
  21006655.222      271702.5303      -1771.896          21.000  
 18 10  4 12 58 13.0000000  0 11G23G31G17G18G 1G19G 9G11G 3G14G22
  22176002.305    -1165372.4543       2048.351          21.000  
  24101022.708     -241421.536         363.780          35.000  
  22037234.282     -365990.8133        695.968          25.000  
  22348125.791     1864536.6112      -3615.750          31.000  
  20803347.918      992232.6753      -2073.373          29.000  
  23341265.566    -1168018.4463       2170.917          19.000  
  23758797.624    -1667903.4573       3127.642          28.000  
  21628096.547     1603043.1663      -3550.074          26.000  
  20297489.733       46832.7493       -553.796          27.000  
  24031153.363     1831846.6573      -3447.904          27.000  
  21006998.904      273478.7733      -1773.665          21.000  
 18 10  4 12 58 14.0000000  0 11G23G31G17G18G 1G19G 9G11G 3G14G22
  22175611.420    -1167418.2473       2037.441          22.000  
  24100953.379     -241784.106         362.277          35.000  
  22037103.597     -366687.2073        695.288          25.000  
  22348812.212     1868148.8523      -3610.503          31.000  
  20803738.558      994305.2743      -2073.588          28.000  
  23340851.681    -1170185.7343       2160.927          19.000  
  23758202.327    -1671030.9633       3126.382          27.000  
  21628771.539     1606594.3363      -3552.953          27.000  
  20297594.871       47387.2633       -555.188          27.000  
  24031809.805     1835294.6583      -3449.061          27.000  
  21007341.050      275253.7703      -1771.722          21.000  
 18 10  4 12 58 15.0000000  0 12G23G31G17G32G18G 1G19G 9G11G 3G14G22
  22175222.926    -1169464.4133       2042.884          21.000  
  24100883.857     -242145.577         360.806          34.000  
  22036973.523     -367383.6863        690.585          26.000  
  25985215.623     2091973.2343      -4113.604          11.000  
  22349499.489     1871761.9283      -3615.173          31.000  
  20804130.438      996379.3033      -2075.320          28.000  
  23340439.595    -1172352.3113       2161.747          20.000  
  23757608.478    -1674158.4403       3125.401          27.000  
  21629443.791     1610146.4773      -3551.865          28.000  
  20297702.469       47942.7613       -554.674          28.000  
  24032465.689     1838743.6133      -3450.145          26.000  
  21007677.525      277030.2603      -1778.928          21.000  
 18 10  4 12 58 16.0000000  0 12G23G31G17G32G18G 1G19G 9G11G 3G14G22
  22174835.583    -1171509.8643       2048.083          21.000  
  24100814.545     -242506.015         360.835          34.000  
  22036845.177     -368076.5073        693.806          27.000  
  25985999.312     2096101.0333      -4136.672          12.000  
  22350186.836     1875375.6072      -3612.019          31.000  
  20804524.132      998454.2003      -2075.064          28.000  
  23340024.297    -1174518.9663       2163.861          21.000  
  23757013.601    -1677284.6693       3126.078          26.000  
  21630117.701     1613699.3793      -3553.378          29.000  
  20297811.847       48498.9893       -556.053          27.000  
  24033123.143     1842193.2723      -3448.915          26.000  
  21008017.578      278808.6093      -1780.140          21.000  
 18 10  4 12 58 17.0000000  0 12G23G31G17G32G18G 1G19G 9G11G 3G14G22
  22174442.988    -1173555.6453       2042.090          22.000  
  24100745.930     -242866.344         359.926          34.000  
  22036714.196     -368769.9063        693.451          28.000  
  25986784.327     2100236.6723      -4135.125          12.000  
  22350874.183     1878989.2413      -3612.645          31.000  
  20804917.879     1000529.0773      -2075.509          27.000  
  23339612.053    -1176684.8563       2164.749          21.000  
  23756416.297    -1680411.3263       3126.003          26.000  
  21630794.350     1617252.2953      -3553.454          29.000  
  20297917.246       49055.2103       -557.253          27.000  
  24033780.057     1845642.7353      -3450.156          27.000  
  21008353.826      280584.9873      -1776.600          21.000  
 18 10  4 12 58 18.0000000  0 12G23G31G17G32G18G 1G19G 9G11G 3G14G22
  22174053.133    -1175601.1803       2039.386          23.000  
  24100677.229     -243226.692         358.992          34.000  
  22036586.303     -369463.2293        694.235          28.000  
  25987572.013     2104378.5733      -4138.993          13.000  
  22351561.459     1882602.5883      -3611.575          30.000  
  20805313.981     1002603.8793      -2074.929          27.000  
  23339198.430    -1178854.2003       2165.421          21.000  
  23755818.959    -1683538.1653       3127.668          25.000  
  21631473.565     1620805.1403      -3552.556          30.000  
  20298022.593       49611.3703       -555.376          27.000  
  24034437.476     1849092.1573      -3449.073          27.000  
  21008692.482      282364.0853      -1783.788          21.000  
 18 10  4 12 58 19.0000000  0 12G23G31G17G32G18G 1G19G 9G11G 3G14G22
  22173662.964    -1177647.8013       2039.556          23.000  
  24100607.463     -243586.211         358.214          33.000  
  22036455.915     -370155.8593        692.332          29.000  
  25988358.651     2108514.5703      -4134.245          13.000  
  22352249.521     1886216.2893      -3619.701          30.000  
  20805711.602     1004679.3383      -2075.799          27.000  
  23338783.708    -1181017.4973       2159.017          20.000  
  23755222.859    -1686664.8033       3127.468          24.000  
  21632151.576     1624358.6323      -3553.006          30.000  
  20298128.045       50168.0803       -558.389          26.000  
  24035093.814     1852541.8853      -3449.164          27.000  
  21009033.599      284146.7963      -1772.602          21.000  
 18 10  4 12 58 20.0000000  0 12G23G31G17G32G18G 1G19G 9G11G 3G14G22
  22173274.522    -1179689.9943       2043.399          23.000  
  24100538.622     -243944.912         357.000          33.000  
  22036326.365     -370847.5743        691.540          29.000  
  25989145.167     2112645.5153      -4128.837          12.000  
  22352936.624     1889830.7692      -3615.934          30.000  
  20806107.059     1006755.4513      -2076.787          27.000  
  23338371.901    -1183175.6163       2165.799          19.000  
  23754628.522    -1689790.9363       3127.220          25.000  
  21632824.701     1627912.7692      -3555.296          31.000  
  20298234.927       50725.4473       -557.451          26.000  
  24035752.053     1855992.3083      -3450.593          27.000  
  21009374.751      285924.2953      -1777.016          22.000  
 18 10  4 12 58 21.0000000  0 12G23G31G17G32G18G 1G19G 9G11G 3G14G22
  22172882.555    -1181733.8793       2048.809          24.000  
  24100469.414     -244303.505         357.331          33.000  
  22036192.661     -371539.0563        691.883          29.000  
  25989933.219     2116781.7743      -4157.333          10.000  
  22353624.180     1893445.0583      -3615.229          30.000  
  20806502.655     1008831.6263      -2076.496          28.000  
  23337960.494    -1185335.6643       2159.605          20.000  
  23754030.137    -1692917.3553       3125.994          24.000  
  21633500.356     1631466.8862      -3555.198          31.000  
  20298341.408       51282.8513       -557.726          26.000  
  24036408.827     1859442.6863      -3450.821          27.000  
  21009714.280      287700.8523      -1774.466          22.000  
 18 10  4 12 58 22.0000000  0 12G23G31G17G32G18G 1G19G 9G11G 3G14G22
  22172493.083    -1183777.7163       2042.796          24.000  
  24100400.748     -244661.989         357.555          32.000  
  22036062.954     -372230.4803        691.539          29.000  
  25990724.203     2120942.2683      -4172.115          10.000  
  22354311.980     1897059.1352      -3614.911          30.000  
  20806898.583     1010907.7483      -2076.270          28.000  
  23337544.883    -1187500.9553       2161.051          20.000  
  23753432.153    -1696044.1373       3128.350          24.000  
  21634179.221     1635020.9422      -3551.770          31.000  
  20298447.558       51840.1073       -555.707          26.000  
  24037063.839     1862892.8043      -3450.243          27.000  
  21010052.483      289479.3053      -1777.395          22.000  
 18 10  4 12 58 23.0000000  0 11G23G31G17G18G 1G19G 9G11G 3G14G22
  22172102.705    -1185821.5783       2048.451          25.000  
  24100331.907     -245019.865         356.899          32.000  
  22035929.861     -372921.2423        690.736          30.000  
  22355000.007     1900673.6442      -3613.789          30.000  
  20807296.344     1012984.3573      -2076.716          28.000  
  23337133.214    -1189664.2673       2155.851          21.000  
  23752836.141    -1699170.0793       3124.488          24.000  
  21634856.970     1638575.5562      -3554.738          32.000  
  20298554.388       52397.8013       -557.703          26.000  
  24037719.164     1866343.3983      -3450.385          27.000  
  21010391.488      291257.5033      -1784.086          23.000  
 18 10  4 12 58 24.0000000  0 11G23G31G17G18G 1G19G 9G11G 3G14G22
  22171711.296    -1187864.0013       2041.714          25.000  
  24100263.955     -245376.671         356.734          33.000  
  22035797.239     -373610.9253        689.587          30.000  
  22355687.825     1904288.8413      -3614.381          30.000  
  20807692.708     1015061.8623      -2077.879          29.000  
  23336720.587    -1191828.1483       2168.166          21.000  
  23752239.465    -1702295.6403       3123.519          24.000  
  21635532.556     1642131.0582      -3556.349          32.000  
  20298663.260       52956.3963       -559.958          26.000  
  24038375.292     1869794.6803      -3451.798          27.000  
  21010729.795      293036.0743      -1779.684          23.000  
 18 10  4 12 58 25.0000000  0 11G23G31G17G18G 1G19G 9G11G 3G14G22
  22171322.174    -1189906.0343       2038.229          25.000  
  24100196.406     -245733.272         356.291          33.000  
  22035666.013     -374300.2823        690.113          30.000  
  22356375.137     1907904.0653      -3615.388          29.000  
  20808088.618     1017139.5533      -2077.256          29.000  
  23336310.000    -1193991.1913       2161.612          22.000  
  23751645.285    -1705422.9553       3118.927          24.000  
  21636210.095     1645686.6692      -3554.043          32.000  
  20298769.898       53515.1183       -559.268          26.000  
  24039033.358     1873246.0683      -3451.086          27.000  
  21011067.492      294814.1683      -1770.313          23.000  
 18 10  4 12 58 26.0000000  0 11G23G31G17G18G 1G19G 9G11G 3G14G22
  22170933.139    -1191946.7883       2041.021          25.000  
  24100127.879     -246089.700         357.350          32.000  
  22035535.294     -374989.5363        689.500          30.000  
  22357063.181     1911519.1133      -3617.690          29.000  
  20808487.373     1019217.1723      -2077.625          30.000  
  23335899.536    -1196157.2103       2165.790          23.000  
  23751050.477    -1708548.8883       3132.871          25.000  
  21636885.715     1649242.3232      -3555.342          32.000  
  20298877.828       54074.3223       -561.218          25.000  
  24039690.585     1876697.3023      -3451.331          27.000  
  21011406.113      296592.2803      -1781.250          23.000  
 18 10  4 12 58 27.0000000  0 11G23G31G17G18G 1G19G 9G11G 3G14G22
  22170542.289    -1193989.4163       2043.378          25.000  
  24100060.137     -246445.734         354.181          32.000  
  22035404.382     -375678.3423        688.554          30.000  
  22357751.331     1915134.2153      -3615.581          28.000  
  20808882.813     1021294.8513      -2079.294          30.000  
  23335489.055    -1198320.7363       2162.008          24.000  
  23750455.372    -1711675.7943       3123.959          25.000  
  21637562.557     1652798.1802      -3555.697          33.000  
  20298985.147       54633.1623       -558.638          25.000  
  24040347.848     1880148.6813      -3450.730          26.000  
  21011747.300      298372.3303      -1779.893          24.000  
 18 10  4 12 58 28.0000000  0 11G23G31G17G18G 1G19G 9G11G 3G14G22
  22170152.835    -1196029.8973       2035.481          25.000  
  24099992.447     -246800.788         354.135          33.000  
  22035275.827     -376366.2413        685.877          30.000  
  22358438.800     1918750.0833      -3616.011          28.000  
  20809276.036     1023373.5722      -2079.346          31.000  
  23335079.394    -1200481.6133       2159.965          25.000  
  23749859.762    -1714802.1463       3121.677          25.000  
  21638240.655     1656354.8512      -3557.046          33.000  
  20299093.303       55192.9103       -561.383          24.000  
  24041006.471     1883600.7263      -3451.910          26.000  
  21012084.595      300150.3453      -1779.316          25.000  
 18 10  4 12 58 29.0000000  0 11G23G31G17G18G 1G19G 9G11G 3G14G22
  22169762.596    -1198069.7433       2047.250          25.000  
  24099925.369     -247154.994         354.426          33.000  
  22035150.517     -377053.0983        688.557          30.000  
  22359126.460     1922366.5513      -3617.964          28.000  
  20809675.751     1025453.0652      -2078.630          31.000  
  23334670.029    -1202643.3773       2163.317          26.000  
  23749266.681    -1717926.7243       3121.921          25.000  
  21638918.404     1659912.2492      -3558.096          33.000  
  20299200.430       55753.3463       -564.230          24.000  
  24041661.866     1887053.4963      -3452.248          26.000  
  21012423.758      301931.1093      -1779.481          25.000  
 18 10  4 12 58 30.0000000  0 11G23G31G17G18G 1G19G 9G11G 3G14G22
  22169372.164    -1200112.5963       2043.697          25.000  
  24099858.587     -247509.000         354.470          33.000  
  22035017.930     -377739.8143        686.968          31.000  
  22359812.585     1925983.1823      -3616.263          28.000  
  20810071.277     1027532.6302      -2079.077          31.000  
  23334259.268    -1204803.9223       2160.471          26.000  
  23748670.774    -1721051.7133       3125.890          26.000  
  21639594.722     1663469.7862      -3557.952          34.000  
  20299307.313       56313.3593       -558.827          22.000  
  24042315.831     1890506.1693      -3452.158          26.000  
  21012765.555      303712.1283      -1781.753          25.000  
 18 10  4 12 58 31.0000000  0 11G23G31G17G18G 1G19G 9G11G 3G14G22
  22168984.403    -1202151.3443       2038.282          25.000  
  24099792.084     -247862.688         352.174          33.000  
  22034888.083     -378426.1643        687.072          31.000  
  22360498.501     1929599.5663      -3617.023          27.000  
  20810466.577     1029612.3003      -2078.137          31.000  
  23333846.989    -1206964.8973       2161.265          26.000  
  23748074.377    -1724175.1663       3130.585          25.000  
  21640271.546     1667026.887       -3557.726          34.000  
  20299412.712       56872.3263       -560.710          22.000  
  24042972.901     1893958.9133      -3451.555          26.000  
  21013104.561      305492.8933      -1776.660          25.000  
 18 10  4 12 58 32.0000000  0 11G23G31G17G18G 1G19G 9G11G 3G14G22
  22168594.879    -1204191.8263       2039.959          24.000  
  24099725.389     -248215.583         353.046          34.000  
  22034757.939     -379111.6643        682.880          30.000  
  22361188.012     1933216.5143      -3617.466          28.000  
  20810858.212     1031692.7472      -2080.358          31.000  
  23333436.997    -1209125.1733       2159.026          27.000  
  23747479.552    -1727300.5363       3128.050          25.000  
  21640948.667     1670585.260       -3560.821          34.000  
  20299522.771       57435.4583       -560.114          21.000  
  24043629.029     1897412.2063      -3454.489          26.000  
  21013443.845      307273.2233      -1778.245          25.000  
 18 10  4 12 58 33.0000000  0 11G23G31G17G18G 1G19G 9G11G 3G14G22
  22168205.548    -1206231.4773       2037.598          25.000  
  24099659.602     -248567.413         351.295          34.000  
  22034624.183     -379796.0393        685.029          30.000  
  22361874.102     1936834.2843      -3617.742          28.000  
  20811253.739     1033774.0963      -2080.351          31.000  
  23333026.131    -1211284.4533       2159.501          27.000  
  23746886.105    -1730425.9063       3121.463          26.000  
  21641626.189     1674144.478       -3559.809          34.000  
  20299632.986       57999.3193       -567.250          21.000  
  24044287.688     1900866.2353      -3454.869          26.000  
  21013784.683      309056.4203      -1776.495          25.000  
 18 10  4 12 58 34.0000000  0 11G23G31G17G18G 1G19G 9G11G 3G14G22
  22167817.228    -1208272.4083       2042.227          25.000  
  24099593.483     -248919.041         351.048          34.000  
  22034497.564     -380480.2583        685.551          30.000  
  22362564.345     1940452.0353      -3617.804          28.000  
  20811649.283     1035855.4113      -2082.121          31.000  
  23332616.348    -1213443.5773       2158.802          27.000  
  23746291.384    -1733549.7413       3124.916          26.000  
  21642303.205     1677703.802       -3559.541          34.000  
  20299745.313       58564.6793       -564.532          20.000  
  24044944.165     1904320.3873      -3455.309          26.000  
  21014124.561      310838.3713      -1789.903          24.000  
 18 10  4 12 58 35.0000000  0 11G23G31G17G18G 1G19G 9G11G 3G14G22
  22167430.374    -1210311.5953       2036.867          25.000  
  24099527.504     -249270.398         350.092          34.000  
  22034366.182     -381164.0843        686.037          28.000  
  22363252.180     1944069.7683      -3617.565          28.000  
  20812045.909     1037936.9932      -2082.162          32.000  
  23332205.099    -1215602.5343       2158.744          27.000  
  23745695.354    -1736674.8053       3124.398          26.000  
  21642979.907     1681263.296       -3560.192          34.000  
  20299853.889       59125.0043       -563.693          20.000  
  24045601.585     1907774.4933      -3455.572          26.000  
  21014463.566      312620.3463      -1783.036          24.000  
 18 10  4 12 58 36.0000000  0 11G23G31G17G18G 1G19G 9G11G 3G14G22
  22167039.367    -1212349.6143       2041.378          25.000  
  24099462.048     -249621.186         350.329          35.000  
  22034235.846     -381847.4653        683.321          27.000  
  22363940.940     1947687.7313      -3617.424          28.000  
  20812442.727     1040018.9522      -2082.137          32.000  
  23331796.153    -1217761.0853       2157.277          28.000  
  23745101.384    -1739799.6893       3124.443          26.000  
  21643656.819     1684823.171       -3560.001          34.000  
  20299963.162       59688.3803       -563.615          20.000  
  24046257.678     1911228.9023      -3455.786          26.000  
  21014801.699      314403.3253      -1781.680          24.000  
 18 10  4 12 58 37.0000000  0 11G23G31G17G18G 1G19G 9G11G 3G14G22
  22166650.314    -1214387.3433       2042.483          24.000  
  24099396.348     -249971.064         350.067          35.000  
  22034102.963     -382528.5583        684.667          25.000  
  22364630.015     1951306.3693      -3619.078          29.000  
  20812839.458     1042101.6782      -2082.625          32.000  
  23331385.950    -1219918.8363       2157.340          28.000  
  23744507.344    -1742922.6753       3122.844          25.000  
  21644333.084     1688383.785       -3561.713          34.000  
  20300073.325       60249.5643       -564.366          20.000  
  24046916.022     1914683.9433      -3455.619          26.000  
  21015140.827      316184.6653      -1777.353          24.000  
 18 10  4 12 58 38.0000000  0 11G23G31G17G18G 1G19G 9G11G 3G14G22
  22166263.670    -1216423.0563       2035.115          23.000  
  24099330.002     -250320.290         348.865          34.000  
  22033970.114     -383208.8843        680.604          23.000  
  22365318.810     1954925.4243      -3619.367          28.000  
  20813235.961     1044184.9532      -2081.815          33.000  
  23330974.038    -1222075.8843       2156.940          28.000  
  23743912.989    -1746046.5673       3124.669          26.000  
  21645010.380     1691945.008       -3561.168          34.000  
  20300183.977       60814.3983       -561.991          21.000  
  24047574.053     1918139.4783      -3455.433          26.000  
  21015479.570      317965.0333      -1789.134          25.000  
 18 10  4 12 58 39.0000000  0 11G23G31G17G18G 1G19G 9G11G 3G14G22
  22165877.584    -1218461.1643       2040.350          24.000  
  24099264.302     -250669.377         349.469          34.000  
  22033839.639     -383891.0673        683.384          22.000  
  22366005.912     1958544.2843      -3619.034          28.000  
  20813632.640     1046268.1712      -2085.434          32.000  
  23330564.202    -1224232.9683       2156.923          29.000  
  23743321.148    -1749171.0123       3124.225          27.000  
  21645687.169     1695506.177       -3561.142          34.000  
  20300295.885       61378.8513       -561.906          21.000  
  24048232.868     1921594.8143      -3455.198          26.000  
  21015817.371      319748.5723      -1780.194          24.000  
 18 10  4 12 58 40.0000000  0 11G23G31G17G18G 1G19G 9G11G 3G14G22
  22165491.184    -1220499.1243       2036.578          25.000  
  24099198.689     -251018.103         348.040          34.000  
  22033707.541     -384572.8053        677.364          20.000  
  22366692.177     1962163.2633      -3619.660          29.000  
  20814029.161     1048351.6652      -2083.496          32.000  
  23330154.663    -1226389.7773       2156.954          29.000  
  23742727.177    -1752295.4853       3123.082          27.000  
  21646364.377     1699067.605       -3562.354          34.000  
  20300403.780       61943.3043       -559.242          20.000  
  24048889.712     1925050.2913      -3455.482          26.000  
  21016153.759      321532.0553      -1782.504          24.000  
 18 10  4 12 58 41.0000000  0 11G23G31G17G18G 1G19G 9G11G 3G14G22
  22165105.551    -1222535.8733       2035.719          25.000  
  24099132.885     -251365.936         346.979          34.000  
  22033576.926     -385258.5913        687.099          18.000  
  22367382.403     1965782.8903      -3619.320          29.000  
  20814425.595     1050435.8982      -2086.269          31.000  
  23329745.700    -1228545.8013       2155.538          29.000  
  23742135.196    -1755419.4343       3123.292          28.000  
  21647041.829     1702629.814       -3560.982          33.000  
  20300511.099       62506.5233       -555.510          19.000  
  24049549.731     1928506.4193      -3458.187          26.000  
  21016494.004      323317.0833      -1783.348          23.000  
 18 10  4 12 58 42.0000000  0 11G23G31G17G18G 1G19G 9G11G 3G14G22
  22164717.598    -1224572.0453       2036.999          26.000  
  24099066.905     -251713.098         346.709          34.000  
  22033452.314     -385931.4573        666.959          15.000  
  22368072.506     1969402.8973      -3619.518          29.000  
  20814822.116     1052520.6842      -2083.611          31.000  
  23329337.330    -1230701.2073       2155.438          29.000  
  23741540.999    -1758543.1833       3124.250          28.000  
  21647719.980     1706192.456       -3564.057          34.000  
  20300619.883       63067.8643       -567.649          18.000  
  24050210.205     1931962.9383      -3457.603          26.000  
  21016831.700      325101.9043      -1789.282          23.000  
 18 10  4 12 58 43.0000000  0 11G23G31G17G18G 1G19G 9G11G 3G14G22
  22164330.430    -1226608.2713       2035.794          27.000  
  24099001.258     -252060.061         347.065          35.000  
  22033326.253     -386605.6753        676.725          14.000  
  22368761.389     1973022.8653      -3619.624          30.000  
  20815218.655     1054605.5283      -2084.914          30.000  
  23328927.110    -1232856.4713       2155.422          30.000  
  23740948.686    -1761667.0853       3123.255          29.000  
  21648398.200     1709755.274       -3561.960          34.000  
  20300725.073       63632.4413       -565.613          17.000  
  24050868.043     1935419.5903      -3456.202          26.000  
  21017169.135      326885.8863      -1783.214          23.000  
 18 10  4 12 58 44.0000000  0 11G23G31G17G18G 1G19G 9G11G 3G14G22
  22163944.344    -1228644.1933       2035.545          27.000  
  24098935.558     -252406.573         346.492          35.000  
  22033200.612     -387282.9513        669.932          16.000  
  22369449.643     1976642.9793      -3621.151          30.000  
  20815614.409     1056690.7343      -2086.479          29.000  
  23328517.990    -1235011.4673       2154.409          30.000  
  23740355.064    -1764790.9573       3123.880          29.000  
  21649075.617     1713318.330       -3564.379          34.000  
  20300832.654       64197.1633       -563.917          16.000  
  24051524.939     1938876.2763      -3457.894          26.000  
  21017506.744      328668.5213      -1789.465          22.000  
 18 10  4 12 58 45.0000000  0 11G23G31G17G18G 1G19G 9G11G 3G14G22
  22163558.014    -1230679.4413       2033.964          28.000  
  24098870.398     -252752.207         344.551          35.000  
  22033070.608     -387959.7373        674.973          19.000  
  22370142.050     1980263.7483      -3623.663          30.000  
  20816010.057     1058776.2793      -2087.498          29.000  
  23328111.417    -1237165.8843       2154.942          30.000  
  23739761.355    -1767914.4203       3122.686          29.000  
  21649753.872     1716882.194       -3563.144          34.000  
  20300940.269       64768.6353       -575.607          15.000  
  24052180.369     1942333.5593      -3456.915          25.000  
  21017849.013      330455.1893      -1789.459          21.000  
 18 10  4 12 58 46.0000000  0 10G23G31G17G18G 1G19G 9G11G14G22
  22163173.742    -1232713.8943       2034.154          28.000  
  24098804.227     -253096.844         343.416          34.000  
  22032940.830     -388637.2143        678.170          22.000  
  22370833.829     1983885.2523      -3623.339          30.000  
  20816405.235     1060862.8443      -2086.259          28.000  
  23327693.711    -1239319.0822       2154.598          31.000  
  23739164.907    -1771037.2723       3123.012          29.000  
  21650432.913     1720446.862       -3564.246          34.000  
  24052838.207     1945791.7353      -3457.963          25.000  
  21018189.851      332242.2943      -1781.357          21.000  
 18 10  4 12 58 47.0000000  0 10G23G31G17G18G 1G19G 9G11G14G22
  22162787.552    -1234748.0603       2034.970          29.000  
  24098738.702     -253441.060         344.458          34.000  
  22032812.030     -389315.8133        675.860          24.000  
  22371519.343     1987506.8373      -3620.858          30.000  
  20816801.582     1062950.0293      -2093.493          28.000  
  23327285.463    -1241471.9723       2153.335          31.000  
  23738567.761    -1774160.0483       3123.043          29.000  
  21651110.644     1724011.792       -3566.103          34.000  
  24053492.521     1949251.1823      -3457.323          24.000  
  21018527.617      334023.8693      -1786.813          20.000  
 18 10  4 12 58 48.0000000  0 10G23G31G17G18G 1G19G 9G11G14G22
  22162402.600    -1236782.3883       2034.516          29.000  
  24098673.647     -253785.184         343.334          35.000  
  22032681.834     -389992.2333        676.586          27.000  
  22372204.055     1991128.2572      -3621.603          30.000  
  20817197.894     1065036.9613      -2089.302          27.000  
  23326883.690    -1243624.9113       2152.914          31.000  
  23737977.734    -1777283.1723       3123.134          31.000  
  21651788.498     1727576.717       -3566.023          34.000  
  24054150.446     1952709.1213      -3458.040          25.000  
  21018865.942      335810.7903      -1781.416          20.000  
 18 10  4 12 58 49.0000000  0 10G23G31G17G18G 1G19G 9G11G14G22
  22162018.014    -1238816.3203       2033.981          29.000  
  24098608.122     -254128.772         343.837          34.000  
  22032553.540     -390667.9383        675.785          29.000  
  22372891.367     1994749.9643      -3618.620          30.000  
  20817594.816     1067124.9753      -2089.146          27.000  
  23326469.386    -1245777.2943       2151.678          31.000  
  23737382.385    -1780406.1822       3123.909          32.000  
  21652466.648     1731142.058       -3565.968          34.000  
  24054807.744     1956167.5743      -3457.027          25.000  
  21019207.373      337600.2793      -1792.512          18.000  
 18 10  4 12 58 50.0000000  0 11G23G31G17G18G 1G19G 9G11G 6G14G22
  22161630.707    -1240849.6573       2033.521          30.000  
  24098542.614     -254471.521         343.703          34.000  
  22032425.386     -391342.7693        674.946          30.000  
  22373580.772     1998372.0423      -3621.385          29.000  
  20817991.268     1069213.0383      -2088.667          28.000  
  23326062.849    -1247929.0672       2151.253          31.000  
  23736787.228    -1783528.8103       3123.812          30.000  
  21653145.479     1734708.013       -3567.135          34.000  
  25165006.284       81500.8082       2714.079          33.000  
  24055463.575     1959626.6093      -3458.437          24.000  
  21019549.397      339387.1483      -1786.652          18.000  
 18 10  4 12 58 51.0000000  0 12G23G31G17G18G 1G19G 9G11G 3G 6G14G22
  22161245.895    -1242882.6323       2032.357          30.000  
  24098477.018     -254813.746         342.026          34.000  
  22032299.797     -392017.3283        676.415          32.000  
  22374270.719     2001994.6403      -3622.210          29.000  
  20818388.034     1071301.5863      -2087.776          27.000  
  23325655.526    -1250080.3502       2150.217          32.000  
  23736195.665    -1786651.2573       3121.953          30.000  
  21653824.223     1738274.464       -3566.536          34.000  
  20301565.807       68088.2993       -567.718          15.000  
  25164490.019       78786.0672       2716.021          33.000  
  24056119.476     1963085.5903      -3456.555          24.000  
  21019888.542      341168.2513      -1777.617          18.000  
 18 10  4 12 58 52.0000000  0 12G23G31G17G18G 1G19G 9G11G 3G 6G14G22
  22160861.414    -1244915.7773       2032.232          31.000  
  24098411.702     -255155.905         343.515          33.000  
  22032173.422     -392691.5322        672.524          33.000  
  22374959.985     2005616.9123      -3622.103          30.000  
  20818783.857     1073389.8823      -2087.278          27.000  
  23325246.370    -1252231.6462       2149.169          31.000  
  23735602.672    -1789774.1382       3122.523          31.000  
  21654502.914     1741840.761       -3567.247          34.000  
  20301671.957       68660.5273       -571.021          16.000  
  25163972.219       76070.7482       2714.354          33.000  
  24056776.774     1966546.0743      -3458.380          25.000  
  21020229.293      342952.9803      -1785.123          18.000  
 18 10  4 12 58 53.0000000  0 12G23G31G17G18G 1G19G 9G11G 3G 6G14G22
  22160475.956    -1246948.4433       2032.977          31.000  
  24098346.752     -255497.466         340.396          33.000  
  22032031.709     -393365.0652        672.383          33.000  
  22375650.054     2009239.4963      -3623.792          30.000  
  20819177.569     1075478.9363      -2088.691          26.000  
  23324837.006    -1254382.3923       2149.978          31.000  
  23735006.834    -1792896.7803       3124.608          31.000  
  21655181.675     1745407.537       -3568.109          35.000  
  20301783.132       69231.8393       -574.308          16.000  
  25163459.287       73355.4592       2715.917          32.000  
  24057433.966     1970005.9773      -3468.676          25.000  
  21020570.427      344738.0533      -1787.237          18.000  
 18 10  4 12 58 54.0000000  0 12G23G31G17G18G 1G19G 9G11G 3G 6G14G22
  22160089.765    -1248980.3693       2031.706          31.000  
  24098281.262     -255838.075         343.781          33.000  
  22031905.980     -394037.5782        672.193          33.000  
  22376339.355     2012862.7803      -3624.478          30.000  
  20819573.462     1077569.7213      -2086.473          25.000  
  23324427.938    -1256532.2932       2148.939          31.000  
  23734413.056    -1796018.9132       3122.954          31.000  
  21655860.559     1748975.133       -3566.626          35.000  
  20301889.858       69804.1563       -569.997          18.000  
  25162940.527       70640.5462       2715.909          33.000  
  24058091.718     1973467.5603      -3458.812          25.000  
  21020912.172      346522.7903      -1768.584          17.000  
 18 10  4 12 58 55.0000000  0 12G23G31G17G18G 1G19G 9G11G 3G 6G14G22
  22159705.110    -1251011.4933       2032.170          31.000  
  24098215.946     -256177.840         339.222          32.000  
  22031775.976     -394709.2782        672.039          33.000  
  22377029.546     2016486.6353      -3623.921          30.000  
  20819971.047     1079660.3973      -2088.853          25.000  
  23324018.643    -1258681.4052       2149.938          31.000  
  23733818.562    -1799140.6113       3123.383          31.000  
  21656539.808     1752543.452       -3568.454          35.000  
  20301996.147       70375.9483       -573.296          18.000  
  25162421.977       67925.9212       2714.921          33.000  
  24058748.858     1976928.2323      -3462.792          25.000  
  21021250.410      348303.3743      -1791.240          15.000  
 18 10  4 12 58 56.0000000  0 12G23G31G17G18G 1G19G 9G11G 3G 6G14G22
  22159317.733    -1253042.6812       2031.869          31.000  
  24098150.507     -256517.382         340.604          32.000  
  22031648.973     -395380.6972        671.322          33.000  
  22377719.423     2020110.5503      -3622.419          30.000  
  20820366.888     1081750.9203      -2098.017          24.000  
  23323609.453    -1260830.4582       2148.084          31.000  
  23733224.940    -1802262.4762       3122.158          31.000  
  21657218.395     1756111.834       -3567.518          36.000  
  20302102.541       70947.2983       -569.241          19.000  
  25161905.851       65210.9062       2716.719          32.000  
  24059409.453     1980388.1303      -3459.025          25.000  
  21021590.497      350094.8323      -1793.131          15.000  
 18 10  4 12 58 57.0000000  0 12G23G31G17G18G 1G19G 9G11G 3G 6G14G22
  22158929.431    -1255073.8892       2033.292          31.000  
  24098084.650     -256856.684         338.838          31.000  
  22031520.871     -396051.8262        670.375          33.000  
  22378409.876     2023734.3743      -3622.782          30.000  
  20820763.218     1083842.7683      -2096.610          24.000  
  23323200.140    -1262979.2662       2147.287          31.000  
  23732630.813    -1805384.4942       3121.361          31.000  
  21657897.871     1759680.317       -3568.984          36.000  
  20302208.185       71512.1163       -565.341          19.000  
  25161388.941       62495.5452       2715.878          32.000  
  24060067.431     1983847.6603      -3460.090          26.000  
  21021930.183      351883.1343      -1784.315          14.000  
 18 10  4 12 58 58.0000000  0 12G23G31G17G18G 1G19G 9G11G 3G 6G14G22
  22158540.919    -1257104.2732       2032.169          31.000  
  24098019.439     -257195.028         338.610          30.000  
  22031393.694     -396722.0222        670.329          33.000  
  22379100.241     2027358.7772      -3626.516          31.000  
  20821161.397     1085933.7683      -2086.975          23.000  
  23322791.474    -1265127.2522       2147.562          31.000  
  23732036.406    -1808506.0402       3121.692          31.000  
  21658577.104     1763249.639       -3569.171          36.000  
  20302316.289       72085.6363       -568.885          19.000  
  25160872.537       59780.5452       2715.477          33.000  
  24060726.735     1987309.1463      -3461.171          26.000  
  21022267.548      353663.2693      -1785.135          16.000  
 18 10  4 12 58 59.0000000  0 12G23G31G17G18G 1G19G 9G11G 3G 6G14G22
  22158160.731    -1259134.1632       2029.043          32.000  
  24097954.035     -257532.581         336.664          30.000  
  22031265.522     -397391.3602        669.514          33.000  
  22379790.502     2030983.7732      -3627.163          31.000  
  20821557.778     1088025.7643      -2097.146          22.000  
  23322382.336    -1267274.5532       2146.567          31.000  
  23731442.017    -1811627.1422       3121.923          32.000  
  21659257.069     1766819.633       -3570.181          36.000  
  20302424.271       72657.2963       -571.892          20.000  
  25160355.836       57065.7092       2712.824          33.000  
  24061385.254     1990771.1473      -3463.270          26.000  
  21022609.590      355453.2703      -1794.465          16.000  
 18 10  4 12 59  0.0000000  0 12G23G31G17G18G 1G19G 9G11G 3G 6G14G22
  22157768.886    -1261163.7582       2028.279          32.000  
  24097889.626     -257869.663         337.282          30.000  
  22031137.909     -398060.2622        669.052          33.000  
  22380480.658     2034608.9542      -3625.779          31.000  
  20821956.027     1090119.3963      -2092.912          21.000  
  23321972.867    -1269421.4372       2149.663          31.000  
  23730847.802    -1814748.2642       3122.069          32.000  
  21659936.668     1770389.842       -3570.305          36.000  
  20302531.886       73227.3623       -577.484          20.000  
  25159839.152       54350.7492       2716.029          32.000  
  24062043.459     1994233.3003      -3463.054          26.000  
  21022952.748      357245.4883      -1785.402          15.000  
 18 10  4 12 59  1.0000000  0 12G23G31G17G18G 1G19G 9G11G 3G 6G14G22
  22157384.353    -1263193.2292       2030.161          32.000  
  24097824.816     -258206.0433        338.772          30.000  
  22031010.418     -398728.863         668.664          32.000  
  22381171.128     2038234.0912      -3625.538          32.000  
  20822354.957     1092215.6313      -2096.994          20.000  
  23321562.752    -1271568.2053       2151.329          30.000  
  23730254.407    -1817869.5382       3122.045          32.000  
  21660615.987     1773960.207       -3570.368          36.000  
  20302639.240       73804.7493       -580.443          20.000  
  25159322.469       51634.942        2717.312          32.000  
  24062704.124     1997695.4473      -3462.074          26.000  
  21023290.253      359021.5923      -1787.379          14.000  
 18 10  4 12 59  2.0000000  0 12G23G31G17G18G 1G19G 9G11G 3G 6G14G22
  22156997.691    -1265222.4862       2028.846          32.000  
  24097760.757     -258542.5442        335.016          30.000  
  22030883.013     -399396.996         669.512          33.000  
  22381860.639     2041859.4193      -3625.921          31.000  
  20822752.333     1094312.3103      -2092.907          20.000  
  23321152.462    -1273714.6883       2145.291          30.000  
  23729660.367    -1820990.8362       3121.244          31.000  
  21661295.778     1777530.889       -3569.163          36.000  
  20302749.944       74379.0973       -564.576          20.000  
  25158806.169       48919.529        2716.581          32.000  
  24063362.852     2001157.7063      -3463.541          26.000  
  21023628.700      360811.5433      -1789.521          17.000  
 18 10  4 12 59  3.0000000  0 12G23G31G17G18G 1G19G 9G11G 3G 6G14G22
  22156611.885    -1267251.0422       2027.688          32.000  
  24097697.116     -258878.0203        335.975          30.000  
  22030755.906     -400064.197         667.837          32.000  
  22382550.743     2045485.3982      -3624.347          31.000  
  20823152.920     1096406.7423      -2090.195          20.000  
  23320743.010    -1275860.3343       2142.733          29.000  
  23729066.065    -1824111.5373       3120.816          31.000  
  21661975.883     1781102.334       -3572.316          37.000  
  20302860.090       74948.3003       -576.583          21.000  
  25158289.503       46204.380        2715.073          32.000  
  24064022.052     2004620.7173      -3462.903          26.000  
  21023969.782      362603.9503      -1796.189          18.000  
 18 10  4 12 59  4.0000000  0 12G23G31G17G18G 1G19G 9G11G 3G 6G14G22
  22156226.514    -1269279.1592       2028.118          32.000  
  24097632.707     -259212.9542        336.108          29.000  
  22030629.113     -400730.747         667.115          32.000  
  22383240.672     2049111.6423      -3627.766          31.000  
  20823550.297     1098500.3033      -2090.246          20.000  
  23320334.326    -1278005.4162       2142.742          29.000  
  23728472.094    -1827232.0822       3121.957          31.000  
  21662655.569     1784674.259       -3571.810          37.000  
  20302970.428       75522.9133       -570.842          22.000  
  25157772.977       43489.271        2714.249          32.000  
  24064679.489     2008084.0733      -3463.353          27.000  
  21024309.188      364395.1843      -1786.697          18.000  
 18 10  4 12 59  5.0000000  0 12G23G31G17G18G 1G19G 9G11G 3G 6G14G22
  22155840.812    -1271307.4082       2027.117          32.000  
  24097568.525     -259547.7363        335.842          30.000  
  22030502.669     -401397.130         667.379          32.000  
  22383931.369     2052737.7302      -3626.958          31.000  
  20823951.215     1100594.5403      -2089.511          21.000  
  23319924.770    -1280150.4583       2143.958          29.000  
  23727878.769    -1830352.9982       3121.518          31.000  
  21663335.377     1788246.103       -3572.100          37.000  
  20303079.683       76095.3833       -574.033          23.000  
  25157255.752       40773.660        2716.229          32.000  
  24065340.521     2011547.2963      -3462.451          27.000  
  21024649.974      366185.6133      -1789.487          18.000  
 18 10  4 12 59  6.0000000  0 12G23G31G17G18G 1G19G 9G11G 3G 6G14G22
  22155455.127    -1273335.2922       2027.028          32.000  
  24097504.134     -259882.0942        335.748          31.000  
  22030374.933     -402063.093         665.351          32.000  
  22384622.153     2056364.1052      -3626.391          31.000  
  20824350.127     1102687.9673      -2094.743          22.000  
  23319515.597    -1282295.1573       2142.623          28.000  
  23727284.869    -1833473.7242       3120.300          31.000  
  21664015.394     1791818.342       -3571.379          37.000  
  20303190.719       76670.2393       -578.011          24.000  
  25156738.301       38058.000        2716.865          32.000  
  24065998.987     2015010.6993      -3464.057          26.000  
  21024989.346      367979.1043      -1789.557          19.000  
 18 10  4 12 59  7.0000000  0 12G23G31G17G18G 1G19G 9G11G 3G 6G14G22
  22155069.634    -1275363.047        2026.314          32.000  
  24097440.929     -260215.5572        333.325          31.000  
  22030248.489     -402728.161         665.112          32.000  
  22385312.781     2059990.9522      -3628.432          32.000  
  20824755.374     1104782.0753      -2099.028          22.000  
  23319107.105    -1284439.1513       2142.508          28.000  
  23726690.916    -1836594.1112       3120.382          32.000  
  21664695.290     1795391.203       -3573.677          37.000  
  20303301.720       77245.2893       -578.823          24.000  
  25156221.391       35342.535        2716.019          32.000  
  24066659.268     2018474.6453      -3466.375          26.000  
  21025331.056      369765.1443      -1793.928          19.000  
 18 10  4 12 59  8.0000000  0 12G23G31G17G18G 1G19G 9G11G 3G 6G14G22
  22154683.374    -1277389.766        2027.276          32.000  
  24097377.585     -260548.2922        333.226          32.000  
  22030122.568     -403392.351         665.512          32.000  
  22386003.076     2063618.3352      -3626.230          32.000  
  20825157.741     1106878.1013      -2093.115          23.000  
  23318698.665    -1286582.2923       2141.640          28.000  
  23726097.085    -1839714.1212       3121.631          31.000  
  21665376.302     1798964.737       -3573.520          37.000  
  20303411.464       77820.6583       -567.469          24.000  
  25155704.061       32627.264        2715.205          32.000  
  24067314.646     2021939.2403      -3464.797          26.000  
  21025670.585      371557.9013      -1807.372          18.000  
 18 10  4 12 59  9.0000000  0 12G23G31G17G18G 1G19G 9G11G 3G 6G14G22
  22154298.230    -1279416.311        2027.654          32.000  
  24097315.113     -260880.6732        334.201          32.000  
  22029996.001     -404056.242         662.447          31.000  
  22386693.773     2067245.8022      -3626.893          32.000  
  20825557.508     1108971.7373      -2094.396          23.000  
  23318290.085    -1288725.4953       2144.124          27.000  
  23725502.922    -1842834.2273       3120.866          31.000  
  21666056.599     1802538.482       -3573.590          37.000  
  20303522.919       78394.7133       -575.988          25.000  
  25155187.169       29911.736        2714.313          32.000  
  24067972.467     2025403.8643      -3463.467          26.000  
  21026013.272      373354.8663      -1790.467          18.000  
 18 10  4 12 59 10.0000000  0 12G23G31G17G18G 1G19G 9G11G 3G 6G14G22
  22153912.685    -1281442.864        2027.632          32.000  
  24097251.961     -261212.8702        333.815          32.000  
  22029869.034     -404719.799         665.363          31.000  
  22387384.523     2070873.0682      -3626.927          32.000  
  20825957.955     1111069.2793      -2096.387          23.000  
  23317881.593    -1290868.3493       2142.641          27.000  
  23724909.685    -1845954.5712       3121.228          31.000  
  21666735.621     1806112.242       -3574.226          37.000  
  20303633.396       78966.8743       -574.138          25.000  
  25154670.241       27195.767        2713.985          32.000  
  24068630.916     2028868.3673      -3463.846          26.000  
  21026354.040      375139.7643      -1808.072          16.000  
 18 10  4 12 59 11.0000000  0 12G23G31G17G18G 1G19G 9G11G 3G 6G14G22
  22153527.227    -1283468.949        2024.583          32.000  
  24097189.332     -261544.4022        329.608          33.000  
  22029741.787     -405382.7053        663.701          30.000  
  22388074.836     2074500.8522      -3628.925          32.000  
  20826358.403     1113164.3173      -2092.752          24.000  
  23317472.839    -1293010.7083       2142.802          27.000  
  23724315.958    -1849074.6583       3118.929          31.000  
  21667415.656     1809686.554       -3574.069          37.000  
  20303741.012       79542.3283       -571.833          25.000  
  25154152.877       24479.938        2715.918          32.000  
  24069293.693     2032333.3333      -3464.687          26.000  
  21026697.687      376942.1413      -1798.646          16.000  
 18 10  4 12 59 12.0000000  0 12G23G31G17G18G 1G19G 9G11G 3G 6G14G22
  22153142.240    -1285494.238        2023.044          32.000  
  24097127.104     -261874.9322        331.138          33.000  
  22029614.575     -406044.6773        661.981          29.000  
  22388765.603     2078129.2702      -3628.062          32.000  
  20826760.980     1115260.4483      -2091.841          24.000  
  23317064.138    -1295151.4733       2131.960          27.000  
  23723722.319    -1852194.1772       3118.033          31.000  
  21668096.075     1813261.698       -3575.903          37.000  
  20303850.617       80119.1313       -572.502          25.000  
  25153637.170       21764.461        2714.112          31.000  
  24069951.566     2035798.9873      -3466.503          26.000  
  21027039.031      378739.0763      -1797.941          16.000  
 18 10  4 12 59 13.0000000  0 12G23G31G17G18G 1G19G 9G11G 3G 6G14G22
  22152757.149    -1287519.127        2024.437          32.000  
  24097064.772     -262205.393         329.087          33.000  
  22029487.694     -406705.9353        660.834          28.000  
  22389456.387     2081758.007       -3630.510          31.000  
  20827160.904     1117356.9363      -2103.035          25.000  
  23316655.855    -1297292.1163       2144.676          26.000  
  23723128.680    -1855313.5102       3118.921          32.000  
  21668776.581     1816837.287       -3574.640          37.000  
  20303959.471       80696.6313       -579.988          25.000  
  25153120.033       19049.004        2716.189          32.000  
  24070611.673     2039265.0223      -3465.436          26.000  
  21027379.275      380537.4113      -1779.386          14.000  
 18 10  4 12 59 14.0000000  0 11G23G31G17G18G 1G19G 9G11G 3G 6G14
  22152371.552    -1289543.5743       2025.372          32.000  
  24097002.370     -262535.229         329.685          32.000  
  22029360.622     -407367.3293        662.805          27.000  
  22390146.788     2085386.642       -3627.526          30.000  
  20827563.096     1119454.6063      -2099.470          25.000  
  23316247.398    -1299433.2753       2141.046          26.000  
  23722534.623    -1858433.1393       3118.995          31.000  
  21669456.931     1820412.813       -3576.348          37.000  
  20304072.165       81274.2163       -576.941          25.000  
  25152603.507       16333.020        2715.438          32.000  
  24071270.192     2042730.9153      -3465.297          26.000  
 18 10  4 12 59 15.0000000  0 11G23G31G17G18G 1G19G 9G11G 3G 6G14
  22151986.739    -1291568.2242       2025.857          32.000  
  24096939.741     -262864.561         328.818          32.000  
  22029224.510     -408027.9673        658.946          26.000  
  22390836.472     2089015.480       -3627.141          30.000  
  20827965.045     1121551.1613      -2100.442          25.000  
  23315838.574    -1301573.8893       2141.161          26.000  
  23721940.687    -1861552.6823       3118.266          31.000  
  21670136.966     1823988.730       -3576.237          37.000  
  20304183.497       81853.3083       -584.625          25.000  
  25152086.439       13617.029        2717.126          31.000  
  24071929.950     2046196.9983      -3466.115          27.000  
 18 10  4 12 59 16.0000000  0 11G23G31G17G18G 1G19G 9G11G 3G 6G14
  22151601.788    -1293592.2162       2021.718          32.000  
  24096876.990     -263192.5493        324.846          32.000  
  22029093.180     -408687.6753        658.567          25.000  
  22391527.728     2092644.8853      -3629.212          30.000  
  20828367.831     1123650.6343      -2103.497          26.000  
  23315429.768    -1303713.6453       2138.819          26.000  
  23721346.856    -1864671.7393       3118.357          31.000  
  21670817.367     1827565.376       -3576.537          37.000  
  20304291.357       82432.2653       -571.706          25.000  
  25151570.227       10901.249        2714.538          32.000  
  24072589.306     2049663.7493      -3466.079          26.000  
 18 10  4 12 59 17.0000000  0 11G23G31G17G18G 1G19G 9G11G 3G 6G14
  22151216.626    -1295615.7812       2023.632          32.000  
  24096815.164     -263520.4092        326.423          32.000  
  22028962.128     -409346.9813        655.585          23.000  
  22392218.128     2096274.6693      -3627.638          30.000  
  20828766.969     1125750.7943      -2100.981          26.000  
  23315023.038    -1305852.7913       2138.991          27.000  
  23720753.706    -1867790.6622       3118.637          31.000  
  21671498.973     1831142.496       -3576.721          37.000  
  20304401.276       83011.0923       -579.079          25.000  
  25151052.968        8185.534        2717.719          31.000  
  24073249.221     2053130.8813      -3467.209          26.000  
 18 10  4 12 59 18.0000000  0 11G23G31G17G18G 1G19G 9G11G 3G 6G14
  22150831.395    -1297639.2492       2023.458          32.000  
  24096753.530     -263847.9452        328.241          32.000  
  22028830.920     -410007.0763        662.303          23.000  
  22392908.267     2099904.4203      -3630.327          30.000  
  20829169.040     1127848.9273      -2108.076          25.000  
  23314616.989    -1307991.3163       2139.722          27.000  
  23720160.172    -1870909.6712       3119.643          30.000  
  21672179.339     1834719.718       -3577.155          37.000  
  20304511.666       83589.8383       -581.239          25.000  
  25150536.581        5469.426        2714.237          32.000  
  24073908.228     2056597.9563      -3467.290          26.000  
 18 10  4 12 59 19.0000000  0 11G23G31G17G18G 1G19G 9G11G 3G 6G14
  22150446.374    -1299662.5352       2022.902          32.000  
  24096690.971     -264175.2002        326.932          32.000  
  22028703.830     -410665.9863        654.292          23.000  
  22393598.545     2103534.0223      -3630.174          29.000  
  20829568.248     1129950.3413      -2098.217          24.000  
  23314209.073    -1310129.9603       2139.486          27.000  
  23719566.672    -1874028.8093       3115.429          30.000  
  21672860.177     1838297.171       -3578.463          36.000  
  20304622.492       84170.6793       -580.646          25.000  
  25150019.077        2753.199        2717.880          32.000  
  24074568.562     2060065.2033      -3466.931          26.000  
 18 10  4 12 59 20.0000000  0 11G23G31G17G18G 1G19G 9G11G 3G 6G14
  22150061.003    -1301685.3932       2023.075          32.000  
  24096629.267     -264501.7752        327.448          32.000  
  22028579.846     -411324.6443        651.821          24.000  
  22394288.998     2107164.8603      -3630.758          28.000  
  20829967.387     1132052.3033      -2107.711          24.000  
  23313802.081    -1312268.0833       2138.137          27.000  
  23718972.806    -1877147.5842       3119.318          30.000  
  21673540.718     1841875.157       -3579.046          36.000  
  20304728.328       84748.1063       -577.641          24.000  
  25149502.132          37.4753       2715.784          31.000  
  24075228.878     2063532.8503      -3468.746          26.000  
 18 10  4 12 59 21.0000000  0 11G23G31G17G18G 1G19G 9G11G 3G 6G14
  22149676.645    -1303707.3962       2023.247          32.000  
  24096567.266     -264827.3722        326.708          32.000  
  22028455.269     -411979.2633        655.766          26.000  
  22394979.102     2110795.7293      -3630.930          28.000  
  20830365.060     1134152.4533      -2105.796          23.000  
  23313395.788    -1314405.3963       2136.267          27.000  
  23718379.935    -1880265.8452       3117.986          30.000  
  21674221.538     1845453.944       -3578.686          36.000  
  20304839.503       85328.5773       -582.770          23.000  
  25148985.414       -2678.3582       2716.226          31.000  
  24075886.874     2067001.1643      -3468.791          27.000  
 18 10  4 12 59 22.0000000  0 11G23G31G17G18G 1G19G 9G11G 3G 6G14
  22149291.675    -1305729.1422       2019.528          32.000  
  24096506.505     -265152.4252        325.844          32.000  
  22028331.338     -412635.3733        657.271          27.000  
  22395669.485     2114427.5213      -3630.811          28.000  
  20830765.403     1136256.0363      -2104.461          22.000  
  23312988.482    -1316542.1503       2136.853          27.000  
  23717786.453    -1883384.0292       3118.843          30.000  
  21674902.446     1849033.156       -3578.137          36.000  
  20304947.939       85909.1553       -587.002          23.000  
  25148468.748       -5394.2502       2716.250          31.000  
  24076546.422     2070469.9003      -3468.634          27.000  
 18 10  4 12 59 23.0000000  0 11G23G31G17G18G 1G19G 9G11G 3G 6G14
  22148906.601    -1307750.8852       2023.787          31.000  
  24096444.591     -265477.3562        324.181          33.000  
  22028208.209     -413291.3613        655.578          28.000  
  22396360.217     2118058.4903      -3630.764          28.000  
  20831168.224     1138357.3263      -2101.116          23.000  
  23312582.468    -1318678.9413       2136.966          27.000  
  23717192.902    -1886502.4803       3118.130          30.000  
  21675583.318     1852612.319       -3580.213          36.000  
  20305058.241       86492.1633       -584.804          23.000  
  25147951.942       -8110.5852       2717.464          32.000  
  24077208.100     2073938.3383      -3468.379          27.000  
 18 10  4 12 59 24.0000000  0 11G23G31G17G18G 1G19G 9G11G 3G 6G14
  22148521.650    -1309772.2162       2021.231          31.000  
  24096382.818     -265801.7082        323.802          33.000  
  22028088.605     -413946.7463        656.049          29.000  
  22397051.542     2121689.8483      -3632.393          30.000  
  20831568.515     1140457.7813      -2098.298          23.000  
  23312176.820    -1320815.2133       2135.904          27.000  
  23716599.647    -1889620.7213       3115.849          29.000  
  21676263.946     1856191.998       -3579.843          36.000  
  20305165.595       87074.4693       -592.333          22.000  
  25147435.066      -10826.9262       2715.591          32.000  
  24077868.765     2077407.2073      -3468.728          27.000  
 18 10  4 12 59 25.0000000  0 11G23G31G17G18G 1G19G 9G11G 3G 6G14
  22148136.645    -1311793.473        2019.537          31.000  
  24096321.096     -266125.688         324.264          34.000  
  22027968.583     -414601.2573        653.941          30.000  
  22397742.693     2125321.7543      -3631.353          30.000  
  20831969.329     1142560.0583      -2105.446          24.000  
  23311772.551    -1322950.6993       2134.741          27.000  
  23716005.833    -1892738.5332       3119.688          30.000  
  21676945.168     1859772.328       -3580.379          36.000  
  20305275.968       87659.5693       -577.518          22.000  
  25146918.313      -13542.9913       2716.336          32.000  
  24078530.582     2080876.6753      -3470.481          27.000  
 18 10  4 12 59 26.0000000  0 11G23G31G17G18G 1G19G 9G11G 3G 6G14
  22147752.461    -1313813.635        2018.512          31.000  
  24096259.706     -266448.444         323.052          34.000  
  22027848.368     -415255.0503        653.378          31.000  
  22398433.774     2128954.0773      -3632.865          30.000  
  20832370.230     1144662.7163      -2101.035          24.000  
  23311363.553    -1325085.6113       2135.468          27.000  
  23715411.374    -1895856.0213       3117.155          30.000  
  21677626.425     1863353.227       -3581.465          36.000  
  20305386.009       88237.2803       -579.316          22.000  
  25146401.211      -16259.0002       2716.321          32.000  
  24079189.851     2084346.5533      -3470.981          27.000  
 18 10  4 12 59 27.0000000  0 11G23G31G17G18G 1G19G 9G11G 3G 6G14
  22147367.702    -1315833.810        2021.239          31.000  
  24096198.788     -266771.089         321.428          34.000  
  22027734.401     -415908.4923        652.790          33.000  
  22399125.186     2132586.3293      -3632.245          30.000  
  20832772.091     1146766.2573      -2092.372          25.000  
  23310957.836    -1327220.3703       2134.414          27.000  
  23714818.381    -1898973.7953       3119.881          30.000  
  21678308.013     1866934.188       -3582.326          36.000  
  20305499.383       88818.1463       -590.733          21.000  
  25145884.615      -18975.2933       2718.220          32.000  
  24079851.842     2087816.4623      -3469.634          27.000  
 18 10  4 12 59 28.0000000  0 11G23G31G17G18G 1G19G 9G11G 3G 6G14
  22146982.750    -1317853.919        2021.947          30.000  
  24096137.799     -267093.481         323.706          34.000  
  22027615.198     -416561.7972        652.523          34.000  
  22399817.175     2136218.5043      -3631.591          30.000  
  20833171.736     1148866.2923      -2104.514          24.000  
  23310552.589    -1329355.0153       2134.879          27.000  
  23714224.812    -1902091.7463       3119.126          29.000  
  21678989.112     1870515.215       -3580.956          37.000  
  20305609.424       89404.3543       -582.094          22.000  
  25145367.861      -21692.1362       2716.697          32.000  
  24080512.979     2091286.2753      -3469.096          27.000  
 18 10  4 12 59 29.0000000  0 11G23G31G17G18G 1G19G 9G11G 3G 6G14
  22146598.583    -1319873.435        2016.451          30.000  
  24096076.880     -267414.946         322.845          34.000  
  22027482.786     -417214.1832        652.252          34.000  
  22400508.203     2139851.3303      -3632.467          30.000  
  20833571.869     1150972.5273      -2104.175          23.000  
  23310147.151    -1331488.8763       2133.296          28.000  
  23713631.783    -1905209.2433       3117.748          30.000  
  21679670.281     1874097.015       -3581.730          36.000  
  20305721.193       89987.8813       -584.069          22.000  
  25144851.300      -24408.5273       2716.285          32.000  
  24081172.772     2094756.6573      -3471.352          27.000  
 18 10  4 12 59 30.0000000  0 11G23G31G17G18G 1G19G 9G11G 3G 6G14
  22146214.172    -1321891.8083       2016.750          31.000  
  24096017.096     -267735.703         319.951          34.000  
  22027358.837     -417865.7892        651.316          34.000  
  22401199.127     2143484.5863      -3634.048          29.000  
  20833970.293     1153078.8003      -2102.320          23.000  
  23309740.299    -1333622.1193       2131.725          27.000  
  23713039.122    -1908325.8733       3117.793          28.000  
  21680351.712     1877679.370       -3582.885          37.000  
  20305833.939       90571.5343       -588.045          22.000  
  25144334.826      -27124.8082       2715.560          32.000  
  24081834.938     2098227.6053      -3471.288          28.000  
 18 10  4 12 59 31.0000000  0 11G23G31G17G18G 1G19G 9G11G 3G 6G14
  22145830.093    -1323910.5702       2018.688          31.000  
  24095956.125     -268056.112         319.766          34.000  
  22027236.040     -418517.0582        649.433          35.000  
  22401893.541     2147118.8933      -3633.595          29.000  
  20834370.740     1155182.6313      -2107.206          24.000  
  23309333.517    -1335755.0683       2133.460          27.000  
  23712446.617    -1911443.2753       3123.609          28.000  
  21681033.300     1881261.931       -3582.041          37.000  
  20305943.369       91155.0053       -590.772          22.000  
  25143817.130      -29841.3632       2716.711          32.000  
  24082493.142     2101698.6853      -3471.595          28.000  
 18 10  4 12 59 32.0000000  0 11G23G31G17G18G 1G19G 9G11G 3G 6G14
  22145446.782    -1325929.0663       2018.277          30.000  
  24095895.381     -268376.092         319.632          34.000  
  22027112.685     -419167.8442        650.107          34.000  
  22402583.977     2150752.3563      -3633.787          30.000  
  20834770.054     1157287.6683      -2097.485          24.000  
  23308930.050    -1337887.6713       2132.479          27.000  
  23711853.135    -1914560.8013       3117.015          29.000  
  21681714.749     1884844.800       -3583.511          36.000  
  20306055.050       91740.7023       -585.828          22.000  
  25143299.993      -32558.0312       2716.695          32.000  
  24083154.139     2105169.8623      -3471.023          28.000  
 18 10  4 12 59 33.0000000  0 11G23G31G17G18G 1G19G 9G11G 3G 6G14
  22145062.772    -1327947.1382       2017.372          31.000  
  24095834.933     -268695.417         319.975          34.000  
  22026987.915     -419817.9712        649.159          34.000  
  22403281.095     2154386.3083      -3634.111          31.000  
  20835172.491     1159393.0303      -2107.281          24.000  
  23308523.268    -1340019.7303       2132.500          28.000  
  23711259.723    -1917677.7743       3116.573          29.000  
  21682396.721     1888428.186       -3583.229          36.000  
  20306164.620       92324.8183       -588.233          22.000  
  25142782.856      -35274.6762       2714.773          31.000  
  24083815.816     2108641.4083      -3471.849          28.000  
 18 10  4 12 59 34.0000000  0 11G23G31G17G18G 1G19G 9G11G 3G 6G14
  22144679.635    -1329964.4632       2017.400          31.000  
  24095774.328     -269013.866         317.486          34.000  
  22026864.036     -420467.1182        647.952          35.000  
  22403968.355     2158020.8772      -3633.528          31.000  
  20835572.083     1161497.3533      -2106.144          23.000  
  23308118.633    -1342150.9413       2130.882          28.000  
  23710666.067    -1920794.2273       3116.885          28.000  
  21683078.867     1892012.328       -3584.188          36.000  
  20306281.205       92911.6943       -586.774          22.000  
  25142266.068      -37991.0052       2717.156          31.000  
  24084476.674     2112113.6633      -3472.220          28.000  
 18 10  4 12 59 35.0000000  0 11G23G31G17G18G 1G19G 9G11G 3G 6G14
  22144296.149    -1331981.5333       2016.790          31.000  
  24095713.829     -269331.848         317.985          34.000  
  22026740.210     -421115.8732        647.417          35.000  
  22404661.966     2161655.4942      -3634.165          32.000  
  20835972.601     1163602.6343      -2104.599          22.000  
  23307713.648    -1344281.8373       2130.574          28.000  
  23710072.689    -1923910.6713       3116.519          27.000  
  21683760.996     1895596.706       -3584.708          36.000  
  20306390.984       93496.1973       -580.519          22.000  
  25141749.297      -40707.5212       2716.002          31.000  
  24085137.810     2115586.0593      -3472.032          29.000  
 18 10  4 12 59 36.0000000  0 11G23G31G17G18G 1G19G 9G11G 3G 6G14
  22143912.401    -1333998.7362       2016.798          31.000  
  24095654.271     -269649.726         318.369          34.000  
  22026616.714     -421764.4202        648.490          35.000  
  22405359.399     2165290.0012      -3636.992          32.000  
  20836371.355     1165708.9453      -2112.721          21.000  
  23307308.751    -1346412.6313       2131.558          28.000  
  23709479.277    -1927027.4103       3116.022          28.000  
  21684442.898     1899181.111       -3584.394          36.000  
  20306504.079       94081.0043       -589.776          22.000  
  25141231.950      -43424.4832       2718.001          31.000  
  24085800.517     2119058.3613      -3472.024          29.000  
 18 10  4 12 59 37.0000000  0 11G23G31G17G18G 1G19G 9G11G 3G 6G14
  22143528.654    -1336015.6982       2015.798          31.000  
  24095593.858     -269967.259         317.618          34.000  
  22026493.045     -422412.621         647.810          35.000  
  22406050.497     2168924.5292      -3636.226          32.000  
  20836771.035     1167818.2363      -2113.475          21.000  
  23306902.614    -1348543.2783       2130.593          28.000  
  23708885.446    -1930144.2063       3108.396          27.000  
  21685124.783     1902765.689       -3585.990          36.000  
  20306615.691       94667.4773       -589.300          22.000  
  25140715.057      -46142.120        2717.721          31.000  
  24086463.189     2122530.7003      -3473.016          29.000  
 18 10  4 12 59 38.0000000  0 11G23G31G17G18G 1G19G 9G11G 3G 6G14
  22143145.080    -1338031.9782       2014.507          31.000  
  24095533.463     -270283.969         317.442          34.000  
  22026369.584     -423059.930         646.648          34.000  
  22406739.728     2172559.7352      -3636.045          32.000  
  20837171.099     1169924.8183      -2105.750          22.000  
  23306497.926    -1350673.0693       2129.762          28.000  
  23708290.725    -1933259.9783       3116.210          26.000  
  21685806.615     1906350.988       -3584.942          36.000  
  20306729.030       95250.5343       -592.843          21.000  
  25140198.007      -48859.083        2716.678          31.000  
  24087124.465     2126003.6503      -3473.017          29.000  
 18 10  4 12 59 39.0000000  0 11G23G31G17G18G 1G19G 9G11G 3G 6G14
  22142762.013    -1340047.7902       2017.082          31.000  
  24095473.103     -270599.958         317.184          34.000  
  22026245.740     -423706.523         645.619          34.000  
  22407429.187     2176195.2992      -3635.955          32.000  
  20837570.744     1172034.1193      -2105.829          24.000  
  23306090.830    -1352802.3433       2128.735          28.000  
  23707697.662    -1936376.0493       3117.174          26.000  
  21686488.779     1909936.818       -3585.806          37.000  
  20306844.044       95837.2163       -582.973          20.000  
  25139680.975      -51575.900        2718.360          31.000  
  24087788.411     2129477.0763      -3473.442          30.000  
 18 10  4 12 59 40.0000000  0 11G23G31G17G18G 1G19G 9G11G 3G 6G14
  22142378.126    -1342063.6803       2014.490          30.000  
  24095412.551     -270915.707         316.332          34.000  
  22026121.948     -424352.838         646.491          34.000  
  22408122.117     2179830.8072      -3634.799          33.000  
  20837972.814     1174143.7063      -2112.596          25.000  
  23305684.258    -1354931.3923       2128.785          28.000  
  23707103.256    -1939492.3313       3117.437          26.000  
  21687171.449     1913522.769       -3585.866          37.000  
  20306956.197       96428.1313       -584.667          20.000  
  25139164.152      -54293.109        2714.426          31.000  
  24088451.153     2132950.4543      -3473.992          30.000  
 18 10  4 12 59 41.0000000  0 11G23G31G17G18G 1G19G 9G11G 3G 6G14
  22141994.518    -1344079.3603       2015.459          30.000  
  24095352.941     -271231.229         315.216          34.000  
  22025998.331     -424998.891         645.776          34.000  
  22408813.949     2183466.2302      -3634.497          33.000  
  20838373.175     1176252.6873      -2103.890          25.000  
  23305278.837    -1357060.3243       2128.181          29.000  
  23706509.285    -1942607.8113       3117.253          25.000  
  21687854.084     1917108.747       -3586.997          37.000  
  20307066.308       97013.5653       -584.577          20.000  
  25138646.578      -57010.1243       2714.870          31.000  
  24089112.341     2136423.7773      -3473.852          30.000  
 18 10  4 12 59 42.0000000  0 11G23G31G17G18G 1G19G 9G11G 3G 6G14
  22141610.404    -1346094.4203       2015.556          30.000  
  24095292.929     -271545.829         315.773          33.000  
  22025874.993     -425644.030         643.118          34.000  
  22409505.832     2187102.2962      -3635.967          33.000  
  20838777.234     1178362.4833      -2108.100          25.000  
  23304876.155    -1359188.4343       2127.898          29.000  
  23705915.855    -1945721.7373       3116.982          24.000  
  21688536.528     1920695.563       -3587.378          36.000  
  20307178.373       97596.1103       -588.948          20.000  
  25138128.551      -59727.3403       2719.426          31.000  
  24089773.774     2139897.8233      -3474.164          30.000  
 18 10  4 12 59 43.0000000  0 11G23G31G17G18G 1G19G 9G11G 3G 6G14
  22141226.604    -1348108.8333       2011.432          30.000  
  24095233.913     -271859.609         312.503          33.000  
  22025751.498     -426288.271         643.613          33.000  
  22410198.466     2190738.928       -3638.755          33.000  
  20839181.591     1180474.4923      -2108.171          25.000  
  23304474.068    -1361315.7643       2127.145          29.000  
  23705322.740    -1948836.0073       3116.285          25.000  
  21689219.442     1924283.027       -3586.700          36.000  
  20307292.026       98186.8003       -585.238          19.000  
  25137610.541      -62444.3263       2716.989          30.000  
  24090435.417     2143372.3943      -3474.443          29.000  
 18 10  4 12 59 44.0000000  0 11G23G31G17G18G 1G19G 9G11G 3G 6G14
  22140842.524    -1350122.9823       2016.229          30.000  
  24095174.530     -272173.019         313.497          34.000  
  22025628.229     -426932.127         641.422          33.000  
  22410890.245     2194375.709       -3638.243          32.000  
  20839586.785     1182584.8523      -2110.451          25.000  
  23304074.946    -1363442.7103       2129.276          30.000  
  23704729.572    -1951949.5513       3109.217          24.000  
  21689902.565     1927870.706       -3588.974          36.000  
  20307406.325       98770.6233       -573.332          18.000  
  25137092.602      -65161.5042       2716.326          29.000  
  24091095.349     2146847.1373      -3473.732          29.000  
 18 10  4 12 59 45.0000000  0 11G23G31G17G18G 1G19G 9G11G 3G 6G14
  22140458.881    -1352137.0873       2012.373          29.000  
  24095115.879     -272486.159         311.424          34.000  
  22025505.677     -427575.647         642.699          32.000  
  22411582.408     2198012.460       -3635.506          32.000  
  20839994.631     1184696.9423      -2110.590          25.000  
  23303668.932    -1365569.6322       2126.974          31.000  
  23704134.886    -1955063.1243       3117.875          25.000  
  21690585.148     1931458.578       -3587.321          36.000  
  20307520.956       99355.7783       -589.391          18.000  
  25136574.540      -67878.9493       2717.822          29.000  
  24091755.631     2150321.8803      -3474.186          29.000  
 18 10  4 12 59 46.0000000  0 11G23G31G17G18G 1G19G 9G11G 3G 6G14
  22140075.500    -1354150.7313       2011.955          29.000  
  24095056.339     -272798.662         311.969          34.000  
  22025382.565     -428218.557         641.645          32.000  
  22412273.489     2201649.5233      -3638.998          31.000  
  20840398.185     1186809.9953      -2107.267          25.000  
  23303262.377    -1367695.9562       2125.911          31.000  
  23703541.771    -1958180.5503       3120.815          24.000  
  21691267.556     1935046.898       -3587.977          36.000  
  20307634.906       99947.6513       -594.868          18.000  
  25136057.175      -70596.4953       2715.097          29.000  
  24092414.621     2153796.9083      -3475.988          29.000  
 18 10  4 12 59 47.0000000  0 11G23G31G17G18G 1G19G 9G11G 3G 6G14
  22139691.298    -1356163.7743       2011.477          29.000  
  24094997.584     -273110.307         312.922          34.000  
  22025259.611     -428860.537         640.683          32.000  
  22412965.617     2205287.1892      -3638.105          31.000  
  20840797.708     1188922.3333      -2105.059          25.000  
  23302859.050    -1369821.4992       2124.044          31.000  
  23702947.347    -1961294.6193       3118.595          25.000  
  21691950.645     1938635.935       -3588.658          35.000  
  20307751.840      100538.0103       -591.735          19.000  
  25135539.742      -73313.7073       2719.712          28.000  
  24093077.293     2157272.6893      -3476.146          29.000  
 18 10  4 12 59 48.0000000  0 11G23G31G17G18G 1G19G 9G11G 3G 6G14
  22139308.702    -1358176.4483       2014.113          29.000  
  24094938.463     -273421.419         310.075          35.000  
  22025137.076     -429502.005         642.708          32.000  
  22413657.239     2208925.1252      -3639.578          31.000  
  20841199.028     1191033.7223      -2105.522          25.000  
  23302456.351    -1371946.5862       2124.659          31.000  
  23702354.196    -1964410.7293       3120.303          25.000  
  21692634.240     1942225.303       -3589.545          36.000  
  20307865.964      101126.5803       -586.297          19.000  
  25135021.714      -76030.9623       2718.517          29.000  
  24093736.928     2160748.6153      -3476.790          29.000  
 18 10  4 12 59 49.0000000  0 11G23G31G17G18G 1G19G 9G11G 3G 6G14
  22138925.565    -1360189.0783       2012.734          28.000  
  24094880.999     -273732.324         309.871          35.000  
  22025013.877     -430143.171         642.352          31.000  
  22414349.175     2212562.9722      -3635.982          31.000  
  20841598.551     1193146.3943      -2110.984          25.000  
  23302051.785    -1374071.5873       2124.595          30.000  
  23701760.226    -1967525.7043       3113.293          24.000  
  21693317.364     1945814.790       -3589.149          35.000  
  20307980.368      101717.2723       -590.758          18.000  
  25134504.054      -78748.5843       2719.622          28.000  
  24094398.065     2164224.5983      -3476.703          29.000  
 18 10  4 12 59 50.0000000  0 11G23G31G17G18G 1G19G 9G11G 3G 6G14
  22138541.888    -1362201.4803       2010.822          28.000  
  24094822.297     -274042.852         310.173          35.000  
  22024890.975     -430783.897         639.997          31.000  
  22415041.670     2216200.8683      -3643.147          30.000  
  20841997.881     1195259.6483      -2110.652          25.000  
  23301648.144    -1376196.2202       2128.239          31.000  
  23701165.889    -1970639.9833       3116.063          22.000  
  21693999.877     1949404.528       -3589.514          35.000  
  20308096.010      102304.5733       -599.111          17.000  
  25133986.637      -81466.4403       2720.407          28.000  
  24095059.131     2167700.6093      -3476.237          29.000  
 18 10  4 12 59 51.0000000  0 11G23G31G17G18G 1G19G 9G11G 3G 6G14
  22138158.716    -1364213.0543       2012.181          28.000  
  24094763.978     -274352.274         308.904          36.000  
  22024768.475     -431423.663         637.193          31.000  
  22415734.007     2219839.7162      -3639.089          31.000  
  20842398.189     1197371.0133      -2108.391          26.000  
  23301243.788    -1378319.9682       2124.013          31.000  
  23700571.953    -1973753.2313       3109.495          21.000  
  21694683.122     1952995.170       -3591.818          35.000  
  20308208.058      102891.3373       -589.272          17.000  
  25133468.994      -84183.8393       2716.568          28.000  
  24095719.797     2171177.4593      -3477.428          28.000  
 18 10  4 12 59 52.0000000  0 11G23G31G17G18G 1G19G 9G11G 3G 6G14
  22137775.753    -1366224.0123       2011.350          29.000  
  24094706.410     -274660.980         309.624          36.000  
  22024646.533     -432062.596         638.388          31.000  
  22416426.676     2223478.9852      -3636.333          31.000  
  20842802.057     1199484.9723      -2115.860          26.000  
  23300839.711    -1380442.9963       2119.771          31.000  
  23699978.593    -1976858.8133       3104.956          18.000  
  21695366.839     1956586.404       -3592.195          35.000  
  20308324.748      103481.0853       -591.123          18.000  
  25132952.049      -86901.0783       2715.967          28.000  
  24096379.153     2174654.8243      -3477.464          29.000  
 18 10  4 12 59 53.0000000  0 10G23G31G17G18G 1G19G11G 3G 6G14
  22137392.756    -1368235.2773       2010.083          28.000  
  24094648.196     -274969.601         307.649          36.000  
  22024524.922     -432701.2983        642.636          31.000  
  22417118.280     2227118.0603      -3638.038          30.000  
  20843202.802     1201598.0923      -2113.130          26.000  
  23300435.948    -1382566.0192       2123.322          31.000  
  21696049.440     1960177.592       -3591.553          34.000  
  20308437.755      104071.3643       -593.563          18.000  
  25132434.964      -89618.6873       2718.989          28.000  
  24097041.720     2178132.0363      -3477.069          28.000  
 18 10  4 12 59 54.0000000  0 10G23G31G17G18G 1G19G11G 3G 6G14
  22137008.903    -1370246.0873       2011.060          28.000  
  24094590.017     -275277.898         308.531          36.000  
  22024403.591     -433339.7692        639.027          32.000  
  22417810.304     2230757.2163      -3639.732          29.000  
  20843600.667     1203711.9093      -2114.575          25.000  
  23300031.434    -1384688.8302       2121.273          30.000  
  21696732.022     1963768.944       -3591.812          34.000  
  20308551.060      104660.7383       -596.758          18.000  
  25131917.582      -92336.7903       2718.405          28.000  
  24097703.904     2181609.2683      -3477.144          28.000  
 18 10  4 12 59 55.0000000  0 10G23G31G17G18G 1G19G11G 3G 6G14
  22136628.070    -1372256.5073       2010.129          27.000  
  24094531.838     -275585.411         307.371          36.000  
  22024282.189     -433977.4552        637.224          31.000  
  22418500.669     2234396.7523      -3639.981          29.000  
  20844000.119     1205826.2493      -2116.641          25.000  
  23299628.107    -1386811.0062       2120.417          30.000  
  21697414.797     1967360.873       -3593.441          34.000  
  20308665.463      105253.1403       -599.544          19.000  
  25131399.224      -95054.4803       2723.628          28.000  
  24098365.110     2185086.9393      -3477.723          28.000  
 18 10  4 12 59 56.0000000  0 11G23G31G17G18G 1G19G11G 3G 6G14G22
  22136244.409    -1374266.1853       2008.138          27.000  
  24094474.409     -275892.097         305.032          36.000  
  22024160.457     -434614.1492        636.078          31.000  
  22419191.488     2238036.6453      -3637.695          29.000  
  20844401.003     1207941.5633      -2115.545          25.000  
  23299224.292    -1388932.2943       2120.560          30.000  
  21698098.305     1970953.609       -3594.435          34.000  
  20308781.629      105846.5543       -579.684          18.000  
  25130881.825      -97772.0693       2716.065          28.000  
  24099024.501     2188565.3153      -3478.591          28.000  
  21042093.229      457826.9123      -1799.537          16.000  
 18 10  4 12 59 57.0000000  0 11G23G31G17G18G 1G19G11G 3G 6G14G22
  22135858.794    -1376275.5913       2009.533          26.000  
  24094416.702     -276198.234         306.777          36.000  
  22024039.021     -435250.3852        636.152          31.000  
  22419882.517     2241676.9463      -3639.448          29.000  
  20844801.782     1210057.1013      -2116.603          25.000  
  23298820.075    -1391053.1593       2121.385          30.000  
  21698781.795     1974546.699       -3591.668          33.000  
  20308895.684      106439.9533       -596.853          19.000  
  25130364.583     -100489.8133       2715.641          28.000  
  24099687.714     2192043.9573      -3478.646          27.000  
  21042434.154      459631.4613      -1804.378          17.000  
 18 10  4 12 59 58.0000000  0 11G23G31G17G18G 1G19G11G 3G 6G14G22
  22135474.401    -1378284.9933       2008.603          26.000  
  24094358.994     -276504.233         306.637          36.000  
  22023917.183     -435886.3663        637.210          31.000  
  22420575.413     2245317.2733      -3640.274          30.000  
  20845204.254     1212172.7623      -2116.647          25.000  
  23298416.155    -1393174.0363       2121.054          30.000  
  21699465.006     1978139.761       -3592.862          33.000  
  20309009.616      107032.4143       -600.860          19.000  
  25129847.079     -103207.8443       2719.208          27.000  
  24100347.367     2195522.5063      -3478.790          27.000  
  21042775.271      461434.0203      -1810.493          18.000  
 18 10  4 12 59 59.0000000  0 11G23G31G17G18G 1G19G11G 3G 6G14G22
  22135085.802    -1380293.9383       2009.610          25.000  
  24094300.501     -276809.547         303.852          35.000  
  22023795.555     -436521.6702        635.128          30.000  
  22421265.900     2248958.1123      -3641.028          30.000  
  20845605.958     1214288.9203      -2117.511          25.000  
  23298012.671    -1395294.2533       2122.746          30.000  
  21700148.600     1981733.376       -3593.882          33.000  
  20309122.502      107629.0083       -594.909          20.000  
  25129327.464     -105925.4713       2720.148          26.000  
  24101009.341     2199001.3683      -3478.729          27.000  
  21043119.965      463243.3463      -1816.225          17.000  
 18 10  4 13  0  0.0000000  0 12G23G31G17G18G 1G19G 9G11G 3G 6G14G22
  22134699.332    -1382302.1583       2010.171          25.000  
  24094242.444     -277113.944         302.680          35.000  
  22023673.613     -437156.0442        635.229          30.000  
  22421961.571     2252599.4472      -3642.217          31.000  
  20846006.301     1216405.8313      -2116.260          26.000  
  23297608.751    -1397413.6742       2120.778          30.000  
  23695236.654    -2001764.2033       3119.657          15.000  
  21700832.056     1985327.731       -3594.760          33.000  
  20309235.126      108224.4843       -594.845          21.000  
  25128809.053     -108644.4953       2717.137          26.000  
  24101671.158     2202481.0033      -3479.508          27.000  
  21043460.296      465043.3413      -1789.046          16.000  
 18 10  4 13  0  1.0000000  0 12G23G31G17G18G 1G19G 9G11G 3G 6G14G22
  22134314.206    -1384310.6423       2006.598          24.000  
  24094185.207     -277417.806         304.339          35.000  
  22023551.322     -437789.7712        632.953          30.000  
  22422654.048     2256241.0592      -3642.411          31.000  
  20846412.176     1218523.1663      -2117.283          26.000  
  23297204.621    -1399532.6782       2119.856          30.000  
  23694647.116    -2004877.1463       3107.412          17.000  
  21701515.336     1988922.482       -3594.619          33.000  
  20309346.772      108818.9363       -593.008          21.000  
  25128290.450     -111361.9733       2717.638          26.000  
  24102331.195     2205960.8673      -3479.675          27.000  
  21043808.306      466853.8553      -1798.221          15.000  
 18 10  4 13  0  2.0000000  0 12G23G31G17G18G 1G19G 9G11G 3G 6G14G22
  22133930.528    -1386318.4133       2008.468          23.000  
  24094126.696     -277721.482         303.057          35.000  
  22023429.607     -438423.3213        632.021          29.000  
  22423346.978     2259882.6142      -3640.130          31.000  
  20846815.852     1220640.5783      -2117.951          27.000  
  23296800.474    -1401651.4982       2118.902          30.000  
  23694052.569    -2007993.5423       3118.289          19.000  
  21702199.926     1992517.355       -3594.079          34.000  
  20309459.274      109414.4063       -599.503          22.000  
  25127774.011     -114079.9643       2716.851          27.000  
  24102992.890     2209440.7013      -3479.974          27.000  
  21044147.364      468646.5083      -1797.458          16.000  
 18 10  4 13  0  3.0000000  0 12G23G31G17G18G 1G19G 9G11G 3G 6G14G22
  22133545.698    -1388326.4483       2010.208          22.000  
  24094068.011     -278024.630         303.346          34.000  
  22023308.118     -439056.3712        631.673          29.000  
  22424038.112     2263524.2452      -3642.199          31.000  
  20847216.421     1222758.2513      -2118.816          27.000  
  23296396.554    -1403769.9412       2120.174          30.000  
  23693462.630    -2011106.1623       3113.750          22.000  
  21702884.969     1996112.487       -3596.771          34.000  
  20309573.363      110011.8723       -595.286          22.000  
  25127255.739     -116798.1233       2718.682          26.000  
  24103653.660     2212921.3733      -3483.433          26.000  
  21044490.522      470449.7363      -1808.092          16.000  
 18 10  4 13  0  4.0000000  0 12G23G31G17G18G 1G19G 9G11G 3G 6G14G22
  22133160.746    -1390332.9003       2006.854          21.000  
  24094009.431     -278326.5403        302.878          33.000  
  22023187.031     -439688.6483        630.907          29.000  
  22424731.374     2267166.4442      -3640.884          32.000  
  20847621.249     1224876.6223      -2118.711          28.000  
  23295992.930    -1405887.6563       2120.583          29.000  
  23692866.478    -2014221.2223       3106.069          21.000  
  21703569.367     1999708.219       -3595.788          33.000  
  20309688.116      110611.8743       -600.485          22.000  
  25126740.330     -119516.1213       2717.352          27.000  
  24104314.151     2216401.7843      -3479.685          26.000  
  21044833.035      472254.1873      -1810.431          16.000  
 18 10  4 13  0  5.0000000  0 12G23G31G17G18G 1G19G 9G11G 3G 6G14G22
  22132776.562    -1392339.6133       2002.612          21.000  
  24093951.583     -278628.2782        300.656          33.000  
  22023066.293     -440320.1453        632.237          29.000  
  22425426.050     2270808.9902      -3643.313          32.000  
  20848024.454     1226995.4543      -2118.460          28.000  
  23295588.783    -1408004.8823       2115.755          28.000  
  23692273.101    -2017334.3093       3119.477          21.000  
  21704254.008     2003304.515       -3596.230          33.000  
  20309798.994      111210.9133       -603.404          22.000  
  25126224.135     -122234.0113       2719.457          27.000  
  24104976.422     2219882.6303      -3482.460          26.000  
  21045178.340      474068.0243      -1811.677          16.000  
 18 10  4 13  0  6.0000000  0 12G23G31G17G18G 1G19G 9G11G 3G 6G14G22
  22132395.624    -1394345.0563       2010.662          21.000  
  24093894.556     -278929.6162        301.714          33.000  
  22022945.869     -440951.3533        630.558          30.000  
  22426121.197     2274451.6042      -3643.328          33.000  
  20848428.723     1229114.5783      -2118.591          28.000  
  23295186.102    -1410121.8093       2116.870          29.000  
  23691681.399    -2020447.9393       3107.129          20.000  
  21704938.458     2006901.023       -3596.118          33.000  
  20309911.531      111807.0423       -588.604          22.000  
  25125704.467     -124952.1643       2718.892          27.000  
  24105638.657     2223363.6853      -3482.864          25.000  
  21045522.842      475878.4363      -1815.857          16.000  
 18 10  4 13  0  7.0000000  0 12G23G31G17G18G 1G19G 9G11G 3G 6G14G22
  22132013.290    -1396352.9823       2012.903          21.000  
  24093837.442     -279230.6192        299.635          33.000  
  22022826.213     -441582.0322        630.167          30.000  
  22426814.738     2278094.365       -3642.313          33.000  
  20848832.922     1231234.0013      -2120.624          28.000  
  23294783.229    -1412238.4143       2116.014          29.000  
  23691091.738    -2023560.2063       3111.559          22.000  
  21705623.519     2010497.833       -3597.651          33.000  
  20310019.478      112404.1893       -594.008          22.000  
  25125186.562     -127670.5383       2718.388          26.000  
  24106301.103     2226845.4113      -3480.517          25.000  
  21045869.247      477694.2323      -1815.857          14.000  
 18 10  4 13  0  8.0000000  0 12G23G31G17G18G 1G19G 9G11G 3G 6G14G22
  22131632.910    -1398361.6233       2015.340          21.000  
  24093780.379     -279530.9922        299.206          32.000  
  22022706.330     -442212.0922        630.031          31.000  
  22427508.280     2281737.465       -3642.252          33.000  
  20849235.900     1233353.7923      -2121.120          27.000  
  23294379.762    -1414354.4073       2116.379          29.000  
  23690502.497    -2026672.2723       3111.737          25.000  
  21706308.737     2014095.045       -3595.990          33.000  
  20310130.845      113001.4543       -594.639          22.000  
  25124669.547     -130388.8573       2718.136          26.000  
  24106962.536     2230326.9243      -3481.660          25.000  
  21046214.551      479498.9303      -1796.382          13.000  
 18 10  4 13  0  9.0000000  0 12G23G31G17G18G 1G19G 9G11G 3G 6G14G22
  22131250.157    -1400367.9433       2004.198          21.000  
  24093723.090     -279830.6442        299.874          32.000  
  22022587.512     -442841.4162        629.924          32.000  
  22428202.310     2285381.037       -3643.438          33.000  
  20849637.971     1235474.2563      -2119.669          27.000  
  23293976.645    -1416469.8703       2112.136          29.000  
  23689912.156    -2029784.4243       3113.509          26.000  
  21706993.797     2017692.849       -3598.615          33.000  
  20310240.607      113598.3593       -596.491          22.000  
  25124154.382     -133107.0253       2717.403          26.000  
  24107625.679     2233808.9313      -3482.031          25.000  
  21046555.319      481302.5903      -1807.887          15.000  
 18 10  4 13  0 10.0000000  0 12G23G31G17G18G 1G19G 9G11G 3G 6G14G22
  22130868.782    -1402370.8713       2007.979          20.000  
  24093666.133     -280129.6152        297.896          32.000  
  22022468.710     -443470.0542        630.808          33.000  
  22428895.205     2289024.904       -3645.217          33.000  
  20850042.920     1237595.0823      -2119.954          27.000  
  23293574.470    -1418584.7133       2114.050          28.000  
  23689323.473    -2032896.4713       3112.455          27.000  
  21707679.015     2021291.126       -3598.785          33.000  
  20310349.200      114197.4573       -600.453          22.000  
  25123635.796     -135825.1633       2718.922          26.000  
  24108288.962     2237291.3123      -3482.198          25.000  
  21046897.588      483103.9973      -1807.197          15.000  
 18 10  4 13  0 11.0000000  0 12G23G31G17G18G 1G19G 9G11G 3G 6G14G22
  22130488.228    -1404373.9323       2008.151          21.000  
  24093609.472     -280428.4812        295.561          32.000  
  22022350.468     -444098.6252        627.856          33.000  
  22429588.886     2292668.617       -3642.801          33.000  
  20850444.188     1239715.9743      -2120.431          27.000  
  23293171.195    -1420699.5273       2111.907          27.000  
  23688732.870    -2036008.6433       3113.508          27.000  
  21708364.093     2024889.359       -3598.413          33.000  
  20310456.274      114793.0493       -592.810          22.000  
  25123118.171     -138543.8203       2718.259          26.000  
  24108951.983     2240773.5243      -3482.136          24.000  
  21047242.544      484909.6303      -1815.455          17.000  
 18 10  4 13  0 12.0000000  0 12G23G31G17G18G 1G19G 9G11G 3G 6G14G22
  22130104.254    -1406378.9843       2004.720          20.000  
  24093553.160     -280726.8753        296.325          32.000  
  22022232.138     -444726.5732        627.145          34.000  
  22430282.201     2296312.644       -3644.419          33.000  
  20850847.759     1241837.2483      -2122.406          26.000  
  23292767.798    -1422813.9573       2115.480          27.000  
  23688143.577    -2039120.7383       3112.444          27.000  
  21709049.433     2028487.989       -3600.461          33.000  
  20310565.146      115390.9483       -596.534          23.000  
  25122601.365     -141262.5033       2716.924          26.000  
  24109617.359     2244255.9143      -3485.521          24.000  
  21047587.325      486718.4273      -1811.243          17.000  
 18 10  4 13  0 13.0000000  0 12G23G31G17G18G 1G19G 9G11G 3G 6G14G22
  22129723.245    -1408385.5953       2005.317          21.000  
  24093496.709     -281024.4443        298.793          32.000  
  22022113.930     -445353.677         627.361          34.000  
  22430976.371     2299957.079       -3644.044          34.000  
  20851251.959     1243959.1423      -2120.913          26.000  
  23292364.559    -1424927.8673       2117.727          27.000  
  23687550.199    -2042232.4223       3112.519          26.000  
  21709734.302     2032087.261       -3600.866          34.000  
  20310677.613      115989.5613       -603.168          23.000  
  25122085.362     -143980.9253       2719.734          26.000  
  24110281.410     2247739.0483      -3481.181          24.000  
  21047934.270      488527.4183      -1804.299          18.000  
 18 10  4 13  0 14.0000000  0 12G23G31G17G18G 1G19G 9G11G 3G 6G14G22
  22129340.510    -1410389.1133       2001.385          20.000  
  24093440.379     -281321.3272        296.590          33.000  
  22021995.897     -445980.212         626.291          35.000  
  22431670.279     2303601.976       -3644.193          33.000  
  20851656.158     1246081.5943      -2124.984          26.000  
  23291959.626    -1427040.9673       2113.139          26.000  
  23686957.782    -2045343.4013       3113.495          26.000  
  21710419.467     2035687.004       -3599.330          34.000  
  20310790.603      116589.5163       -601.022          25.000  
  25121566.532     -146699.4043       2719.226          26.000  
  24110943.506     2251222.4533      -3481.768          24.000  
  21048280.081      490346.5463      -1811.591          17.000  
 18 10  4 13  0 15.0000000  0 12G23G31G17G18G 1G19G 9G11G 3G 6G14G22
  22128960.113    -1412392.7953       2009.569          20.000  
  24093383.527     -281617.9792        298.580          33.000  
  22021878.090     -446606.328         625.257          36.000  
  22432363.768     2307246.836       -3645.054          34.000  
  20852060.096     1248204.1793      -2122.673          26.000  
  23291555.985    -1429154.0013       2113.061          26.000  
  23686368.471    -2048456.9843       3113.165          25.000  
  21711104.737     2039286.948       -3599.993          34.000  
  20310905.932      117191.5883       -599.323          25.000  
  25121050.006     -149418.1013       2717.204          26.000  
  24111607.016     2254706.1053      -3487.183          24.000  
  21048626.329      492153.9893      -1817.118          18.000  
 18 10  4 13  0 16.0000000  0 12G23G31G17G18G 1G19G 9G11G 3G 6G14G22
  22128579.611    -1414397.7673       1998.053          20.000  
  24093327.459     -281914.2892        296.079          33.000  
  22021760.057     -447232.162         625.031          36.000  
  22433057.885     2310891.733       -3644.117          34.000  
  20852462.044     1250326.9413      -2123.930          25.000  
  23291153.898    -1431266.7903       2112.642          26.000  
  23685776.507    -2051571.0913       3113.203          25.000  
  21711790.426     2042886.994       -3601.183          33.000  
  20311019.602      117792.1363       -598.669          26.000  
  25120533.462     -152137.1313       2720.189          26.000  
  24112268.658     2258191.5243      -3485.646          25.000  
  21048971.110      493966.7673      -1818.306          18.000  
 18 10  4 13  0 17.0000000  0 11G31G17G18G 1G19G 9G11G 3G 6G14G22
  24093271.566     -282209.6142        293.108          33.000  
  22021642.443     -447856.922         623.635          37.000  
  22433752.404     2314537.348       -3646.275          34.000  
  20852866.244     1252450.1793      -2122.507          23.000  
  23290749.890    -1433378.6563       2111.781          25.000  
  23685185.625    -2054681.6413       3114.176          25.000  
  21712475.958     2046487.963       -3602.487          34.000  
  20311132.139      118391.4843       -598.638          26.000  
  25120015.016     -154855.7593       2717.010          26.000  
  24112932.238     2261675.4123      -3486.118          25.000  
  21049314.583      495778.1983      -1807.722          19.000  
 18 10  4 13  0 18.0000000  0 11G31G17G18G 1G19G 9G11G 3G 6G14G22
  24093215.097     -282504.1742        292.927          33.000  
  22021524.880     -448480.902         624.532          37.000  
  22434446.434     2318183.419       -3647.195          34.000  
  20853267.180     1254573.4993      -2120.673          22.000  
  23290346.389    -1435489.7383       2112.058          25.000  
  23684593.365    -2057791.4663       3104.234          25.000  
  21713161.367     2050089.498       -3602.068          34.000  
  20311247.240      118992.8313       -602.264          27.000  
  25119497.756     -157574.1583       2717.064          26.000  
  24113598.330     2265160.1593      -3485.162          25.000  
  21049659.259      497587.0003      -1804.218          20.000  
 18 10  4 13  0 19.0000000  0 11G31G17G18G 1G19G 9G11G 3G 6G14G22
  24093158.401     -282798.4472        294.502          33.000  
  22021407.406     -449104.653         623.563          37.000  
  22435140.673     2321829.456       -3645.857          34.000  
  20853669.512     1256698.7313      -2124.356          21.000  
  23289946.988    -1437600.1113       2111.540          25.000  
  23684000.790    -2060900.8243       3111.641          27.000  
  21713846.794     2053691.131       -3601.884          33.000  
  20311363.598      119594.4053       -600.503          27.000  
  25118983.272     -160292.9003       2720.134          26.000  
  24114263.305     2268644.9283      -3484.197          26.000  
  21050005.349      499394.2633      -1808.694          21.000  
 18 10  4 13  0 20.0000000  0 11G31G17G18G 1G19G 9G11G 3G 6G14G22
  24093102.089     -283092.3822        294.504          33.000  
  22021289.931     -449728.010         622.817          37.000  
  22435834.564     2325475.586       -3646.808          34.000  
  20854071.041     1258821.9413      -2130.430          21.000  
  23289546.279    -1439710.8183       2110.585          26.000  
  23683408.687    -2064011.9083       3110.509          27.000  
  21714532.169     2057292.954       -3601.347          33.000  
  20311478.403      120196.0493       -602.576          27.000  
  25118465.803     -163011.9423       2717.625          26.000  
  24114929.729     2272129.6833      -3484.645          26.000  
  21050349.119      501202.7053      -1811.363          21.000  
 18 10  4 13  0 21.0000000  0 11G31G17G18G 1G19G 9G11G 3G 6G14G22
  24093045.865     -283385.7602        292.992          32.000  
  22021172.369     -450350.679         622.000          38.000  
  22436528.437     2329122.019       -3645.871          35.000  
  20854474.456     1260946.8483      -2118.432          20.000  
  23289141.800    -1441821.0193       2109.525          25.000  
  23682817.194    -2067122.6673       3109.803          27.000  
  21715217.649     2060895.245       -3603.721          33.000  
  20311592.231      120798.1883       -602.933          27.000  
  25117945.176     -165730.9273       2718.086          26.000  
  24115593.972     2275614.8783      -3485.531          26.000  
  21050697.949      503017.7283      -1811.656          21.000  
 18 10  4 13  0 22.0000000  0 11G31G17G18G 1G19G 9G11G 3G 6G14G22
  24092989.309     -283678.3592        293.199          32.000  
  22021054.475     -450972.597         621.147          38.000  
  22437222.676     2332768.950       -3648.128          35.000  
  20854877.276     1263072.3763      -2128.583          20.000  
  23288740.061    -1443930.4893       2108.835          25.000  
  23682223.834    -2070233.0653       3110.765          27.000  
  21715903.582     2064498.152       -3604.974          33.000  
  20311708.554      121402.1213       -604.478          27.000  
  25117429.208     -168449.7423       2717.965          26.000  
  24116259.715     2279100.5193      -3485.599          26.000  
  21051045.749      504827.1073      -1814.047          22.000  
 18 10  4 13  0 23.0000000  0 12G23G31G17G18G 1G19G 9G11G 3G 6G14G22
  22125914.945    -1428423.1453       2004.455          19.000  
  24092933.346     -283970.2222        291.670          31.000  
  22020936.477     -451593.749         620.492          38.000  
  22437917.195     2336416.339       -3647.623          35.000  
  20855280.376     1265195.8053      -2125.969          19.000  
  23288339.334    -1446039.2883       2108.235          25.000  
  23681633.982    -2073343.1283       3110.501          28.000  
  21716590.161     2068101.678       -3602.838          33.000  
  20311825.104      122005.3243       -603.649          27.000  
  25116912.367     -171168.4213       2718.242          26.000  
  24116924.551     2282586.6793      -3486.215          27.000  
  21051389.780      506639.9153      -1809.251          22.000  
 18 10  4 13  0 24.0000000  0 12G23G31G17G18G 1G19G 9G11G 3G 6G14G22
  22125535.438    -1430421.8423       1994.679          19.000  
  24092877.505     -284261.9593        291.039          31.000  
  22020818.810     -452214.742         619.952          38.000  
  22438611.975     2340063.527       -3647.009          35.000  
  20855687.263     1267322.0523      -2131.797          19.000  
  23287937.404    -1448148.5793       2110.210          25.000  
  23681042.036    -2076453.4873       3110.919          29.000  
  21717275.361     2071705.151       -3602.228          34.000  
  20311940.642      122608.5213       -603.289          27.000  
  25116394.759     -173887.5543       2719.627          26.000  
  24117587.258     2286072.6363      -3485.806          27.000  
  21051734.945      508450.7563      -1807.491          22.000  
 18 10  4 13  0 25.0000000  0 12G23G31G17G18G 1G19G 9G11G 3G 6G14G22
  22125151.882    -1432423.9293       2004.490          19.000  
  24092821.856     -284553.2483        289.870          30.000  
  22020700.794     -452835.260         619.035          37.000  
  22439306.215     2343710.928       -3647.568          35.000  
  20856093.853     1269448.9963      -2129.843          20.000  
  23287535.525    -1450257.0873       2106.424          25.000  
  23680449.427    -2079563.8653       3109.400          30.000  
  21717961.120     2075308.918       -3602.886          34.000  
  20312055.185      123212.0083       -603.322          27.000  
  25115878.023     -176606.9153       2718.771          26.000  
  24118252.216     2289558.8323      -3486.884          27.000  
  21052083.670      510266.6223      -1814.900          22.000  
 18 10  4 13  0 26.0000000  0 12G23G31G17G18G 1G19G 9G11G 3G 6G14G22
  22124771.764    -1434425.0353       1998.879          19.000  
  24092765.056     -284843.7122        290.145          29.000  
  22020583.075     -453454.960         618.879          37.000  
  22440000.035     2347358.804       -3647.596          35.000  
  20856502.642     1271578.7723      -2120.169          21.000  
  23287135.147    -1452365.8503       2107.740          25.000  
  23679859.609    -2082674.0013       3109.558          31.000  
  21718647.349     2078913.277       -3605.390          34.000  
  20312169.415      123816.1053       -604.043          27.000  
  25115359.367     -179326.0183       2718.456          25.000  
  24118916.528     2293045.5253      -3486.036          27.000  
  21052427.579      512079.2003      -1806.881          22.000  
 18 10  4 13  0 27.0000000  0 12G23G31G17G18G 1G19G 9G11G 3G 6G14G22
  22124389.412    -1436423.9633       2000.101          18.000  
  24092709.477     -285133.6923        291.094          29.000  
  22020464.989     -454073.985         618.745          37.000  
  22440694.065     2351007.051       -3647.304          36.000  
  20856914.397     1273705.4583      -2122.048          22.000  
  23286733.984    -1454472.6893       2108.976          24.000  
  23679269.722    -2085783.7362       3111.249          32.000  
  21719334.260     2082518.187       -3605.153          35.000  
  20312286.157      124420.3253       -601.996          26.000  
  25114841.637     -182045.0043       2718.284          26.000  
  24119583.388     2296532.5713      -3486.820          28.000  
  21052772.221      513890.1843      -1809.675          22.000  
 18 10  4 13  0 28.0000000  0 12G23G31G17G18G 1G19G 9G11G 3G 6G14G22
  22124009.015    -1438422.3593       2005.170          18.000  
  24092653.898     -285423.2453        292.463          29.000  
  22020347.375     -454692.794         616.930          37.000  
  22441388.776     2354655.212       -3649.034          36.000  
  20857322.837     1275832.7693      -2132.421          23.000  
  23286331.861    -1456581.7363       2109.026          24.000  
  23678679.922    -2088893.6912       3109.816          32.000  
  21720020.559     2086123.122       -3606.210          35.000  
  20312399.670      125024.1363       -602.300          25.000  
  25114322.388     -184764.3473       2721.037          25.000  
  24120249.655     2300019.6343      -3487.743          28.000  
  21053117.334      515701.4463      -1810.807          22.000  
 18 10  4 13  0 29.0000000  0 12G23G31G17G18G 1G19G 9G11G 3G 6G14G22
  22123629.437    -1440428.4103       2003.315          18.000  
  24092598.337     -285712.4993        291.354          28.000  
  22020229.952     -455311.120         616.360          36.000  
  22442082.265     2358303.543       -3649.776          36.000  
  20857730.352     1277961.9343      -2131.987          24.000  
  23285932.653    -1458687.6163       2101.458          24.000  
  23678088.325    -2092003.5732       3110.558          32.000  
  21720706.527     2089728.385       -3604.687          35.000  
  20312514.144      125629.2373       -608.348          25.000  
  25113805.548     -187484.3703       2721.500          25.000  
  24120913.165     2303506.8123      -3487.775          27.000  
  21053463.302      517516.6293      -1819.699          22.000  
 18 10  4 13  0 30.0000000  0 12G23G31G17G18G 1G19G 9G11G 3G 6G14G22
  22123248.691    -1442426.2783       2000.382          18.000  
  24092542.339     -286001.0503        287.915          27.000  
  22020111.762     -455928.927         618.057          36.000  
  22442777.290     2361952.031       -3648.049          36.000  
  20858138.443     1280089.7603      -2128.600          25.000  
  23285531.525    -1460794.4593       2104.942          25.000  
  23677494.023    -2095113.4742       3107.576          32.000  
  21721392.879     2093333.901       -3605.613          35.000  
  20312629.280      126234.4523       -609.458          25.000  
  25113284.833     -190203.6673       2720.934          25.000  
  24121576.587     2306994.2003      -3488.200          27.000  
  21053807.263      519331.4973      -1824.387          22.000  
 18 10  4 13  0 31.0000000  0 12G23G31G17G18G 1G19G 9G11G 3G 6G14G22
  22122870.877    -1444427.1453       2000.407          18.000  
  24092486.184     -286288.7103        287.789          26.000  
  22019993.973     -456545.683         615.821          35.000  
  22443472.350     2365601.287       -3649.218          36.000  
  20858548.000     1282218.9733      -2130.115          26.000  
  23285132.089    -1462898.0383       2103.459          25.000  
  23676901.640    -2098222.6932       3110.362          32.000  
  21722079.144     2096940.311       -3606.037          35.000  
  20312744.783      126839.7963       -605.660          25.000  
  25112768.254     -192922.2573       2716.314          26.000  
  24122241.423     2310482.3613      -3487.860          28.000  
  21054150.945      521145.5933      -1814.516          21.000  
 18 10  4 13  0 32.0000000  0 12G23G31G17G18G 1G19G 9G11G 3G 6G14G22
  22122490.846    -1446427.2283       1999.117          18.000  
  24092430.640     -286576.0273        284.308          26.000  
  22019875.765     -457162.038         617.162          35.000  
  22444166.921     2369250.633       -3648.628          36.000  
  20858955.689     1284348.5063      -2128.994          27.000  
  23284733.160    -1465002.7923       2104.503          26.000  
  23676312.538    -2101331.8752       3112.163          32.000  
  21722765.304     2100546.974       -3607.304          35.000  
  20312860.583      127446.6863       -604.513          24.000  
  25112251.658     -195640.9193       2719.639          25.000  
  24122905.892     2313970.6943      -3487.643          28.000  
  21054493.825      522958.7163      -1814.199          20.000  
 18 10  4 13  0 33.0000000  0 12G23G31G17G18G 1G19G 9G11G 3G 6G14G22
  22122110.902    -1448424.4383       1986.070          18.000  
  24092375.445     -286862.6353        286.279          24.000  
  22019757.889     -457777.981         615.218          35.000  
  22444860.898     2372900.065       -3649.573          36.000  
  20859360.080     1286478.2393      -2129.956          27.000  
  23284332.782    -1467107.5763       2103.591          26.000  
  23675720.487    -2104441.2182       3109.934          32.000  
  21723451.604     2104153.916       -3605.013          35.000  
  20312976.365      128055.4793       -604.448          23.000  
  25111734.870     -198361.7383       2718.074          25.000  
  24123569.367     2317459.1223      -3487.896          28.000  
  21054834.610      524770.0993      -1813.174          20.000  
 18 10  4 13  0 34.0000000  0 12G23G31G17G18G 1G19G 9G11G 3G 6G14G22
  22121732.407    -1450421.5083       1994.759          17.000  
  24092317.231     -287150.4553        283.290          21.000  
  22019640.117     -458393.424         615.012          34.000  
  22445555.557     2376549.695       -3649.431          36.000  
  20859763.460     1288608.3113      -2129.894          27.000  
  23283934.324    -1469211.9513       2104.955          27.000  
  23675128.750    -2107550.4232       3108.277          32.000  
  21724138.095     2107761.052       -3608.059          35.000  
  20313091.955      128663.2203       -609.191          23.000  
  25111217.052     -201081.9883       2723.770          25.000  
  24124233.993     2320947.6933      -3489.324          28.000  
  21055177.734      526581.5283      -1819.729          20.000  
 18 10  4 13  0 35.0000000  0 12G23G31G17G18G 1G19G 9G11G 3G 6G14G22
  22121352.568    -1452421.4253       1998.769          17.000  
  24092257.516     -287436.8493        284.547          18.000  
  22019521.927     -459008.027         614.767          33.000  
  22446249.430     2380199.857       -3650.895          35.000  
  20860167.310     1290739.0023      -2131.717          27.000  
  23283536.232    -1471315.7153       2104.270          27.000  
  23674537.624    -2110659.3172       3107.979          33.000  
  21724824.220     2111368.926       -3606.963          35.000  
  20313206.586      129270.4473       -603.139          23.000  
  25110699.095     -203801.5433       2719.578          25.000  
  24124898.253     2324436.8263      -3487.770          28.000  
  21055523.527      528395.8533      -1822.933          20.000  
 18 10  4 13  0 36.0000000  0 12G23G31G17G18G 1G19G 9G11G 3G 6G14G22
  22120976.638    -1454418.5583       1992.441          18.000  
  24092197.994     -287721.2903        285.034          19.000  
  22019403.440     -459621.971         612.924          32.000  
  22446944.035     2383850.446       -3650.447          36.000  
  20860574.738     1292870.3193      -2131.322          26.000  
  23283139.100    -1473418.7523       2102.377          28.000  
  23673946.306    -2113767.8792       3109.025          31.000  
  21725511.288     2114977.300       -3608.663          35.000  
  20313321.373      129877.7343       -611.664          24.000  
  25110179.776     -206520.9243       2719.665          25.000  
  24125561.554     2327926.3993      -3488.341          28.000  
  21055866.302      530215.0523      -1821.799          19.000  
 18 10  4 13  0 37.0000000  0 12G23G31G17G18G 1G19G 9G11G 3G 6G14G22
  22120596.677    -1456414.1503       1993.995          18.000  
  24092142.293     -288005.1563        287.619          20.000  
  22019285.005     -460235.4173        613.433          31.000  
  22447638.397     2387501.067       -3650.837          35.000  
  20860981.171     1295001.8303      -2131.407          26.000  
  23282739.245    -1475521.5463       2102.701          28.000  
  23673354.831    -2116876.960        3109.539          32.000  
  21726197.884     2118585.931       -3607.182          35.000  
  20313435.620      130486.3063       -608.446          24.000  
  25109661.749     -209241.5953       2720.836          26.000  
  24126224.138     2331416.1153      -3490.020          28.000  
  21056208.675      532030.1203      -1807.488          19.000  
 18 10  4 13  0 38.0000000  0 12G23G31G17G18G 1G19G 9G11G 3G 6G14G22
  22120218.199    -1458406.2873       1996.034          19.000  
  24092086.731     -288285.9513        290.422          19.000  
  22019166.257     -460848.5803        614.087          30.000  
  22448332.602     2391151.677       -3649.780          35.000  
  20861383.747     1297133.4143      -2132.471          26.000  
  23282338.676    -1477624.1003       2102.737          28.000  
  23672763.269    -2119985.722        3108.820          32.000  
  21726884.184     2122194.623       -3608.902          35.000  
  20313550.233      131095.5243       -607.944          23.000  
  25109145.502     -211964.5143       2714.754          26.000  
  24126888.067     2334905.7723      -3490.373          28.000  
  21056555.812      533843.2273      -1822.901          18.000  
 18 10  4 13  0 39.0000000  0 12G23G31G17G18G 1G19G 9G11G 3G 6G14G22
  22119840.280    -1460401.3413       2003.121          20.000  
  24092032.915     -288574.3083        284.471          19.000  
  22019047.944     -461461.2443        613.166          29.000  
  22449027.417     2394802.640       -3651.647          34.000  
  20861787.632     1299265.4973      -2133.110          26.000  
  23281937.321    -1479726.2143       2102.573          29.000  
  23672171.863    -2123094.262        3106.577          33.000  
  21727571.722     2125803.775       -3609.404          35.000  
  20313668.441      131705.4243       -609.772          23.000  
  25108629.813     -214684.2653       2722.260          26.000  
  24127551.315     2338395.7733      -3490.855          28.000  
  21056903.386      535660.4003      -1812.796          19.000  
 18 10  4 13  0 40.0000000  0 12G23G31G17G18G 1G19G 9G11G 3G 6G14G22
  22119460.284    -1462395.1663       2009.137          19.000  
  24091980.494     -288861.2773        284.378          20.000  
  22018930.208     -462072.8413        610.090          29.000  
  22449721.656     2398454.216       -3652.210          34.000  
  20862190.226     1301398.2923      -2132.569          25.000  
  23281540.398    -1481827.4343       2100.955          29.000  
  23671580.912    -2126202.292        3107.996          33.000  
  21728258.877     2129413.687       -3610.186          35.000  
  20313785.130      132315.0923       -613.539          23.000  
  25108113.182     -217403.9613       2720.966          26.000  
  24128214.458     2341886.4233      -3490.577          28.000  
  21057246.492      537466.7193      -1816.135          18.000  
 18 10  4 13  0 41.0000000  0 12G23G31G17G18G 1G19G 9G11G 3G 6G14G22
  22119078.997    -1464394.0593       1995.460          19.000  
  24091930.866     -289144.4653        278.490          21.000  
  22018812.035     -462683.7233        610.566          28.000  
  22450416.891     2402106.147       -3650.846          34.000  
  20862593.972     1303531.6683      -2134.202          25.000  
  23281141.626    -1483928.1673       2100.002          29.000  
  23670988.791    -2129310.180        3107.218          33.000  
  21728946.189     2133024.086       -3608.758          35.000  
  20313902.099      132925.8273       -606.283          22.000  
  25107594.230     -220123.6593       2718.619          26.000  
  24128876.414     2345377.4833      -3491.092          28.000  
  21057590.802      539280.9003      -1816.221          19.000  
 18 10  4 13  0 42.0000000  0 12G23G31G17G18G 1G19G 9G11G 3G 6G14G22
  22118698.564    -1466388.6643       1980.482          18.000  
  24091878.655     -289425.4203        282.920          24.000  
  22018694.246     -463294.5633        607.288          28.000  
  22451111.688     2405757.925       -3652.335          34.000  
  20863000.335     1305664.9493      -2131.835          24.000  
  23280742.487    -1486028.8493       2101.043          30.000  
  23670397.124    -2132418.307        3110.289          32.000  
  21729632.872     2136634.415       -3610.702          35.000  
  20314018.824      133534.7083       -623.398          21.000  
  25107076.028     -222843.7253       2720.417          26.000  
  24129540.779     2348868.3643      -3490.456          28.000  
  21057936.351      541095.0273      -1804.489          19.000  
 18 10  4 13  0 43.0000000  0 11G31G17G18G 1G19G 9G11G 3G 6G14G22
  24091827.456     -289706.9153        280.703          26.000  
  22018577.486     -463904.6362        611.583          29.000  
  22451806.451     2409410.011       -3651.866          35.000  
  20863406.699     1307799.2693      -2134.419          23.000  
  23280344.203    -1488128.9513       2100.494          30.000  
  23669805.562    -2135526.268        3107.765          32.000  
  21730320.044     2140245.261       -3610.235          35.000  
  20314134.728      134152.7983       -619.907          20.000  
  25106557.233     -225563.8453       2719.653          25.000  
  24130207.360     2352359.5843      -3491.208          28.000  
  21058285.478      542910.1183      -1815.108          21.000  
 18 10  4 13  0 44.0000000  0 11G31G17G18G 1G19G 9G11G 3G 6G14G22
  24091776.920     -289987.6203        279.992          27.000  
  22018460.535     -464513.9792        607.570          30.000  
  22452501.319     2413062.607       -3652.942          34.000  
  20863809.781     1309935.5493      -2136.114          23.000  
  23279944.401    -1490228.3973       2099.871          31.000  
  23669214.139    -2138633.805        3107.171          33.000  
  21731007.234     2143856.708       -3612.185          35.000  
  20314250.510      134764.7273       -611.008          20.000  
  25106037.199     -228283.7363       2719.917          25.000  
  24130872.562     2355851.3213      -3492.493          27.000  
  21058633.453      544727.8233      -1814.804          20.000  
 18 10  4 13  0 45.0000000  0 11G31G17G18G 1G19G 9G11G 3G 6G14G22
  24091728.810     -290267.6353        279.568          27.000  
  22018345.084     -465122.5682        609.453          30.000  
  22453196.728     2416715.598       -3653.451          35.000  
  20864213.248     1312067.1423      -2124.465          21.000  
  23279543.971    -1492327.2113       2098.505          31.000  
  23668623.135    -2141741.046        3107.659          32.000  
  21731694.581     2147468.682       -3611.977          35.000  
  20314368.735      135378.5103       -616.272          20.000  
  25105519.958     -231003.6263       2719.951          25.000  
  24131537.136     2359343.5353      -3491.988          27.000  
  21058979.264      546544.1313      -1819.903          20.000  
 18 10  4 13  0 46.0000000  0 11G31G17G18G 1G19G 9G11G 3G 6G14G22
  24091675.953     -290547.4133        279.139          27.000  
  22018229.546     -465730.9532        609.784          31.000  
  22453892.049     2420368.492       -3653.743          35.000  
  20864618.948     1314203.4983      -2132.293          21.000  
  23279146.281    -1494425.9033       2098.830          31.000  
  23668031.625    -2144848.538        3107.076          32.000  
  21732381.700     2151080.734       -3611.552          35.000  
  20314487.885      135987.9593       -610.167          21.000  
  25105002.733     -233723.3533       2725.957          25.000  
  24132200.279     2362835.6443      -3491.561          27.000  
  21059326.279      548365.5393      -1817.031          20.000  
 18 10  4 13  0 47.0000000  0 12G23G31G17G18G 1G19G 9G11G 3G 6G14G22
  22116804.256    -1476346.2363       1993.088          17.000  
  24091624.196     -290826.9433        280.058          27.000  
  22018114.375     -466339.0662        606.321          31.000  
  22454587.580     2424021.422       -3652.344          35.000  
  20865026.620     1316336.3643      -2136.068          21.000  
  23278744.995    -1496524.6163       2098.109          31.000  
  23667439.452    -2147956.137        3109.406          33.000  
  21733068.995     2154692.894       -3612.048          35.000  
  20314609.025      136597.7823       -612.142          22.000  
  25104485.980     -236444.6383       2722.201          26.000  
  24132863.597     2366327.6883      -3492.516          27.000  
  21059670.938      550181.9743      -1818.880          20.000  
 18 10  4 13  0 48.0000000  0 12G23G31G17G18G 1G19G 9G11G 3G 6G14G22
  22116424.714    -1478336.1843       1992.589          17.000  
  24091572.019     -291106.0163        278.234          26.000  
  22017999.553     -466946.6462        607.855          32.000  
  22455283.407     2427674.507       -3655.185          35.000  
  20865432.808     1318475.2093      -2139.590          22.000  
  23278343.728    -1498622.7192       2097.773          32.000  
  23666848.064    -2151063.701        3108.988          33.000  
  21733755.975     2158305.373       -3612.479          35.000  
  20314729.868      137209.7423       -611.977          23.000  
  25103967.987     -239166.8023       2716.912          26.000  
  24133528.852     2369820.0923      -3493.862          26.000  
  21060016.731      551998.2803      -1816.277          21.000  
 18 10  4 13  0 49.0000000  0 12G23G31G17G18G 1G19G 9G11G 3G 6G14G22
  22116044.561    -1480328.7113       1992.209          17.000  
  24091519.180     -291384.0873        277.743          25.000  
  22017885.149     -467553.234         605.812          32.000  
  22455979.374     2431328.321       -3654.030          35.000  
  20865839.015     1320610.4173      -2141.217          23.000  
  23277948.829    -1500719.9042       2098.073          32.000  
  23666257.077    -2154170.662        3108.925          33.000  
  21734443.688     2161918.676       -3614.171          35.000  
  20314851.670      137822.7143       -616.668          24.000  
  25103451.967     -241885.4203       2719.890          26.000  
  24134191.629     2373313.1623      -3492.236          25.000  
  21060363.048      553815.9593      -1818.023          21.000  
 18 10  4 13  0 50.0000000  0 12G23G31G17G18G 1G19G 9G11G 3G 6G14G22
  22115667.688    -1482319.9243       1990.379          17.000  
  24091466.446     -291661.6153        277.587          24.000  
  22017770.972     -468159.305         606.958          32.000  
  22456675.045     2434982.286       -3654.691          35.000  
  20866246.320     1322745.8153      -2136.099          23.000  
  23277551.418    -1502816.8072       2097.265          32.000  
  23665666.649    -2157277.581        3106.781          33.000  
  21735130.302     2165532.282       -3613.372          35.000  
  20314970.122      138438.1953       -614.486          24.000  
  25102935.737     -244605.7843       2721.663          26.000  
  24134856.377     2376806.3973      -3494.287          25.000  
  21060708.144      555634.4603      -1818.566          21.000  
 18 10  4 13  0 51.0000000  0 12G23G31G17G18G 1G19G 9G11G 3G 6G14G22
  22115289.036    -1484313.7253       2003.523          18.000  
  24091412.455     -291939.0753        277.970          23.000  
  22017657.092     -468765.209         603.162          33.000  
  22457371.518     2438636.138       -3653.879          36.000  
  20866651.584     1324881.9283      -2136.685          23.000  
  23277155.228    -1504913.5142       2097.029          33.000  
  23665076.116    -2160384.740        3106.873          33.000  
  21735817.770     2169145.931       -3613.476          35.000  
  20315090.337      139051.7623       -624.421          23.000  
  25102418.321     -247326.6363       2721.247          26.000  
  24135518.124     2380298.9653      -3494.156          24.000  
  21061060.900      557455.3583      -1821.097          21.000  
 18 10  4 13  0 52.0000000  0 12G23G31G17G18G 1G19G 9G11G 3G 6G14G22
  22114909.930    -1486307.3353       1990.333          20.000  
  24091359.528     -292218.0673        280.870          23.000  
  22017542.601     -469370.284         604.955          33.000  
  22458067.031     2442290.484       -3654.655          36.000  
  20867058.872     1327017.2213      -2133.127          23.000  
  23276758.026    -1507009.6362       2094.956          33.000  
  23664484.519    -2163491.595        3107.570          33.000  
  21736504.524     2172760.141       -3614.795          35.000  
  20315206.102      139663.7023       -607.192          22.000  
  25101900.852     -250047.3103       2721.487          26.000  
  24136180.203     2383792.3113      -3486.454          23.000  
  21061405.001      559270.6543      -1812.705          21.000  
 18 10  4 13  0 53.0000000  0 12G23G31G17G18G 1G19G 9G11G 3G 6G14G22
  22114532.848    -1488294.4553       1986.834          20.000  
  24091305.555     -292492.9183        274.890          24.000  
  22017428.773     -469974.442         604.239          33.000  
  22458762.579     2445945.422       -3653.887          36.000  
  20867464.956     1329153.7203      -2141.496          23.000  
  23276359.638    -1509104.8972       2094.741          33.000  
  23663892.974    -2166597.906        3107.035          33.000  
  21737192.149     2176375.113       -3615.598          35.000  
  20315327.136      140277.3653       -614.597          21.000  
  25101384.762     -252767.6473       2721.507          26.000  
  24136844.288     2387282.3883      -3487.958          22.000  
  21061750.969      561089.4833      -1818.901          21.000  
 18 10  4 13  0 54.0000000  0 12G23G31G17G18G 1G19G 9G11G 3G 6G14G22
  22114154.964    -1490284.8623       1989.016          21.000  
  24091250.569     -292768.5483        275.521          24.000  
  22017314.911     -470577.825         602.077          33.000  
  22459459.000     2449600.867       -3655.028          36.000  
  20867872.419     1331293.7003      -2140.529          23.000  
  23275961.005    -1511199.4572       2094.663          33.000  
  23663302.441    -2169703.897        3105.346          33.000  
  21737880.107     2179990.716       -3615.575          35.000  
  20315444.349      140889.6013       -611.458          20.000  
  25100867.119     -255487.8053       2720.885          26.000  
  24137506.995     2390778.0243      -3499.363          21.000  
  21062099.031      562909.8903      -1820.417          20.000  
 18 10  4 13  0 55.0000000  0 12G23G31G17G18G 1G19G 9G11G 3G 6G14G22
  22113777.620    -1492273.2883       1989.020          22.000  
  24091198.986     -293044.4433        276.776          24.000  
  22017201.676     -471180.833         602.516          34.000  
  22460155.421     2453256.338       -3654.907          36.000  
  20868278.450     1333431.8353      -2137.600          22.000  
  23275562.268    -1513293.847        2095.488          33.000  
  23662711.455    -2172809.984        3106.318          33.000  
  21738567.907     2183606.418       -3613.840          35.000  
  20315564.703      141502.8803       -612.704          19.000  
  25100348.760     -258208.3023       2719.694          26.000  
  24138169.824     2394272.3933      -3499.667          20.000  
  21062445.104      564728.2493      -1815.461          21.000  
 18 10  4 13  0 56.0000000  0 12G23G31G17G18G 1G19G 9G11G 3G 6G14G22
  22113399.492    -1494265.2913       1990.330          22.000  
  24091145.519     -293320.9903        272.142          25.000  
  22017087.709     -471783.609         603.453          34.000  
  22460851.074     2456911.709       -3655.630          36.000  
  20868688.373     1335572.2643      -2139.466          22.000  
  23275163.722    -1515388.105        2093.939          33.000  
  23662120.625    -2175916.265        3105.517          33.000  
  21739255.725     2187222.230       -3615.365          35.000  
  20315681.934      142115.6393       -620.882          18.000  
  25099831.047     -260929.1443       2720.707          26.000  
  24138834.817     2397768.8423      -3499.317          20.000  
  21062793.689      566546.6303      -1816.436          21.000  
 18 10  4 13  0 57.0000000  0 12G23G31G17G18G 1G19G 9G11G 3G 6G14G22
  22113020.037    -1496255.0433       1997.736          22.000  
  24091092.679     -293594.8013        280.263          24.000  
  22016973.829     -472385.629         602.183          33.000  
  22461547.233     2460567.540       -3655.969          36.000  
  20869097.668     1337712.2683      -2137.045          21.000  
  23274765.281    -1517481.645        2093.597          33.000  
  23661529.970    -2179022.229        3107.055          33.000  
  21739943.543     2190838.597       -3618.146          35.000  
  20315803.021      142733.9143       -611.905          18.000  
  25099312.287     -263649.8513       2721.491          27.000  
  24139498.606     2401265.5573      -3490.271          19.000  
  21063140.251      568369.1123      -1815.845          21.000  
 18 10  4 13  0 58.0000000  0 12G23G31G17G18G 1G19G 9G11G 3G 6G14G22
  22112642.745    -1498239.9033       1974.998          22.000  
  24091035.966     -293871.0843        274.946          24.000  
  22016859.809     -472986.714         600.458          33.000  
  22462242.955     2464223.963       -3657.355          36.000  
  20869504.398     1339853.0163      -2138.757          20.000  
  23274367.643    -1519574.422        2094.267          34.000  
  23660939.368    -2182127.703        3104.982          33.000  
  21740631.587     2194455.719       -3617.420          35.000  
  20315922.398      143348.9423       -619.652          17.000  
  25098794.504     -266370.2263       2719.701          27.000  
  24140164.192     2404762.4093      -3486.155          18.000  
  21063489.447      570190.6423      -1817.382          22.000  
 18 10  4 13  0 59.0000000  0 12G23G31G17G18G 1G19G 9G11G 3G 6G14G22
  22112264.896    -1500226.8873       1987.185          22.000  
  24090980.946     -294145.9783        276.249          23.000  
  22016745.702     -473587.388         600.980          34.000  
  22462939.341     2467880.522       -3657.252          36.000  
  20869912.192     1341993.8933      -2125.860          19.000  
  23273970.057    -1521666.873        2091.076          34.000  
  23660348.102    -2185233.201        3106.341          33.000  
  21741319.946     2198073.087       -3617.621          35.000  
  20316042.490      143966.6353       -620.403          18.000  
  25098277.367     -269090.7713       2719.684          27.000  
  24140831.925     2408253.8383      -3490.640          18.000  
  21063839.289      572007.8493      -1813.679          21.000  
 18 10  4 13  1  0.0000000  0 12G23G31G17G18G 1G19G 9G11G 3G 6G14G22
  22111887.186    -1502215.3873       1988.207          23.000  
  24090927.531     -294418.0943        270.319          22.000  
  22016631.578     -474187.718         597.047          34.000  
  22463635.675     2471537.085       -3655.616          37.000  
  20870317.002     1344127.2643      -2143.291          17.000  
  23273572.123    -1523759.056        2091.669          34.000  
  23659757.726    -2188338.785        3106.228          33.000  
  21742008.113     2201690.603       -3617.244          36.000  
  20316160.855      144582.9113       -613.040          19.000  
  25097760.579     -271811.6003       2719.484          27.000  
  24141501.507     2411750.3743      -3498.712          19.000  
  21064187.647      573827.5683      -1810.842          21.000  
 18 10  4 13  1  1.0000000  0 12G23G31G17G18G 1G19G 9G11G 3G 6G14G22
  22111508.220    -1504200.3103       1987.217          24.000  
  24090876.942     -294687.8893        267.135          22.000  
  22016518.465     -474787.368         598.051          34.000  
  22464332.026     2475194.063       -3657.045          37.000  
  20870723.802     1346261.2703      -2143.272          15.000  
  23273173.664    -1525850.747        2090.434          34.000  
  23659166.809    -2191444.133        3106.054          32.000  
  21742697.048     2205308.594       -3618.783          36.000  
  20316280.215      145198.3053       -609.195          20.000  
  25097242.953     -274532.4523       2720.268          27.000  
  24142168.228     2415246.6003      -3498.515          19.000  
  21064533.214      575644.9303      -1813.297          21.000  
 18 10  4 13  1  2.0000000  0 12G23G31G17G18G 1G19G 9G11G 3G 6G14G22
  22111129.393    -1506185.2033       1981.819          25.000  
  24090825.325     -294954.5163        270.415          22.000  
  22016404.463     -475386.241         598.579          33.000  
  22465028.621     2478851.485       -3657.483          37.000  
  20871132.992     1348403.6393      -2140.325          15.000  
  23272775.573    -1527941.684        2090.086          34.000  
  23658575.736    -2194549.091        3107.133          33.000  
  21743385.808     2208927.223       -3619.530          36.000  
  20316399.871      145815.7293       -615.744          19.000  
  25096726.426     -277253.0693       2721.376          27.000  
  24142836.274     2418741.9773      -3495.714          21.000  
  21064880.090      577464.5483      -1820.982          21.000  
 18 10  4 13  1  3.0000000  0 12G23G31G17G18G 1G19G 9G11G 3G 6G14G22
  22110753.323    -1508173.7653       1996.011          25.000  
  24090774.841     -295224.8883        278.983          22.000  
  22016290.408     -475984.593         599.824          34.000  
  22465724.797     2482509.021       -3658.094          36.000  
  20871542.269     1350543.8633      -2153.281          15.000  
  23272378.702    -1530032.306        2091.024          35.000  
  23657985.133    -2197654.064        3105.244          33.000  
  21744075.266     2212546.115       -3618.620          36.000  
  20316516.334      146433.8763       -614.395          18.000  
  25096207.945     -279973.8243       2720.855          27.000  
  24143506.363     2422239.7863      -3488.597          21.000  
  21065226.686      579287.9033      -1827.104          20.000  
 18 10  4 13  1  4.0000000  0 11G23G31G17G18G 1G19G 9G11G 6G14G22
  22110376.294    -1510159.3423       1986.180          25.000  
  24090727.534     -295494.9913        273.675          22.000  
  22016176.511     -476582.587         596.283          34.000  
  22466420.887     2486166.709       -3658.958          36.000  
  20871951.966     1352686.2943      -2138.231          16.000  
  23271981.082    -1532122.625        2091.837          34.000  
  23657395.054    -2200759.069        3105.478          33.000  
  21744764.427     2216165.233       -3618.580          36.000  
  25095690.285     -282694.8023       2721.068          27.000  
  24144174.130     2425732.9143      -3494.522          22.000  
  21065571.781      581107.7003      -1809.598          20.000  
 18 10  4 13  1  5.0000000  0 11G23G31G17G18G 1G19G 9G11G 6G14G22
  22109995.443    -1512144.7023       1980.641          25.000  
  24090677.399     -295765.2463        267.948          23.000  
  22016063.137     -477180.073         595.889          33.000  
  22467117.272     2489824.567       -3658.521          36.000  
  20872359.864     1354825.8213      -2143.916          15.000  
  23271583.967    -1534212.538        2089.266          34.000  
  23656805.062    -2203863.964        3103.830          33.000  
  21745453.240     2219784.723       -3618.394          37.000  
  25095174.107     -285415.9383       2721.639          28.000  
  24144843.154     2429229.0313      -3498.067          23.000  
  21065920.908      582925.6713      -1829.295          20.000  
 18 10  4 13  1  6.0000000  0 11G23G31G17G18G 1G19G 9G11G 6G14G22
  22109619.111    -1514129.5093       1987.397          25.000  
  24090626.671     -296032.9273        262.361          23.000  
  22015949.466     -477776.846         597.717          34.000  
  22467814.391     2493482.768       -3658.221          36.000  
  20872767.833     1356969.7503      -2143.916          14.000  
  23271185.736    -1536301.874        2090.547          34.000  
  23656214.285    -2206968.687        3105.660          33.000  
  21746141.476     2223404.641       -3620.678          37.000  
  25094656.272     -288136.9633       2721.743          27.000  
  24145510.608     2432727.1133      -3496.092          25.000  
  21066267.731      584747.2343      -1819.636          20.000  
 18 10  4 13  1  7.0000000  0 11G23G31G17G18G 1G19G 9G11G 6G14G22
  22109243.234    -1516115.2493       1985.798          25.000  
  24090580.917     -296301.9103        271.104          24.000  
  22015836.912     -478373.214         596.600          33.000  
  22468510.602     2497141.110       -3657.319          36.000  
  20873177.390     1359114.1123      -2142.942          15.000  
  23270788.028    -1538390.928        2089.953          34.000  
  23655623.804    -2210073.396        3103.437          33.000  
  21746830.690     2227024.829       -3620.692          37.000  
  25094139.309     -290858.2273       2720.499          27.000  
  24146179.439     2436224.0643      -3499.150          26.000  
  21066614.013      586568.9013      -1825.400          20.000  
 18 10  4 13  1  8.0000000  0 11G23G31G17G18G 1G19G 9G11G 6G14G22
  22108865.611    -1518099.0183       1983.572          24.000  
  24090531.009     -296569.1143        266.419          26.000  
  22015723.695     -478969.050         595.066          33.000  
  22469206.988     2500799.636       -3658.807          35.000  
  20873589.232     1361258.1553      -2143.661          16.000  
  23270390.826    -1540479.563        2087.739          34.000  
  23655033.027    -2213177.970        3106.429          33.000  
  21747519.537     2230645.367       -3621.286          37.000  
  25093620.671     -293579.5373       2721.428          27.000  
  24146846.439     2439722.2293      -3498.810          27.000  
  21066959.440      588391.9603      -1831.106          21.000  
 18 10  4 13  1  9.0000000  0 11G23G31G17G18G 1G19G 9G11G 6G14G22
  22108488.180    -1520083.7933       1984.912          25.000  
  24090484.487     -296836.0123        270.949          26.000  
  22015610.583     -479564.355         595.758          33.000  
  22469903.043     2504458.469       -3659.238          35.000  
  20873995.752     1363402.9233      -2129.427          17.000  
  23269992.420    -1542567.732        2086.781          34.000  
  23654441.692    -2216282.465        3103.326          34.000  
  21748208.420     2234266.260       -3620.185          37.000  
  25093102.976     -296300.8673       2722.606          27.000  
  24147515.725     2443220.6513      -3498.765          27.000  
  21067309.108      590218.9053      -1817.684          21.000  
 18 10  4 13  1 10.0000000  0 11G23G31G17G18G 1G19G 9G11G 6G14G22
  22108111.552    -1522065.6683       1990.811          25.000  
  24090434.893     -297101.2123        266.931          26.000  
  22015497.680     -480159.053         593.956          32.000  
  22470599.795     2508117.490       -3658.308          35.000  
  20874402.255     1365542.1833      -2155.245          16.000  
  23269595.235    -1544655.431        2087.888          34.000  
  23653851.752    -2219386.859        3106.698          34.000  
  21748897.092     2237887.559       -3620.754          37.000  
  25092586.921     -299022.3793       2721.735          27.000  
  24148181.503     2446719.2563      -3498.912          28.000  
  21067657.362      592039.0883      -1819.748          21.000  
 18 10  4 13  1 11.0000000  0 11G23G31G17G18G 1G19G 9G11G 6G14G22
  22107733.982    -1524051.1543       1983.043          25.000  
  24090386.312     -297370.8553        273.400          25.000  
  22015384.533     -480753.129         593.101          32.000  
  22471295.657     2511776.910       -3659.991          35.000  
  20874809.631     1367685.2103      -2140.042          17.000  
  23269198.836    -1546742.594        2085.499          34.000  
  23653260.905    -2222490.989        3103.226          34.000  
  21749586.673     2241509.334       -3622.727          37.000  
  25092066.520     -301743.7593       2721.863          27.000  
  24148847.019     2450218.3353      -3499.056          29.000  
  21068003.783      593860.9973      -1816.372          21.000  
 18 10  4 13  1 12.0000000  0 11G23G31G17G18G 1G19G 9G11G 6G14G22
  22107351.997    -1526034.1153       1988.375          25.000  
  24090337.678     -297635.3903        266.294          25.000  
  22015271.944     -481346.6173        593.041          32.000  
  22471992.287     2515436.594       -3659.385          35.000  
  20875219.030     1369830.1743      -2152.398          19.000  
  23268802.280    -1548829.235        2087.003          34.000  
  23652670.669    -2225594.916        3104.721          34.000  
  21750275.712     2245131.497       -3622.539          37.000  
  25091548.406     -304465.1663       2721.739          27.000  
  24149512.204     2453717.6923      -3498.781          29.000  
  21068351.653      595684.7663      -1827.826          21.000  
 18 10  4 13  1 13.0000000  0 11G23G31G17G18G 1G19G 9G11G 6G14G22
  22106976.974    -1528018.0373       1985.808          25.000  
  24090290.667     -297901.5873        266.411          25.000  
  22015159.477     -481939.5132        594.583          32.000  
  22472689.005     2519096.454       -3658.979          35.000  
  20875630.314     1371977.1163      -2144.194          21.000  
  23268404.642    -1550915.564        2085.753          34.000  
  23652079.735    -2228698.871        3104.126          34.000  
  21750964.769     2248753.970       -3622.065          37.000  
  25091030.309     -307186.7163       2722.289          28.000  
  24150179.745     2457217.1743      -3499.558          29.000  
  21068698.686      597507.4433      -1820.056          20.000  
 18 10  4 13  1 14.0000000  0 11G23G31G17G18G 1G19G 9G11G 6G14G22
  22106601.061    -1530001.3213       1982.325          25.000  
  24090244.826     -298165.6323        264.264          26.000  
  22015047.325     -482531.9652        590.516          31.000  
  22473385.373     2522756.501       -3660.580          35.000  
  20876041.250     1374121.0633      -2141.894          22.000  
  23268007.719    -1553001.431        2085.376          34.000  
  23651489.447    -2231802.645        3103.922          34.000  
  21751654.454     2252376.813       -3622.449          37.000  
  25090512.142     -309908.3483       2720.870          27.000  
  24150845.523     2460716.9783      -3499.485          30.000  
  21069045.910      599330.8253      -1831.972          20.000  
 18 10  4 13  1 15.0000000  0 11G23G31G17G18G 1G19G 9G11G 6G14G22
  22106224.346    -1531982.6223       1980.030          26.000  
  24090199.507     -298429.5393        263.624          26.000  
  22014934.876     -483123.5563        591.980          31.000  
  22474082.509     2526417.108       -3661.155          35.000  
  20876451.801     1376266.7663      -2144.351          23.000  
  23267610.081    -1555086.530        2086.418          34.000  
  23650898.565    -2234906.091        3105.101          34.000  
  21752343.877     2256000.262       -3624.888          37.000  
  25089992.754     -312629.8123       2720.897          27.000  
  24151511.284     2464217.2423      -3500.603          30.000  
  21069396.311      601159.6763      -1819.946          20.000  
 18 10  4 13  1 16.0000000  0 11G23G31G17G18G 1G19G 9G11G 6G14G22
  22105849.585    -1533964.0633       1981.665          27.000  
  24090153.509     -298692.8293        263.274          26.000  
  22014822.549     -483714.7002        590.843          30.000  
  22474779.593     2530077.874       -3659.783          34.000  
  20876859.700     1378413.7803      -2150.653          24.000  
  23267213.263    -1557171.359        2084.115          34.000  
  23650308.014    -2238009.470        3104.632          34.000  
  21753033.265     2259624.065       -3623.764          37.000  
  25089477.013     -315351.3173       2721.677          28.000  
  24152177.184     2467717.7723      -3500.019          30.000  
  21069743.971      602987.8183      -1831.162          20.000  
 18 10  4 13  1 17.0000000  0 11G23G31G17G18G 1G19G 9G11G 6G14G22
  22105472.085    -1535945.4443       1980.989          27.000  
  24090106.602     -298955.8993        262.808          27.000  
  22014709.768     -484305.3593        591.269          30.000  
  22475475.839     2533738.720       -3661.052          34.000  
  20877270.094     1380563.4443      -2146.923          24.000  
  23266816.061    -1559255.825        2085.708          33.000  
  23649717.831    -2241112.905        3103.141          34.000  
  21753722.357     2263248.045       -3623.638          37.000  
  25088959.683     -318073.0943       2721.915          28.000  
  24152844.672     2471218.2823      -3502.604          30.000  
  21070091.597      604810.4743      -1820.318          19.000  
 18 10  4 13  1 18.0000000  0 11G23G31G17G18G 1G19G 9G11G 6G14G22
  22105092.507    -1537926.6083       1982.141          27.000  
  24090059.208     -299218.5673        261.923          27.000  
  22014596.952     -484895.6722        591.671          30.000  
  22476172.731     2537399.618       -3662.931          34.000  
  20877680.750     1382710.1533      -2148.124          25.000  
  23266418.982    -1561340.032        2083.737          33.000  
  23649127.629    -2244216.349        3103.809          35.000  
  21754412.338     2266872.233       -3624.204          37.000  
  25088443.541     -320795.1003       2722.312          28.000  
  24153510.869     2474719.0063      -3499.823          30.000  
  21070437.966      606634.7673      -1831.703          19.000  
 18 10  4 13  1 19.0000000  0 11G23G31G17G18G 1G19G 9G11G 6G14G22
  22104718.218    -1539907.2923       1980.600          28.000  
  24090010.452     -299480.4363        261.730          28.000  
  22014484.206     -485485.3343        586.179          28.000  
  22476869.798     2541061.025       -3660.160          33.000  
  20878094.617     1384860.1663      -2152.166          24.000  
  23266022.234    -1563423.545        2085.068          33.000  
  23648537.899    -2247319.493        3101.302          35.000  
  21755102.146     2270497.056       -3623.971          38.000  
  25087925.531     -323516.9703       2722.382          29.000  
  24154174.379     2478220.1593      -3499.638          30.000  
  21070785.959      608458.9553      -1838.018          19.000  
 18 10  4 13  1 20.0000000  0 11G23G31G17G18G 1G19G 9G11G 6G14G22
  22104345.359    -1541887.3733       1980.264          28.000  
  24089965.989     -299741.6353        260.490          27.000  
  22014371.757     -486074.1383        588.664          27.000  
  22477566.323     2544722.834       -3662.847          33.000  
  20878502.987     1387008.5723      -2155.399          24.000  
  23265625.660    -1565506.522        2082.249          33.000  
  23647947.489    -2250422.314        3102.581          34.000  
  21755792.302     2274122.358       -3626.025          38.000  
  25087407.155     -326238.7323       2722.899          28.000  
  24154841.064     2481721.7053      -3505.692          30.000  
  21071133.567      610296.8583      -1839.121          18.000  
 18 10  4 13  1 21.0000000  0 11G23G31G17G18G 1G19G 9G11G 6G14G22
  22103967.701    -1543867.3743       1979.059          28.000  
  24089917.756     -300002.3803        259.542          25.000  
  22014258.662     -486662.4223        588.192          26.000  
  22478263.285     2548384.633       -3663.649          32.000  
  20878911.304     1389157.4553      -2149.987          25.000  
  23265228.284    -1567589.162        2081.966          33.000  
  23647357.619    -2253525.239        3102.646          34.000  
  21756483.295     2277747.876       -3625.964          38.000  
  25086888.918     -328960.7183       2722.522          28.000  
  24155506.127     2485223.3782      -3502.524          29.000  
  21071482.013      612129.6653      -1815.186          17.000  
 18 10  4 13  1 22.0000000  0 11G23G31G17G18G 1G19G 9G11G 6G14G22
  22103589.189    -1545846.9973       1978.873          28.000  
  24089868.163     -300263.0193        267.759          23.000  
  22014140.507     -487250.3363        586.795          26.000  
  22478960.316     2552046.670       -3664.869          32.000  
  20879322.100     1391305.8043      -2143.252          25.000  
  23264831.553    -1569671.439        2081.788          32.000  
  23646766.877    -2256628.045        3102.203          34.000  
  21757174.010     2281373.730       -3625.178          38.000  
  25086373.160     -331682.8293       2721.648          29.000  
  24156179.531     2488725.3183      -3504.712          29.000  
  21071825.503      613950.7093      -1818.692          18.000  
 18 10  4 13  1 23.0000000  0 11G23G31G17G18G 1G19G 9G11G 6G14G22
  22103212.665    -1547826.1053       1978.696          28.000  
  24089823.455     -300522.2153        259.694          21.000  
  22014023.346     -487837.4313        587.056          25.000  
  22479656.842     2555709.2463      -3662.406          31.000  
  20879733.279     1393456.5273      -2148.053          25.000  
  23264435.066    -1571752.949        2082.469          32.000  
  23646176.065    -2259730.464        3103.221          35.000  
  21757863.957     2285000.238       -3626.455          38.000  
  25085855.499     -334404.7073       2722.508          29.000  
  24156842.657     2492227.7273      -3502.793          29.000  
  21072171.803      615781.0083      -1823.358          18.000  
 18 10  4 13  1 24.0000000  0 11G23G31G17G18G 1G19G 9G11G 6G14G22
  22102834.414    -1549804.7583       1979.488          28.000  
  24089773.705     -300782.2323        259.825          20.000  
  22013907.965     -488423.9343        585.982          25.000  
  22480353.402     2559372.0902      -3660.412          31.000  
  20880141.283     1395606.2303      -2150.971          25.000  
  23264038.789    -1573833.993        2080.964          32.000  
  23645585.375    -2262832.780        3101.176          34.000  
  21758554.043     2288627.132       -3626.751          39.000  
  25085338.013     -337126.5933       2722.913          29.000  
  24157509.883     2495730.3623      -3501.001          29.000  
  21072516.218      617606.1613      -1813.443          18.000  
 18 10  4 13  1 25.0000000  0 11G23G31G17G18G 1G19G 9G11G 6G14G22
  22102457.717    -1551783.2163       1978.611          28.000  
  24089722.698     -301043.6973        261.888          19.000  
  22013792.759     -489010.3523        586.701          25.000  
  22481050.032     2563034.9813      -3663.051          30.000  
  20880551.887     1397757.5883      -2154.649          25.000  
  23263641.814    -1575914.757        2082.470          32.000  
  23644994.842    -2265935.067        3101.478          35.000  
  21759244.862     2292254.203       -3626.375          39.000  
  25084820.195     -339848.7303       2721.874          29.000  
  24158177.040     2499233.1763      -3501.216          29.000  
  21072863.180      619431.9493      -1832.064          19.000  
 18 10  4 13  1 26.0000000  0 12G23G31G17G18G 1G19G 9G11G 3G 6G14G22
  22102081.944    -1553761.8223       1978.357          28.000  
  24089671.324     -301302.0733        253.666          18.000  
  22013678.338     -489597.2353        586.425          26.000  
  22481746.069     2566697.6093      -3664.892          29.000  
  20880960.379     1399908.6593      -2151.518          24.000  
  23263245.154    -1577995.513        2081.061          32.000  
  23644404.553    -2269037.720        3101.896          36.000  
  21759935.629     2295881.232       -3626.448          39.000  
  20319181.889      160663.4143       -626.962          23.000  
  25084300.458     -342571.3663       2722.426          29.000  
  24158843.394     2502735.7753      -3502.165          28.000  
  21073210.754      621259.4363      -1821.597          19.000  
 18 10  4 13  1 27.0000000  0 12G23G31G17G18G 1G19G 9G11G 3G 6G14G22
  22101709.591    -1555739.9863       1977.510          28.000  
  24089622.499     -301550.9593        254.963          17.000  
  22013567.110     -490182.5513        585.243          27.000  
  22482442.595     2570360.7843      -3665.986          29.000  
  20881370.721     1402058.0143      -2145.017          25.000  
  23262849.732    -1580075.723        2077.911          32.000  
  23643814.980    -2272140.109        3100.295          36.000  
  21760626.099     2299508.782       -3627.318          39.000  
  20319303.482      161290.4173       -633.172          25.000  
  25083782.343     -345294.0093       2721.924          29.000  
  24159509.957     2506239.3333      -3502.711          28.000  
  21073557.681      623085.6723      -1825.243          20.000  
 18 10  4 13  1 28.0000000  0 12G23G31G17G18G 1G19G 9G11G 3G 6G14G22
  22101332.614    -1557717.4223       1977.203          29.000  
  24089572.713     -301808.8663        257.424          17.000  
  22013458.064     -490766.8893        584.932          27.000  
  22483139.242     2574024.4593      -3668.857          29.000  
  20881780.312     1404209.8733      -2147.188          24.000  
  23262453.629    -1582155.060        2079.586          32.000  
  23643225.198    -2275242.019        3102.047          36.000  
  21761316.203     2303137.027       -3627.514          39.000  
  20319422.877      161917.2043       -626.408          26.000  
  25083267.335     -348016.2323       2722.586          29.000  
  24160172.699     2509741.0643      -3503.164          27.000  
  21073902.201      624913.1873      -1828.956          20.000  
 18 10  4 13  1 29.0000000  0 12G23G31G17G18G 1G19G 9G11G 3G 6G14G22
  22100959.197    -1559694.6323       1976.533          29.000  
  24089526.104     -302070.8303        257.538          17.000  
  22013347.935     -491350.8383        582.871          27.000  
  22483835.262     2577688.3323      -3665.190          29.000  
  20882188.647     1406360.9683      -2150.893          24.000  
  23262057.684    -1584234.136        2078.623          33.000  
  23642635.398    -2278343.906        3102.355          36.000  
  21762006.603     2306765.525       -3627.740          39.000  
  20319545.255      162543.8963       -627.270          26.000  
  25082750.128     -350738.6763       2723.018          30.000  
  24160840.903     2513244.7993      -3503.440          27.000  
  21074250.507      626742.3143      -1827.346          21.000  
 18 10  4 13  1 30.0000000  0 12G23G31G17G18G 1G19G 9G11G 3G 6G14G22
  22100583.982    -1561671.7313       1976.547          29.000  
  24089477.191     -302324.6073        250.925          18.000  
  22013239.046     -491934.4053        583.122          28.000  
  22484531.263     2581352.4413      -3663.494          29.000  
  20882598.256     1408513.0793      -2150.840          24.000  
  23261662.174    -1586312.918        2079.030          32.000  
  23642045.005    -2281445.986        3101.806          36.000  
  21762697.074     2310394.151       -3629.654          39.000  
  20319666.046      163170.6793       -627.005          26.000  
  25082232.258     -353461.4513       2723.186          30.000  
  24161506.821     2516748.5613      -3505.144          27.000  
  21074598.203      628572.0393      -1823.617          21.000  
 18 10  4 13  1 31.0000000  0 12G23G31G17G18G 1G19G 9G11G 3G 6G14G22
  22100207.336    -1563648.3273       1976.662          29.000  
  24089428.086     -302578.4013        265.880          20.000  
  22013129.895     -492517.3123        582.181          28.000  
  22485227.998     2585016.5263      -3663.059          29.000  
  20883007.446     1410663.9743      -2158.840          23.000  
  23261266.316    -1588391.1393       2078.464          32.000  
  23641454.489    -2284547.686        3101.025          36.000  
  21763387.945     2314023.390       -3629.413          39.000  
  20319787.918      163798.0713       -629.451          26.000  
  25081715.243     -356184.0783       2722.779          30.000  
  24162172.773     2520252.7443      -3504.344          28.000  
  21074944.450      630397.2523      -1831.199          21.000  
 18 10  4 13  1 32.0000000  0 12G23G31G17G18G 1G19G 9G11G 3G 6G14G22
  22099831.878    -1565624.4313       1975.898          29.000  
  24089380.255     -302835.1943        254.626          22.000  
  22013019.470     -493099.4943        581.794          28.000  
  22485924.663     2588681.0853      -3665.222          30.000  
  20883420.126     1412818.7223      -2153.314          23.000  
  23260870.476    -1590468.7872       2076.866          32.000  
  23640864.480    -2287649.157        3102.169          36.000  
  21764078.293     2317653.110       -3629.636          39.000  
  20319908.063      164425.9803       -628.002          26.000  
  25081193.953     -358906.7993       2723.593          30.000  
  24162840.384     2523757.3653      -3504.729          27.000  
  21075291.169      632227.4413      -1839.669          21.000  
 18 10  4 13  1 33.0000000  0 12G23G31G17G18G 1G19G 9G11G 3G 6G14G22
  22099456.872    -1567600.0673       1975.062          29.000  
  24089332.877     -303089.0113        249.843          22.000  
  22012912.849     -493680.9793        581.232          28.000  
  22486621.992     2592346.0683      -3663.913          30.000  
  20883830.835     1414974.8433      -2148.725          23.000  
  23260474.827    -1592545.7842       2079.116          32.000  
  23640274.122    -2290750.393        3101.428          36.000  
  21764769.043     2321283.340       -3629.498          39.000  
  20320028.801      165054.3373       -628.089          26.000  
  25080679.381     -361629.3232       2723.113          30.000  
  24163507.209     2527262.3873      -3504.085          27.000  
  21075639.719      634059.7353      -1832.893          21.000  
 18 10  4 13  1 34.0000000  0 12G23G31G17G18G 1G19G 9G11G 3G 6G14G22
  22099078.953    -1569575.5003       1975.561          29.000  
  24089284.854     -303341.9133        260.365          23.000  
  22012805.286     -494262.0963        581.255          29.000  
  22487320.943     2596011.1133      -3664.841          30.000  
  20884243.183     1417129.1193      -2157.871          25.000  
  23260079.091    -1594622.5672       2075.753          32.000  
  23639684.270    -2293851.660        3101.357          36.000  
  21765460.525     2324913.736       -3630.288          39.000  
  20320148.509      165682.9093       -629.081          26.000  
  25080156.136     -364352.0413       2722.094          30.000  
  24164171.993     2530767.4663      -3505.576          27.000  
  21075986.857      635891.3783      -1833.488          21.000  
 18 10  4 13  1 35.0000000  0 12G23G31G17G18G 1G19G 9G11G 3G 6G14G22
  22098703.564    -1571550.6723       1974.403          28.000  
  24089234.214     -303596.3913        249.233          24.000  
  22012699.538     -494842.8663        579.121          31.000  
  22488019.579     2599676.3743      -3665.371          30.000  
  20884656.649     1419284.0723      -2144.280          24.000  
  23259683.913    -1596698.8732       2075.876          32.000  
  23639094.330    -2296952.827        3100.550          36.000  
  21766151.205     2328544.549       -3630.700          39.000  
  20320269.090      166311.8163       -629.267          26.000  
  25079638.754     -367074.8653       2723.079          31.000  
  24164839.167     2534272.7073      -3505.937          27.000  
  21076337.222      637722.9563      -1831.560          22.000  
 18 10  4 13  1 36.0000000  0 12G23G31G17G18G 1G19G 9G11G 3G 6G14G22
  22098327.913    -1573525.3803       1974.660          28.000  
  24089185.458     -303846.6393        253.176          25.000  
  22012594.470     -495422.7772        580.172          31.000  
  22488717.257     2603341.9373      -3668.412          31.000  
  20885066.834     1421440.2553      -2155.127          24.000  
  23259288.491    -1598774.7052       2075.023          32.000  
  23638504.530    -2300053.795        3099.739          36.000  
  21766842.408     2332175.718       -3630.841          39.000  
  20320391.678      166941.1433       -628.651          25.000  
  25079125.648     -369797.6613       2723.162          31.000  
  24165503.165     2537778.3873      -3505.735          27.000  
  21076685.755      639552.8083      -1830.856          22.000  
 18 10  4 13  1 37.0000000  0 12G23G31G17G18G 1G19G 9G11G 3G 6G14G22
  22097954.618    -1575499.6923       1973.772          27.000  
  24089136.999     -304097.6663        259.862          25.000  
  22012485.563     -496002.1693        580.051          32.000  
  22489415.318     2607007.7952      -3667.748          31.000  
  20885478.973     1423593.7543      -2154.205          23.000  
  23258892.895    -1600850.0002       2072.953          32.000  
  23637914.486    -2303154.604        3101.157          36.000  
  21767533.716     2335807.355       -3632.545          39.000  
  20320512.870      167570.8183       -630.045          26.000  
  25078611.826     -372520.4902       2720.208          31.000  
  24166167.983     2541284.3143      -3506.504          26.000  
  21077031.741      641383.5763      -1836.675          22.000  
 18 10  4 13  1 38.0000000  0 12G23G31G17G18G 1G19G 9G11G 3G 6G14G22
  22097577.205    -1577473.7863       1972.306          27.000  
  24089087.702     -304351.5063        247.335          25.000  
  22012380.094     -496581.0192        577.585          32.000  
  22490113.187     2610673.8382      -3665.500          30.000  
  20885888.879     1425749.4083      -2151.471          22.000  
  23258497.752    -1602924.9142       2074.874          32.000  
  23637324.651    -2306255.365        3100.996          37.000  
  21768224.587     2339439.262       -3632.681          39.000  
  20320634.271      168200.7913       -631.319          26.000  
  25078090.658     -375243.4402       2720.919          31.000  
  24166832.976     2544790.4443      -3506.309          26.000  
  21077379.471      643214.2823      -1834.947          22.000  
 18 10  4 13  1 39.0000000  0 12G23G31G17G18G 1G19G 9G11G 3G 6G14G22
  22097198.832    -1579447.6613       1974.418          27.000  
  24089038.597     -304604.6183        257.503          25.000  
  22012268.535     -497159.4402        580.544          33.000  
  22490811.457     2614340.0053      -3666.665          30.000  
  20886298.313     1427905.9873      -2161.311          21.000  
  23258102.138    -1604999.5822       2074.760          32.000  
  23636734.467    -2309356.148        3101.430          37.000  
  21768915.651     2343071.431       -3632.719          40.000  
  20320754.503      168830.9833       -630.608          26.000  
  25077572.387     -377966.5382       2724.057          31.000  
  24167500.220     2548296.1573      -3510.532          26.000  
  21077729.662      645044.6683      -1828.225          23.000  
 18 10  4 13  1 40.0000000  0 12G23G31G17G18G 1G19G 9G11G 3G 6G14G22
  22096821.453    -1581421.2033       1973.223          26.000  
  24088989.021     -304856.2693        250.581          25.000  
  22012158.947     -497737.2812        577.419          33.000  
  22491509.640     2618006.4443      -3669.991          30.000  
  20886708.550     1430066.4573      -2158.764          19.000  
  23257707.309    -1607073.7422       2074.020          31.000  
  23636144.702    -2312456.814        3099.827          37.000  
  21769606.767     2346703.940       -3632.351          40.000  
  20320875.276      169461.5233       -629.005          27.000  
  25077053.906     -380689.7702       2721.934          31.000  
  24168167.534     2551802.4473      -3510.432          26.000  
  21078077.358      646877.9493      -1830.710          23.000  
 18 10  4 13  1 41.0000000  0 12G23G31G17G18G 1G19G 9G11G 3G 6G14G22
  22096446.762    -1583394.4053       1973.189          25.000  
  24088937.735     -305105.6823        247.374          25.000  
  22012051.053     -498314.6142        577.180          33.000  
  22492208.242     2621673.1023      -3666.748          30.000  
  20887117.060     1432229.2063      -2156.264          18.000  
  23257312.795    -1609147.4732       2074.812          31.000  
  23635554.937    -2315557.345        3099.801          37.000  
  21770298.598     2350336.806       -3633.163          40.000  
  20320994.653      170092.3813       -631.233          27.000  
  25076535.460     -383413.0392       2724.823          31.000  
  24168835.476     2555308.0883      -3502.463          25.000  
  21078425.455      648708.6313      -1828.178          23.000  
 18 10  4 13  1 42.0000000  0 12G23G31G17G18G 1G19G 9G11G 3G 6G14G22
  22096069.488    -1585367.0783       1974.796          25.000  
  24088888.141     -305353.8993        244.153          24.000  
  22011942.093     -498891.2252        574.723          33.000  
  22492905.920     2625340.0793      -3665.865          30.000  
  20887525.779     1434386.0003      -2154.412          17.000  
  23256917.548    -1611220.6202       2070.550          31.000  
  23634964.474    -2318657.653        3100.109          37.000  
  21770989.243     2353970.180       -3633.853          40.000  
  20321114.536      170723.7463       -631.177          26.000  
  25076017.223     -386136.2812       2724.439          31.000  
  24169504.029     2558814.7703      -3511.236          25.000  
  21078775.803      650537.3063      -1835.140          22.000  
 18 10  4 13  1 43.0000000  0 12G23G31G17G18G 1G19G 9G11G 3G 6G14G22
  22095692.564    -1587339.6023       1970.540          25.000  
  24088841.235     -305604.8273        245.111          24.000  
  22011832.157     -499467.3982        575.646          33.000  
  22493603.859     2629007.2153      -3667.439          30.000  
  20887932.247     1436541.2873      -2156.517          17.000  
  23256522.527    -1613293.411        2073.891          31.000  
  23634373.819    -2321757.928        3102.479          37.000  
  21771680.341     2357603.830       -3633.230          40.000  
  20321234.209      171355.3973       -631.280          26.000  
  25075498.603     -388859.615        2726.732          31.000  
  24170171.151     2562324.3053      -3508.893          25.000  
  21079126.604      652371.7973      -1829.762          22.000  
 18 10  4 13  1 44.0000000  0 12G23G31G17G18G 1G19G 9G11G 3G 6G14G22
  22095314.400    -1589311.7423       1971.913          25.000  
  24088790.123     -305854.1673        250.476          23.000  
  22011722.343     -500043.0452        572.541          33.000  
  22494301.448     2632674.6483      -3664.685          30.000  
  20888334.492     1438695.8113      -2145.846          18.000  
  23256128.501    -1615365.7363       2072.142          31.000  
  23633784.386    -2324858.061        3100.750          37.000  
  21772371.841     2361237.842       -3634.549          40.000  
  20321355.279      171987.3223       -632.551          27.000  
  25074980.750     -391583.093        2722.993          32.000  
  24170839.546     2565832.9323      -3508.412          25.000  
  21079477.528      654204.5363      -1835.994          23.000  
 18 10  4 13  1 45.0000000  0 12G23G31G17G18G 1G19G 9G11G 3G 6G14G22
  22094937.563    -1591283.6463       1976.891          25.000  
  24088743.269     -306100.4183        255.280          24.000  
  22011612.965     -500617.9882        575.077          33.000  
  22494999.335     2636342.2973      -3672.480          30.000  
  20888737.941     1440854.4163      -2157.411          19.000  
  23255734.283    -1617437.5642       2071.554          31.000  
  23633194.359    -2327958.021        3100.300          37.000  
  21773063.410     2364872.300       -3635.533          40.000  
  20321474.813      172619.6793       -632.420          27.000  
  25074462.514     -394306.503        2723.653          32.000  
  24171505.010     2569340.1693      -3507.964          24.000  
  21079827.300      656038.4783      -1834.970          22.000  
 18 10  4 13  1 46.0000000  0 12G23G31G17G18G 1G19G 9G11G 3G 6G14G22
  22094561.284    -1593253.6753       1974.743          25.000  
  24088696.032     -306347.0093        245.333          24.000  
  22011503.988     -501192.3962        574.730          33.000  
  22495698.077     2640010.1953      -3665.147          30.000  
  20889141.669     1443011.5053      -2155.411          20.000  
  23255339.908    -1619508.9922       2072.302          31.000  
  23632604.350    -2331057.885        3100.677          37.000  
  21773754.561     2368507.088       -3635.294          40.000  
  20321595.028      173252.3903       -632.208          27.000  
  25073943.998     -397030.033        2723.853          32.000  
  24172172.516     2572848.2023      -3509.462          24.000  
  21080172.640      657869.5083      -1837.188          21.000  
 18 10  4 13  1 47.0000000  0 12G23G31G17G18G 1G19G 9G11G 3G 6G14G22
  22094188.250    -1595224.9013       1971.970          25.000  
  24088647.817     -306597.1913        245.332          22.000  
  22011395.099     -501766.4222        573.377          33.000  
  22496395.963     2643678.1762      -3669.268          30.000  
  20889544.699     1445165.3813      -2156.718          20.000  
  23254945.830    -1621580.0962       2070.027          31.000  
  23632014.393    -2334157.753        3099.319          37.000  
  21774446.445     2372142.119       -3634.649          40.000  
  20321715.155      173885.3043       -633.627          28.000  
  25073425.936     -399753.734        2723.904          32.000  
  24172838.800     2576355.7293      -3511.787          24.000  
  21080519.219      659708.9093      -1828.092          20.000  
 18 10  4 13  1 48.0000000  0 12G23G31G17G18G 1G19G 9G11G 3G 6G14G22
  22093815.287    -1597196.6433       1972.312          25.000  
  24088597.333     -306843.2843        248.880          22.000  
  22011286.663     -502339.9042        573.837          33.000  
  22497094.321     2647346.4303      -3668.671          29.000  
  20889952.232     1447324.7493      -2163.920          21.000  
  23254552.205    -1623650.7043       2070.653          31.000  
  23631424.366    -2337257.518        3098.894          37.000  
  21775137.840     2375777.516       -3635.830          40.000  
  20321834.881      174518.5263       -633.257          27.000  
  25072907.647     -402477.523        2721.742          32.000  
  24173503.514     2579865.6623      -3503.262          24.000  
  21080865.344      661538.6893      -1831.074          20.000  
 18 10  4 13  1 49.0000000  0 12G23G31G17G18G 1G19G 9G11G 3G 6G14G22
  22093439.549    -1599167.1553       1969.020          25.000  
  24088550.497     -307090.0713        241.932          20.000  
  22011177.879     -502912.7353        574.769          32.000  
  22497793.028     2651014.9472      -3667.912          29.000  
  20890361.439     1449484.2273      -2156.103          23.000  
  23254158.145    -1625720.9072       2069.426          31.000  
  23630834.880    -2340357.105        3100.750          37.000  
  21775829.706     2379413.320       -3636.002          40.000  
  20321952.949      175152.2093       -634.720          28.000  
  25072389.847     -405201.358        2724.490          31.000  
  24174172.869     2583375.0553      -3509.987          24.000  
  21081214.959      663373.2063      -1837.842          20.000  
 18 10  4 13  1 50.0000000  0 12G23G31G17G18G 1G19G 9G11G 3G 6G14G22
  22093063.828    -1601137.2833       1969.878          26.000  
  24088501.985     -307335.8453        256.856          18.000  
  22011068.850     -503484.9612        574.675          32.000  
  22498491.665     2654683.8013      -3668.843          30.000  
  20890770.437     1451644.1443      -2155.733          25.000  
  23253764.119    -1627790.4693       2070.667          31.000  
  23630244.679    -2343456.497        3100.131          37.000  
  21776520.630     2383049.587       -3636.704          40.000  
  20322073.198      175786.2863       -634.099          28.000  
  25071871.767     -407925.1093       2722.896          31.000  
  24174840.951     2586885.6583      -3507.601          24.000  
  21081562.061      665211.0073      -1835.238          19.000  
 18 10  4 13  1 51.0000000  0 12G23G31G17G18G 1G19G 9G11G 3G 6G14G22
  22092690.498    -1603107.1053       1969.338          26.000  
  24088452.741     -307580.5793        242.957          17.000  
  22010960.484     -504056.6453        568.412          31.000  
  22499189.691     2658352.8613      -3667.284          31.000  
  20891180.552     1453805.2493      -2160.150          26.000  
  23253370.546    -1629859.6952       2070.796          31.000  
  23629654.757    -2346555.804        3099.529          37.000  
  21777212.950     2386686.161       -3637.643          40.000  
  20322192.855      176420.6243       -634.279          28.000  
  25071353.147     -410649.0092       2721.447          31.000  
  24175509.870     2590395.2083      -3509.046          25.000  
  21081910.734      667043.9843      -1832.422          18.000  
 18 10  4 13  1 52.0000000  0 11G23G17G18G 1G19G 9G11G 3G 6G14G22
  22092316.802    -1605076.5723       1969.241          26.000  
  22010851.751     -504627.8622        571.998          31.000  
  22499889.061     2662022.0373      -3669.203          31.000  
  20891590.964     1455966.1523      -2159.970          27.000  
  23252977.131    -1631928.6002       2068.085          31.000  
  23629064.940    -2349655.084        3100.628          38.000  
  21777905.305     2390323.039       -3636.819          40.000  
  20322310.329      177055.2543       -635.510          28.000  
  25070834.910     -413373.0022       2725.837          31.000  
  24176177.830     2593903.5573      -3510.692          25.000  
  21082257.645      668881.9703      -1836.697          17.000  
 18 10  4 13  1 53.0000000  0 10G23G17G18G 1G19G 9G11G 3G 6G14
  22091939.894    -1607045.6183       1969.499          25.000  
  22010743.647     -505198.2343        571.708          30.000  
  22500587.889     2665691.6552      -3671.146          31.000  
  20892002.423     1458127.2613      -2161.125          27.000  
  23252583.734    -1633996.7962       2070.344          31.000  
  23628475.506    -2352754.042        3098.834          38.000  
  21778598.061     2393960.431       -3636.676          40.000  
  20322431.312      177690.4413       -635.150          28.000  
  25070317.197     -416096.9212       2723.583          32.000  
  24176844.934     2597413.9043      -3507.059          25.000  
 18 10  4 13  1 54.0000000  0 10G23G17G18G 1G19G 9G11G 3G 6G14
  22091565.919    -1609014.2413       1967.645          25.000  
  22010634.549     -505768.1203        571.867          30.000  
  22501285.898     2669361.5092      -3670.269          31.000  
  20892413.183     1460288.9243      -2162.645          27.000  
  23252190.458    -1636064.5572       2066.870          32.000  
  23627886.212    -2355852.876        3097.204          38.000  
  21779290.747     2397598.237       -3637.271          40.000  
  20322550.113      178326.0713       -634.592          27.000  
  25069799.048     -418820.8412       2724.813          32.000  
  24177513.871     2600923.7983      -3508.598          25.000  
 18 10  4 13  1 55.0000000  0 10G23G17G18G 1G19G 9G11G 3G 6G14
  22091194.072    -1610983.3343       1975.117          25.000  
  22010526.270     -506337.4113        570.439          28.000  
  22501985.582     2673031.7432      -3671.048          32.000  
  20892825.480     1462451.1243      -2162.149          27.000  
  23251797.444    -1638131.7342       2066.279          32.000  
  23627296.709    -2358951.466        3098.198          38.000  
  21779983.364     2401236.513       -3639.250          40.000  
  20322671.741      178962.0363       -635.313          27.000  
  25069280.829     -421544.7442       2724.406          32.000  
  24178182.441     2604434.2233      -3504.428          25.000  
 18 10  4 13  1 56.0000000  0 10G23G17G18G 1G19G 9G11G 3G 6G14
  22090820.812    -1612952.3933       1970.651          25.000  
  22010417.450     -506905.7233        566.736          27.000  
  22502685.144     2676702.0942      -3671.592          32.000  
  20893236.205     1464613.6353      -2162.555          27.000  
  23251404.535    -1640198.5822       2065.188          31.000  
  23626707.188    -2362050.020        3099.589          37.000  
  21780675.824     2404875.081       -3637.797          40.000  
  20322790.071      179598.2423       -636.730          27.000  
  25068762.662     -424268.8112       2721.376          32.000  
  24178849.789     2607945.0343      -3512.315          25.000  
 18 10  4 13  1 57.0000000  0 11G23G31G17G18G 1G19G 9G11G 3G 6G14
  22090447.203    -1614919.0893       1967.930          24.000  
  24088187.323     -309085.0293        240.482          20.000  
  22010309.957     -507474.3903        566.980          25.000  
  22503383.676     2680372.6392      -3671.810          32.000  
  20893649.531     1466776.3943      -2163.281          27.000  
  23251011.504    -1642264.9922       2067.551          31.000  
  23626117.476    -2365148.534        3098.580          38.000  
  21781368.318     2408513.921       -3639.604          40.000  
  20322908.156      180234.8053       -637.062          26.000  
  25068243.954     -426992.9493       2723.647          31.000  
  24179519.285     2611457.5803      -3513.481          25.000  
 18 10  4 13  1 58.0000000  0 11G23G31G17G18G 1G19G 9G11G 3G 6G14
  22090072.093    -1616885.8773       1960.983          23.000  
  24088150.991     -309324.6023        238.345          23.000  
  22010199.951     -508042.1213        567.701          25.000  
  22504082.889     2684043.4053      -3669.089          32.000  
  20894060.275     1468939.6443      -2162.599          26.000  
  23250617.862    -1644331.0122       2065.609          32.000  
  23625527.903    -2368246.938        3097.731          38.000  
  21782060.690     2412153.114       -3639.590          40.000  
  20323028.319      180871.6453       -637.955          26.000  
  25067725.438     -429717.2122       2725.813          32.000  
  24180186.738     2614968.4033      -3510.670          26.000  
 18 10  4 13  1 59.0000000  0 11G23G31G17G18G 1G19G 9G11G 3G 6G14
  22089695.936    -1618853.7343       1965.671          22.000  
  24088108.727     -309565.2293        240.442          25.000  
  22010091.725     -508608.6293        563.348          24.000  
  22504781.718     2687714.3922      -3670.258          32.000  
  20894471.890     1471103.1943      -2162.598          26.000  
  23250225.075    -1646396.5952       2065.889          31.000  
  23624938.312    -2371345.224        3098.047          38.000  
  21782753.726     2415792.695       -3639.079          40.000  
  20323149.127      181508.9113       -636.522          26.000  
  25067207.394     -432441.5612       2724.218          32.000  
  24180854.226     2618480.0863      -3516.321          26.000  
 18 10  4 13  2  0.0000000  0 11G23G31G17G18G 1G19G 9G11G 3G 6G14
  22089319.744    -1620825.6433       1959.845          21.000  
  24088067.038     -309805.3163        239.823          27.000  
  22009983.324     -509175.2963        568.945          23.000  
  22505480.529     2691385.7132      -3669.786          32.000  
  20894885.234     1473267.1693      -2164.304          26.000  
  23249832.271    -1648461.6912       2063.305          32.000  
  23624348.530    -2374443.343        3098.874          38.000  
  21783446.848     2419432.674       -3639.982          40.000  
  20323268.765      182146.4583       -638.777          25.000  
  25066688.983     -435165.8912       2724.722          33.000  
  24181523.617     2621992.9803      -3511.415          26.000  
 18 10  4 13  2  1.0000000  0 11G23G31G17G18G 1G19G 9G11G 3G 6G14
  22088944.704    -1622791.7383       1973.806          20.000  
  24088024.059     -310044.8573        238.811          27.000  
  22009874.330     -509738.4643        565.359          23.000  
  22506179.218     2695057.3162      -3673.105          32.000  
  20895297.966     1475431.6023      -2164.389          26.000  
  23249439.100    -1650526.139        2065.111          31.000  
  23623758.381    -2377541.267        3097.547          37.000  
  21784139.447     2423073.087       -3640.828          40.000  
  20323388.631      182784.4093       -638.901          25.000  
  25066171.217     -437890.2242       2723.802          32.000  
  24182188.540     2625505.0393      -3512.654          26.000  
 18 10  4 13  2  2.0000000  0 10G31G17G18G 1G19G 9G11G 3G 6G14
  24087979.246     -310283.7233        239.053          28.000  
  22009764.324     -510303.3193        563.157          22.000  
  22506877.977     2698729.2052      -3670.790          33.000  
  20895712.025     1477596.4593      -2165.743          26.000  
  23249045.615    -1652590.288        2062.610          31.000  
  23623168.965    -2380639.060        3095.813          38.000  
  21784832.797     2426713.892       -3640.460          40.000  
  20323510.084      183422.8443       -638.873          25.000  
  25065653.347     -440614.6092       2724.081          33.000  
  24182856.639     2629017.5153      -3507.539          26.000  
 18 10  4 13  2  3.0000000  0 10G31G17G18G 1G19G 9G11G 3G 6G14
  24087932.009     -310522.0353        238.000          28.000  
  22009654.789     -510868.3093        562.670          22.000  
  22507575.986     2702401.4272      -3671.110          32.000  
  20896123.135     1479761.8163      -2165.615          26.000  
  23248652.723    -1654653.744        2064.724          31.000  
  23622580.159    -2383736.574        3097.148          38.000  
  21785526.129     2430355.191       -3640.775          40.000  
  20323631.032      184061.7073       -639.156          25.000  
  25065135.302     -443338.8752       2724.197          33.000  
  24183525.087     2632530.2843      -3512.819          26.000  
 18 10  4 13  2  4.0000000  0 10G31G17G18G 1G19G 9G11G 3G 6G14
  24087885.120     -310759.7383        237.824          29.000  
  22009545.149     -511433.5823        566.105          23.000  
  22508274.501     2706073.9302      -3675.030          32.000  
  20896533.860     1481927.6133      -2166.083          26.000  
  23248260.652    -1656716.732        2062.408          31.000  
  23621990.639    -2386833.934        3097.238          38.000  
  21786219.618     2433996.884       -3642.286          40.000  
  20323753.061      184700.8983       -639.565          25.000  
  25064617.240     -446063.2092       2725.835          32.000  
  24184194.093     2636043.2793      -3514.566          26.000  
 18 10  4 13  2  5.0000000  0 10G31G17G18G 1G19G 9G11G 3G 6G14
  24087839.505     -310997.0783        236.822          29.000  
  22009435.335     -511996.5683        562.666          24.000  
  22508972.004     2709746.5172      -3672.750          32.000  
  20896945.546     1484093.6523      -2166.435          26.000  
  23247867.969    -1658779.456        2061.728          31.000  
  23621401.118    -2389931.352        3097.628          38.000  
  21786912.496     2437638.794       -3640.989          40.000  
  20323876.295      185340.3743       -638.312          26.000  
  25064098.899     -448787.8022       2723.341          33.000  
  24184860.220     2639556.4093      -3513.461          26.000  
 18 10  4 13  2  6.0000000  0 11G23G31G17G18G 1G19G 9G11G 3G 6G14
  22087068.038    -1632613.8053       1965.047          17.000  
  24087794.815     -311233.8943        236.889          30.000  
  22009329.848     -512557.9593        562.867          24.000  
  22509669.820     2713419.2903      -3670.758          32.000  
  20897356.882     1486259.9493      -2166.438          26.000  
  23247474.973    -1660841.763        2060.614          31.000  
  23620811.423    -2393028.685        3096.915          38.000  
  21787605.514     2441281.016       -3642.172          40.000  
  20323997.905      185980.0593       -639.936          25.000  
  25063580.942     -451512.4302       2723.760          33.000  
  24185528.162     2643069.6973      -3513.473          26.000  
 18 10  4 13  2  7.0000000  0 10G31G17G18G 1G19G 9G11G 3G 6G14
  24087749.671     -311470.0783        236.517          30.000  
  22009225.147     -513119.3533        564.135          24.000  
  22510367.707     2717092.4292      -3674.141          32.000  
  20897769.249     1488426.8323      -2166.918          26.000  
  23247082.361    -1662903.518        2061.163          31.000  
  23620222.356    -2396125.763        3097.267          38.000  
  21788298.689     2444923.740       -3643.037          40.000  
  20324120.685      186620.2643       -640.385          25.000  
  25063063.054     -454237.035        2721.328          33.000  
  24186197.971     2646583.3513      -3513.908          26.000  
 18 10  4 13  2  8.0000000  0 10G31G17G18G 1G19G 9G11G 3G 6G14
  24087703.481     -311705.7303        235.792          31.000  
  22009115.629     -513680.1223        571.895          24.000  
  22511065.192     2720765.8242      -3672.261          32.000  
  20898181.231     1490594.0783      -2166.634          26.000  
  23246690.411    -1664964.793        2061.652          31.000  
  23619633.062    -2399222.732        3097.341          38.000  
  21788992.685     2448566.814       -3642.733          40.000  
  20324242.383      187260.8443       -639.855          25.000  
  25062544.277     -456961.615        2725.754          32.000  
  24186868.810     2650097.3453      -3514.334          27.000  
 18 10  4 13  2  9.0000000  0 10G31G17G18G 1G19G 9G11G 3G 6G14
  24087655.091     -311941.1133        234.195          32.000  
  22009008.502     -514242.1783        557.639          24.000  
  22511763.585     2724439.4172      -3674.013          33.000  
  20898594.993     1492761.6153      -2167.359          26.000  
  23246298.706    -1667025.6523       2062.383          31.000  
  23619043.908    -2402319.602        3096.464          38.000  
  21789685.563     2452210.240       -3644.010          40.000  
  20324363.487      187901.6943       -640.967          24.000  
  25062025.377     -459686.423        2722.930          32.000  
  24187535.461     2653611.4563      -3514.475          27.000  
 18 10  4 13  2 10.0000000  0 10G31G17G18G 1G19G 9G11G 3G 6G14
  24087613.263     -312175.7312        236.653          32.000  
  22008901.829     -514805.5703        564.087          24.000  
  22512462.483     2728113.2272      -3672.705          33.000  
  20899006.626     1494929.5953      -2167.748          26.000  
  23245906.495    -1669086.1292       2059.293          31.000  
  23618454.841    -2405416.399        3095.885          38.000  
  21790379.279     2455854.009       -3644.151          40.000  
  20324486.162      188544.4033       -635.481          24.000  
  25061506.739     -462411.254        2723.743          33.000  
  24188203.246     2657125.8143      -3514.782          27.000  
 18 10  4 13  2 11.0000000  0 10G31G17G18G 1G19G 9G11G 3G 6G14
  24087562.605     -312409.8532        231.134          32.000  
  22008795.854     -515365.9663        562.384          23.000  
  22513160.963     2731787.2902      -3672.642          34.000  
  20899419.725     1497097.9763      -2167.781          26.000  
  23245514.528    -1671146.0512       2060.066          31.000  
  23617865.442    -2408512.983        3096.221          38.000  
  21791073.012     2459498.155       -3645.120          40.000  
  20324609.675      189186.7643       -640.967          23.000  
  25060988.101     -465136.089        2725.721          33.000  
  24188874.137     2660640.4873      -3515.024          27.000  
 18 10  4 13  2 12.0000000  0  9G31G17G18G 1G19G 9G11G 6G14
  24087513.378     -312643.1702        232.416          32.000  
  22008691.327     -515928.1393        559.697          23.000  
  22513859.897     2735461.8072      -3675.027          34.000  
  20899832.231     1499266.9153      -2170.831          26.000  
  23245122.876    -1673205.3402       2059.776          31.000  
  23617276.131    -2411609.241        3095.383          37.000  
  21791766.850     2463142.919       -3645.214          40.000  
  25060470.057     -467860.794        2724.864          32.000  
  24189540.526     2664155.6193      -3514.840          27.000  
 18 10  4 13  2 13.0000000  0  9G31G17G18G 1G19G 9G11G 6G14
  24087468.583     -312875.9102        234.407          31.000  
  22008584.532     -516488.5413        556.315          22.000  
  22514558.918     2739136.598       -3674.861          34.000  
  20900246.202     1501436.3443      -2169.162          26.000  
  23244731.013    -1675264.1432       2058.924          31.000  
  23616686.575    -2414705.357        3095.133          38.000  
  21792460.217     2466788.104       -3644.434          40.000  
  25059951.488     -470585.559        2724.450          32.000  
  24190210.352     2667671.0823      -3514.550          27.000  
 18 10  4 13  2 14.0000000  0  9G31G17G18G 1G19G 9G11G 6G14
  24087422.044     -313108.4833        231.669          31.000  
  22008476.201     -517046.2403        558.312          22.000  
  22515258.270     2742811.434       -3674.741          34.000  
  20900658.499     1503605.6223      -2165.680          26.000  
  23244338.977    -1677322.7313       2057.523          31.000  
  23616097.613    -2417801.593        3097.042          38.000  
  21793153.933     2470433.374       -3644.508          39.000  
  25059432.798     -473310.529        2725.985          32.000  
  24190879.080     2671186.4803      -3514.891          27.000  
 18 10  4 13  2 15.0000000  0  9G31G17G18G 1G19G 9G11G 6G14
  24087375.853     -313340.2552        231.710          31.000  
  22008368.097     -517602.0353        555.729          22.000  
  22515957.779     2746486.497       -3675.262          35.000  
  20901071.859     1505774.9893      -2170.818          27.000  
  23243947.167    -1679380.7962       2057.486          31.000  
  23615509.314    -2420897.646        3095.588          38.000  
  21793847.789     2474079.115       -3646.158          39.000  
  25058914.248     -476035.568        2725.635          32.000  
  24191549.063     2674702.2603      -3515.826          27.000  
 18 10  4 13  2 16.0000000  0  9G31G17G18G 1G19G 9G11G 6G14
  24087330.063     -313571.4722        231.415          31.000  
  22008259.801     -518160.8563        558.651          22.000  
  22516657.481     2750161.973       -3675.414          35.000  
  20901485.709     1507945.5493      -2171.458          27.000  
  23243555.776    -1681438.2253       2056.661          31.000  
  23614920.543    -2423993.400        3095.517          38.000  
  21794541.993     2477725.324       -3646.910          39.000  
  25058395.016     -478760.569        2724.158          32.000  
  24192217.319     2678218.4013      -3516.613          27.000  
 18 10  4 13  2 17.0000000  0  9G31G17G18G 1G19G 9G11G 6G14
  24087285.234     -313802.0903        230.325          31.000  
  22008154.733     -518715.2783        554.996          22.000  
  22517357.514     2753837.783       -3675.758          35.000  
  20901901.390     1510116.6053      -2171.311          28.000  
  23243164.315    -1683495.1652       2056.192          31.000  
  23614331.546    -2427088.916        3095.509          38.000  
  21795235.727     2481372.062       -3646.223          39.000  
  25057876.204     -481485.386        2724.166          32.000  
  24192885.593     2681734.8973      -3516.408          27.000  
 18 10  4 13  2 18.0000000  0  9G31G17G18G 1G19G 9G11G 6G14
  24087241.242     -314032.3403        229.513          31.000  
  22008047.362     -519272.8203        554.305          21.000  
  22518057.529     2757513.676       -3675.446          35.000  
  20902315.100     1512287.7993      -2171.128          28.000  
  23242772.384    -1685551.8502       2057.757          31.000  
  23613742.584    -2430184.550        3096.246          37.000  
  21795929.809     2485018.886       -3647.569          38.000  
  25057358.264     -484210.603        2724.123          32.000  
  24193555.664     2685251.5163      -3515.968          27.000  
 18 10  4 13  2 19.0000000  0  9G31G17G18G 1G19G 9G11G 6G14
  24087197.599     -314262.0242        229.463          31.000  
  22007941.003     -519830.5663        553.075          22.000  
  22518756.585     2761189.756       -3675.550          35.000  
  20902728.286     1514459.3893      -2171.461          28.000  
  23242381.499    -1687608.0102       2056.948          31.000  
  23613154.058    -2433280.085        3095.973          37.000  
  21796624.171     2488666.154       -3647.556          38.000  
  25056839.766     -486935.784        2725.418          32.000  
  24194221.826     2688768.3053      -3517.142          27.000  
 18 10  4 13  2 20.0000000  0  9G31G17G18G 1G19G 9G11G 6G14
  24087153.432     -314491.3072        227.826          31.000  
  22007833.771     -520387.0953        554.453          22.000  
  22519456.339     2764866.052       -3674.314          35.000  
  20903144.457     1516631.2553      -2172.751          28.000  
  23241990.666    -1689663.8052       2053.655          31.000  
  23612564.520    -2436375.470        3094.810          37.000  
  21797318.515     2492313.697       -3647.843          38.000  
  25056321.093     -489661.124        2725.343          32.000  
  24194892.473     2692285.3243      -3517.684          27.000  
 18 10  4 13  2 21.0000000  0  9G31G17G18G 1G19G 9G11G 6G14
  24087110.452     -314719.8193        229.441          31.000  
  22007727.360     -520941.4373        557.469          23.000  
  22520155.970     2768542.689       -3677.778          35.000  
  20903560.679     1518803.6943      -2172.918          28.000  
  23241599.886    -1691718.9662       2055.747          31.000  
  23611975.714    -2439470.595        3095.305          37.000  
  21798012.615     2495961.766       -3648.333          38.000  
  25055801.931     -492386.3353       2725.358          32.000  
  24195562.962     2695802.7713      -3517.790          27.000  
 18 10  4 13  2 22.0000000  0  9G31G17G18G 1G19G 9G11G 6G14
  24087066.914     -314947.9812        227.917          31.000  
  22007621.036     -521494.7313        553.544          25.000  
  22520856.003     2772219.461       -3678.223          35.000  
  20903974.808     1520976.4143      -2172.284          28.000  
  23241208.425    -1693773.8112       2053.529          31.000  
  23611387.694    -2442565.738        3094.901          37.000  
  21798707.360     2499610.109       -3648.027          38.000  
  25055282.735     -495111.7142       2725.629          31.000  
  24196234.307     2699320.3263      -3517.752          27.000  
 18 10  4 13  2 23.0000000  0  9G31G17G18G 1G19G 9G11G 6G14
  24087023.742     -315175.5642        228.771          31.000  
  22007518.114     -522048.2523        553.425          26.000  
  22521556.036     2775896.480       -3678.785          35.000  
  20904388.448     1523149.4343      -2173.893          28.000  
  23240817.418    -1695828.2123       2054.516          31.000  
  23610798.784    -2445660.766        3094.439          37.000  
  21799401.844     2503258.758       -3649.146          38.000  
  25054764.132     -497837.2322       2722.988          31.000  
  24196904.553     2702838.1353      -3517.658          27.000  
 18 10  4 13  2 24.0000000  0 10G31G17G18G 1G19G 9G11G 6G14G22
  24086980.728     -315402.5063        227.236          31.000  
  22007414.896     -522600.9333        553.099          26.000  
  22522256.348     2779573.948       -3677.500          35.000  
  20904799.784     1525322.5213      -2173.268          27.000  
  23240426.743    -1697882.0623       2052.919          31.000  
  23610210.136    -2448755.518        3094.156          37.000  
  21800096.153     2506907.971       -3648.573          37.000  
  25054245.983     -500562.6332       2726.220          31.000  
  24197572.791     2706356.3083      -3517.105          27.000  
  21093454.542      727571.7953      -1852.657          19.000  
 18 10  4 13  2 25.0000000  0 10G31G17G18G 1G19G 9G11G 6G14G22
  24086937.399     -315628.6252        226.232          31.000  
  22007311.067     -523152.8563        551.296          27.000  
  22522956.154     2783251.838       -3679.911          35.000  
  20905214.541     1527496.7483      -2175.420          26.000  
  23240036.050    -1699935.1482       2055.219          31.000  
  23609621.209    -2451849.884        3093.459          37.000  
  21800790.044     2510557.756       -3649.573          37.000  
  25053727.345     -503287.8112       2723.943          32.000  
  24198241.867     2709875.0443      -3518.442          27.000  
  21093804.663      729416.7993      -1850.346          19.000  
 18 10  4 13  2 26.0000000  0 10G31G17G18G 1G19G 9G11G 6G14G22
  24086893.878     -315854.1192        227.395          31.000  
  22007206.314     -523704.1133        551.237          27.000  
  22523656.257     2786930.069       -3678.737          35.000  
  20905625.878     1529671.4333      -2175.451          24.000  
  23239645.374    -1701987.7742       2054.647          31.000  
  23609032.910    -2454944.069        3094.005          37.000  
  21801484.248     2514207.996       -3648.611          37.000  
  25053208.445     -506013.0222       2727.203          32.000  
  24198911.834     2713394.0643      -3519.355          27.000  
  21094162.759      731266.3133      -1839.061          18.000  
 18 10  4 13  2 27.0000000  0 10G31G17G18G 1G19G 9G11G 6G14G22
  24086850.078     -316079.2292        221.807          32.000  
  22007104.160     -524254.8833        549.495          28.000  
  22524356.011     2790608.462       -3679.488          35.000  
  20906037.964     1531846.5183      -2176.557          23.000  
  23239255.833    -1704039.9532       2052.182          31.000  
  23608444.733    -2458038.162        3093.868          37.000  
  21802178.819     2517858.527       -3651.274          36.000  
  25052689.772     -508738.3312       2725.546          32.000  
  24199580.875     2716913.3453      -3518.148          27.000  
  21094508.849      733107.1273      -1842.070          19.000  
 18 10  4 13  2 28.0000000  0 10G31G17G18G 1G19G 9G11G 6G14G22
  24086806.452     -316303.7842        225.364          32.000  
  22007002.024     -524805.0853        549.561          28.000  
  22525055.311     2794287.010       -3678.391          35.000  
  20906448.446     1534021.5223      -2175.991          22.000  
  23238865.262    -1706091.7632       2049.137          32.000  
  23607855.578    -2461132.248        3093.924          37.000  
  21802873.181     2521509.356       -3650.379          36.000  
  25052170.995     -511463.7422       2724.420          32.000  
  24200249.742     2720432.7383      -3519.227          27.000  
  21094861.466      734949.6083      -1843.326          19.000  
 18 10  4 13  2 29.0000000  0 10G31G17G18G 1G19G 9G11G 6G14G22
  24086763.315     -316527.6732        223.153          31.000  
  22006898.405     -525354.6063        548.732          28.000  
  22525754.593     2797966.046       -3678.784          35.000  
  20906858.770     1536197.8423      -2178.761          21.000  
  23238474.849    -1708142.9222       2053.376          32.000  
  23607266.337    -2464225.980        3094.777          37.000  
  21803568.084     2525160.752       -3651.225          35.000  
  25051652.305     -514189.0562       2725.820          31.000  
  24200920.720     2723952.5613      -3519.656          27.000  
  21095210.889      736791.0333      -1845.491          19.000  
 18 10  4 13  2 30.0000000  0 10G31G17G18G 1G19G 9G11G 6G14G22
  24086719.166     -316750.9432        223.710          31.000  
  22006796.042     -525903.3743        548.844          28.000  
  22526453.876     2801645.389       -3680.156          36.000  
  20907271.119     1538374.6823      -2180.570          21.000  
  23238085.499    -1710193.5292       2051.313          32.000  
  23606677.584    -2467319.492        3094.438          37.000  
  21804263.126     2528812.640       -3651.992          35.000  
  25051133.806     -516914.3212       2726.993          32.000  
  24201592.641     2727472.7853      -3520.476          26.000  
  21095560.556      738632.9953      -1850.616          19.000  
 18 10  4 13  2 31.0000000  0 11G23G31G17G18G 1G19G 9G11G 6G14G22
  22077763.023       -4826.9783       1958.943          25.000  
  24086675.576     -316974.302         221.699          31.000  
  22006690.730     -526451.9233        548.065          29.000  
  22527153.612     2805324.719       -3680.254          36.000  
  20907684.619     1540550.7593      -2177.498          21.000  
  23237695.609    -1712243.966        2049.456          32.000  
  23606089.407    -2470413.118        3093.248          37.000  
  21804957.208     2532464.632       -3652.365          35.000  
  25050615.884     -519639.868        2726.255          32.000  
  24202262.014     2730993.0453      -3520.331          26.000  
  21095908.810      740474.0113      -1837.676          18.000  
 18 10  4 13  2 32.0000000  0 11G23G31G17G18G 1G19G 9G11G 6G14G22
  22077390.688       -6781.8173       1953.712          26.000  
  24086631.985     -317196.655         223.260          31.000  
  22006587.895     -526999.8643        547.603          29.000  
  22527853.034     2809004.320       -3680.605          35.000  
  20908095.136     1542724.9663      -2171.522          21.000  
  23237306.295    -1714293.836        2049.686          32.000  
  23605501.247    -2473506.588        3092.924          36.000  
  21805653.036     2536116.997       -3653.358          35.000  
  25050096.530     -522365.4553       2727.104          32.000  
  24202930.078     2734513.5183      -3519.527          26.000  
  21096262.230      742316.2883      -1846.702          18.000  
 18 10  4 13  2 33.0000000  0 11G23G31G17G18G 1G19G 9G11G 6G14G22
  22077018.074       -8736.3043       1955.248          26.000  
  24086588.656     -317418.506         221.899          31.000  
  22006484.869     -527547.1423        547.165          29.000  
  22528552.701     2812684.242       -3680.001          35.000  
  20908508.287     1544900.1563      -2174.725          20.000  
  23236916.579    -1716343.2713       2047.560          32.000  
  23604912.931    -2476599.872        3093.673          36.000  
  21806348.217     2539769.854       -3652.334          35.000  
  25049577.543     -525091.0742       2724.850          32.000  
  24203599.992     2738034.3313      -3522.685          25.000  
  21096613.642      744164.9323      -1844.799          19.000  
 18 10  4 13  2 34.0000000  0 11G23G31G17G18G 1G19G 9G11G 6G14G22
  22076648.426      -10690.3913       1954.646          27.000  
  24086544.734     -317639.643         221.226          31.000  
  22006380.657     -528093.8183        546.644          29.000  
  22529253.065     2816364.430       -3680.312          35.000  
  20908919.781     1547076.8153      -2178.462          20.000  
  23236526.654    -1718392.1172       2046.797          32.000  
  23604324.352    -2479692.940        3093.045          36.000  
  21807043.137     2543423.080       -3652.324          34.000  
  25049059.028     -527816.6252       2727.245          32.000  
  24204272.977     2741555.4433      -3522.892          25.000  
  21096965.822      746009.5603      -1845.316          19.000  
 18 10  4 13  2 35.0000000  0 12G23G31G17G18G 1G19G 9G11G 3G 6G14G22
  22076280.401      -12643.9563       1952.890          27.000  
  24086501.073     -317860.116         221.475          32.000  
  22006276.741     -528639.8153        545.516          29.000  
  22529953.203     2820045.030       -3681.082          35.000  
  20909336.806     1549253.9173      -2178.232          21.000  
  23236137.235    -1720440.3782       2048.552          32.000  
  23603736.175    -2482785.766        3093.228          36.000  
  21807739.017     2547076.825       -3654.409          34.000  
  20327563.962      204704.2583       -657.161          14.000  
  25048539.692     -530542.1292       2726.153          31.000  
  24204940.395     2745077.0013      -3520.848          24.000  
  21097318.648      747856.7173      -1847.347          19.000  
 18 10  4 13  2 36.0000000  0 12G23G31G17G18G 1G19G 9G11G 3G 6G14G22
  22075909.775      -14597.1533       1954.743          28.000  
  24086457.849     -318080.132         219.197          32.000  
  22006173.278     -529185.2193        545.355          29.000  
  22530653.079     2823725.881       -3678.949          35.000  
  20909751.633     1551430.5233      -2172.544          22.000  
  23235748.060    -1722488.2382       2047.499          33.000  
  23603148.557    -2485878.496        3092.509          36.000  
  21808434.321     2550730.950       -3653.657          34.000  
  20327691.610      205363.4953       -675.637          16.000  
  25048020.530     -533267.7002       2726.032          31.000  
  24205608.128     2748598.7583      -3522.558          24.000  
  21097670.200      749702.6853      -1837.200          19.000  
 18 10  4 13  2 37.0000000  0 12G23G31G17G18G 1G19G 9G11G 3G 6G14G22
  22075537.754      -16550.0573       1951.945          28.000  
  24086415.114     -318299.0473        221.178          32.000  
  22006069.048     -529730.0523        544.561          29.000  
  22531352.972     2827406.938       -3681.518          35.000  
  20910167.977     1553607.5973      -2178.827          23.000  
  23235359.095    -1724535.5622       2046.038          33.000  
  23602560.415    -2488971.036        3092.943          36.000  
  21809129.328     2554385.434       -3654.501          34.000  
  20327819.485      206023.0393       -646.916          17.000  
  25047501.631     -535993.3302       2725.774          32.000  
  24206274.115     2752120.5933      -3523.995          23.000  
  21098022.136      751548.5733      -1842.806          19.000  
 18 10  4 13  2 38.0000000  0 12G23G31G17G18G 1G19G 9G11G 3G 6G14G22
  22075165.175      -18502.5213       1953.392          28.000  
  24086372.518     -318517.9052        219.301          32.000  
  22005963.282     -530274.2323        544.137          29.000  
  22532053.319     2831088.309       -3680.152          35.000  
  20910585.509     1555787.7363      -2177.027          24.000  
  23234970.356    -1726582.4322       2045.407          33.000  
  23601971.382    -2492063.424        3092.347          36.000  
  21809825.767     2558040.339       -3655.850          33.000  
  20327947.919      206678.0803       -643.361          17.000  
  25046982.748     -538718.9362       2727.196          32.000  
  24206945.827     2755641.4933      -3515.285          23.000  
  21098373.374      753394.3443      -1840.751          19.000  
 18 10  4 13  2 39.0000000  0 12G23G31G17G18G 1G19G 9G11G 3G 6G14G22
  22074791.164      -20454.6443       1951.782          28.000  
  24086329.939     -318736.2632        217.289          32.000  
  22005861.146     -530817.9053        543.814          29.000  
  22532754.068     2834769.880       -3681.459          34.000  
  20911001.243     1557967.9003      -2179.246          25.000  
  23234581.565    -1728628.7992       2046.932          33.000  
  23601383.485    -2495155.706        3093.020          36.000  
  21810522.275     2561695.613       -3656.175          33.000  
  20328074.869      207328.9513       -665.392          18.000  
  25046463.884     -541444.6322       2725.006          31.000  
  24207613.437     2759161.9333      -3526.989          22.000  
  21098724.735      755239.1023      -1847.963          18.000  
 18 10  4 13  2 40.0000000  0 12G23G31G17G18G 1G19G 9G11G 3G 6G14G22
  22074419.946      -22406.3883       1952.166          28.000  
  24086287.291     -318953.9532        217.287          33.000  
  22005759.691     -531360.9133        542.940          29.000  
  22533454.118     2838451.808       -3683.520          35.000  
  20911417.901     1560150.2613      -2177.670          25.000  
  23234192.461    -1730674.7182       2045.505          33.000  
  23600795.238    -2498247.773        3091.978          36.000  
  21811217.858     2565351.350       -3657.466          32.000  
  20328202.221      207987.1073       -660.557          17.000  
  25045945.717     -544170.3532       2724.281          32.000  
  24208279.809     2762686.0993      -3523.556          21.000  
  21099078.084      757087.1813      -1849.044          18.000  
 18 10  4 13  2 41.0000000  0 12G23G31G17G18G 1G19G 9G11G 3G 6G14G22
  22074046.895      -24357.8083       1951.557          29.000  
  24086245.428     -319171.2322        216.344          32.000  
  22005653.349     -531903.4193        542.296          29.000  
  22534154.308     2842133.871       -3682.613          34.000  
  20911835.799     1562330.4343      -2176.367          26.000  
  23233803.268    -1732720.1962       2045.804          33.000  
  23600206.275    -2501339.808        3092.504          36.000  
  21811913.738     2569007.314       -3656.360          32.000  
  20328330.044      208645.3443       -655.289          18.000  
  25045426.643     -546896.0972       2728.567          32.000  
  24208947.960     2766210.5833      -3526.729          20.000  
  21099426.530      758934.7233      -1823.970          16.000  
 18 10  4 13  2 42.0000000  0 12G23G31G17G18G 1G19G 9G11G 3G 6G14G22
  22073674.403      -26308.9283       1949.549          29.000  
  24086203.006     -319387.8952        214.700          33.000  
  22005548.648     -532445.4193        541.322          29.000  
  22534855.563     2845816.150       -3683.136          34.000  
  20912251.237     1564511.4843      -2181.186          26.000  
  23233413.989    -1734765.2422       2045.805          33.000  
  23599618.238    -2504431.712        3091.856          36.000  
  21812609.949     2572663.687       -3657.060          32.000  
  20328452.666      209300.2323       -642.753          17.000  
  25044908.005     -549622.0092       2725.895          31.000  
  24209618.066     2769734.5223      -3530.097          19.000  
  21099774.330      760767.5453      -1836.961          16.000  
 18 10  4 13  2 43.0000000  0 12G23G31G17G18G 1G19G 9G11G 3G 6G14G22
  22073304.266      -28259.5013       1951.371          29.000  
  24086161.143     -319603.9672        215.280          33.000  
  22005445.482     -532986.6623        541.226          29.000  
  22535555.770     2849498.833       -3682.637          35.000  
  20912666.238     1566693.0693      -2182.088          26.000  
  23233025.564    -1736809.696        2045.523          33.000  
  23599029.747    -2507523.336        3091.080          35.000  
  21813305.759     2576320.539       -3655.440          31.000  
  20328579.460      209952.4273       -660.904          18.000  
  25044388.948     -552347.795        2724.516          31.000  
  24210290.196     2773255.9003      -3529.765          20.000  
  21100123.282      762612.7613      -1854.673          16.000  
 18 10  4 13  2 44.0000000  0 12G23G31G17G18G 1G19G 9G11G 3G 6G14G22
  22072932.245      -30210.0243       1950.364          29.000  
  24086119.926     -319819.7582        216.266          34.000  
  22005340.345     -533527.5883        541.198          29.000  
  22536257.164     2853181.465       -3682.532          35.000  
  20913081.658     1568874.8153      -2181.526          27.000  
  23232636.896    -1738853.991        2044.979          33.000  
  23598441.901    -2510615.124        3091.201          35.000  
  21814002.616     2579977.9963      -3662.881          30.000  
  20328701.751      210609.7403       -663.608          17.000  
  25043869.752     -555073.876        2728.401          31.000  
  24210961.593     2776775.6803      -3524.411          20.000  
  21100476.579      764467.4403      -1854.673          14.000  
 18 10  4 13  2 45.0000000  0 11G23G31G17G18G 1G19G 9G11G 3G 6G14
  22072561.864      -32160.2673       1948.750          29.000  
  24086079.284     -320035.0312        215.101          34.000  
  22005238.784     -534068.0983        539.176          28.000  
  22536958.541     2856864.336       -3681.345          34.000  
  20913499.259     1571056.8433      -2183.373          27.000  
  23232248.663    -1740897.791        2041.466          33.000  
  23597853.777    -2513706.799        3092.246          35.000  
  21814698.845     2583635.2693      -3659.420          29.000  
  20328828.701      211264.0333       -665.204          17.000  
  25043350.869     -557800.100        2726.649          31.000  
  24211630.704     2780299.0143      -3523.188          20.000  
 18 10  4 13  2 46.0000000  0 11G23G31G17G18G 1G19G 9G11G 3G 6G14
  22072190.837      -34109.9643       1948.688          30.000  
  24086038.747     -320249.6152        214.684          34.000  
  22005136.369     -534607.7763        540.230          28.000  
  22537659.464     2860547.493       -3683.746          34.000  
  20913912.759     1573239.5293      -2183.795          27.000  
  23231859.820    -1742941.014        2044.774          33.000  
  23597264.971    -2516798.205        3090.948          35.000  
  21815394.864     2587293.0773      -3657.462          30.000  
  20328957.362      211930.3973       -668.885          15.000  
  25042831.935     -560526.227        2725.978          31.000  
  24212298.960     2783821.0423      -3521.599          20.000  
 18 10  4 13  2 47.0000000  0 11G23G31G17G18G 1G19G 9G11G 3G 6G14
  22071819.776      -36059.1393       1948.834          30.000  
  24085998.839     -320463.4702        214.076          35.000  
  22005033.081     -535146.7293        537.412          28.000  
  22538360.247     2864231.218       -3684.650          34.000  
  20914327.830     1575422.7823      -2183.246          27.000  
  23231471.308    -1744983.569        2043.214          33.000  
  23596676.341    -2519889.228        3092.158          35.000  
  21816091.250     2590951.4953      -3658.109          29.000  
  20329080.141      212588.4103       -646.725          15.000  
  25042313.332     -563252.220        2728.871          31.000  
  24212969.380     2787348.3203      -3524.558          20.000  
 18 10  4 13  2 48.0000000  0 11G23G31G17G18G 1G19G 9G11G 3G 6G14
  22071448.959      -38007.9553       1949.474          30.000  
  24085959.070     -320676.7852        212.158          36.000  
  22004928.694     -535685.1473        537.983          27.000  
  22539060.925     2867915.120       -3684.385          34.000  
  20914742.308     1577606.3843      -2183.313          27.000  
  23231083.146    -1747025.694        2041.499          33.000  
  23596087.867    -2522980.216        3090.944          35.000  
  21816788.299     2594610.1663      -3659.756          28.000  
  20329207.528      213243.0753       -655.723          15.000  
  25041794.537     -565978.160        2727.311          31.000  
  24213637.427     2790871.2543      -3522.161          20.000  
 18 10  4 13  2 49.0000000  0 11G23G31G17G18G 1G19G 9G11G 3G 6G14
  22071078.979      -39956.4503       1947.636          30.000  
  24085919.545     -320890.081         211.238          36.000  
  22004827.134     -536222.9913        537.708          27.000  
  22539761.796     2871599.211       -3684.996          34.000  
  20915157.029     1579790.3903      -2184.385          27.000  
  23230694.931    -1749067.385        2040.649          33.000  
  23595499.149    -2526071.020        3089.860          35.000  
  21817485.051     2598268.9393      -3658.886          27.000  
  20329333.466      213900.3853       -659.363          14.000  
  25041275.829     -568704.378        2727.575          31.000  
  24214305.945     2794391.9413      -3526.907          20.000  
 18 10  4 13  2 50.0000000  0 11G23G31G17G18G 1G19G 9G11G 3G 6G14
  22070708.668      -41904.5723       1947.924          30.000  
  24085880.020     -321102.346         212.346          37.000  
  22004723.584     -536760.2833        537.593          28.000  
  22540462.614     2875283.641       -3683.591          33.000  
  20915573.915     1581974.6933      -2184.578          28.000  
  23230306.489    -1751108.585        2040.197          33.000  
  23594910.082    -2529161.744        3090.220          35.000  
  21818183.793     2601928.2303      -3660.111          26.000  
  20329459.579      214551.7703       -666.326          14.000  
  25040757.505     -571430.5043       2725.269          31.000  
  24214976.766     2797916.0993      -3530.299          22.000  
 18 10  4 13  2 51.0000000  0 11G23G31G17G18G 1G19G 9G11G 3G 6G14
  22070339.439      -43852.3243       1946.747          30.000  
  24085839.954     -321314.003         211.314          37.000  
  22004621.029     -537296.9503        536.544          27.000  
  22541163.956     2878968.341       -3685.833          33.000  
  20915989.597     1584159.5293      -2185.877          28.000  
  23229918.588    -1753149.275        2040.458          33.000  
  23594320.596    -2532252.257        3088.651          37.000  
  21818880.807     2605588.0953      -3665.806          25.000  
  20329581.870      215198.4313       -640.938          14.000  
  25040238.449     -574156.6482       2727.511          31.000  
  24215650.117     2801445.7133      -3533.332          22.000  
 18 10  4 13  2 52.0000000  0 10G23G31G17G18G 1G19G 9G11G 6G14
  22069968.604      -45799.5343       1946.536          30.000  
  24085800.709     -321524.945         211.760          37.000  
  22004519.696     -537832.9393        535.005          27.000  
  22541865.908     2882653.385       -3685.111          32.000  
  20916404.196     1586344.9043      -2184.892          28.000  
  23229530.251    -1755189.313        2039.034          32.000  
  23593732.524    -2535342.438        3090.399          34.000  
  21819582.061     2609247.7943      -3663.885          23.000  
  25039720.055     -576882.7273       2727.305          30.000  
  24216323.888     2804971.9483      -3521.399          23.000  
 18 10  4 13  2 53.0000000  0 10G23G31G17G18G 1G19G 9G11G 6G14
  22069598.747      -47746.4153       1946.892          30.000  
  24085761.586     -321735.382         211.184          38.000  
  22004418.292     -538368.3053        534.827          27.000  
  22542567.669     2886338.7353      -3684.730          32.000  
  20916820.367     1588530.6473      -2186.105          28.000  
  23229142.176    -1757228.924        2040.277          32.000  
  23593144.626    -2538432.593        3089.739          35.000  
  21820283.804     2612908.4933      -3660.972          21.000  
  25039200.719     -579608.8162       2727.688          30.000  
  24216994.325     2808497.9783      -3522.507          23.000  
 18 10  4 13  2 54.0000000  0 11G23G31G17G18G 1G19G 9G11G 3G 6G14
  22069226.691      -49692.8443       1946.006          30.000  
  24085722.480     -321945.156         208.757          38.000  
  22004314.289     -538902.9563        534.918          27.000  
  22543269.604     2890024.3932      -3685.872          32.000  
  20917236.013     1590716.8943      -2185.599          28.000  
  23228754.659    -1759267.948        2038.008          32.000  
  23592557.234    -2541522.399        3088.791          35.000  
  21820982.738     2616570.7123      -3661.403          19.000  
  20329957.626      217150.5723       -646.591          15.000  
  25038681.732     -582334.8822       2726.655          30.000  
  24217669.160     2812023.8413      -3529.187          24.000  
 18 10  4 13  2 55.0000000  0 11G23G31G17G18G 1G19G 9G11G 3G 6G14
  22068855.246      -51638.7323       1945.388          30.000  
  24085683.042     -322154.257         208.810          38.000  
  22004213.933     -539436.9613        533.355          27.000  
  22543971.364     2893710.4532      -3686.691          31.000  
  20917651.015     1592903.6573      -2186.843          27.000  
  23228366.636    -1761306.418        2036.153          32.000  
  23591969.179    -2544611.962        3087.695          35.000  
  21821680.415     2620226.6653      -3649.179          17.000  
  20330081.557      217803.3743       -653.879          16.000  
  25038161.960     -585060.8233       2725.778          30.000  
  24218342.354     2815550.4953      -3526.932          25.000  
 18 10  4 13  2 56.0000000  0 11G23G31G17G18G 1G19G 9G11G 3G 6G14
  22068485.964      -53584.2263       1946.429          30.000  
  24085643.430     -322362.742         208.250          38.000  
  22004110.802     -539970.2953        533.020          27.000  
  22544672.985     2897396.7882      -3686.701          32.000  
  20918067.464     1595090.9113      -2186.972          28.000  
  23227978.595    -1763344.337        2041.586          32.000  
  23591381.072    -2547701.351        3088.765          35.000  
  21822376.347     2623881.7113      -3644.584          16.000  
  20330207.617      218461.7713       -656.070          17.000  
  25037643.497     -587786.7622       2727.704          30.000  
  24219015.008     2819077.7393      -3524.874          25.000  
 18 10  4 13  2 57.0000000  0 11G23G31G17G18G 1G19G 9G11G 3G 6G14
  22068115.688      -55529.6303       1945.027          29.000  
  24085603.609     -322570.906         207.083          38.000  
  22004009.626     -540503.2803        533.046          27.000  
  22545374.205     2901083.2283      -3684.234          31.000  
  20918485.501     1597278.2753      -2187.943          28.000  
  23227591.113    -1765382.028        2034.286          32.000  
  23590792.092    -2550790.791        3089.320          36.000  
  21823072.838     2627539.5063      -3655.524          16.000  
  20330331.619      219118.5043       -668.405          17.000  
  25037123.829     -590512.9972       2723.994          30.000  
  24219686.213     2822606.5973      -3522.253          25.000  
 18 10  4 13  2 58.0000000  0 11G23G31G17G18G 1G19G 9G11G 3G 6G14
  22067746.616      -57474.5713       1945.625          29.000  
  24085564.224     -322778.519         207.655          38.000  
  22003909.008     -541035.7433        531.387          28.000  
  22546075.285     2904769.8393      -3687.003          31.000  
  20918902.980     1599466.0823      -2187.553          28.000  
  23227203.334    -1767419.218        2036.560          32.000  
  23590203.078    -2553880.104        3089.042          36.000  
  21823774.040     2631195.8963      -3646.146          16.000  
  20330455.655      219776.1543       -662.655          18.000  
  25036605.156     -593239.3132       2725.025          30.000  
  24220356.319     2826132.1543      -3528.109          25.000  
 18 10  4 13  2 59.0000000  0 11G23G31G17G18G 1G19G 9G11G 3G 6G14
  22067376.654      -59419.0413       1943.546          29.000  
  24085524.629     -322985.404         206.619          38.000  
  22003806.802     -541567.3643        530.932          27.000  
  22546776.626     2908456.9112      -3688.190          31.000  
  20919318.540     1601654.4373      -2188.472          29.000  
  23226815.119    -1769455.802        2036.813          31.000  
  23589614.307    -2556969.138        3088.468          36.000  
  21824475.120     2634854.4483      -3659.539          16.000  
  20330578.976      220436.6633       -651.833          18.000  
  25036086.239     -595965.4953       2723.268          30.000  
  24221030.020     2829659.5313      -3527.847          25.000  
 18 10  4 13  3  0.0000000  0 11G23G31G17G18G 1G19G 9G11G 3G 6G14
  22067004.685      -61363.0453       1943.169          28.000  
  24085484.965     -323191.656         206.001          38.000  
  22003705.608     -542098.3433        530.582          27.000  
  22547477.898     2912144.3613      -3687.572          31.000  
  20919732.546     1603843.2843      -2189.649          29.000  
  23226426.555    -1771491.685        2036.455          31.000  
  23589025.659    -2560057.897        3088.884          36.000  
  21825172.797     2638501.6423      -3674.211          15.000  
  20330703.919      221096.6803       -664.096          18.000  
  25035566.589     -598691.5552       2725.772          30.000  
  24221703.947     2833188.9643      -3535.988          26.000  
 18 10  4 13  3  1.0000000  0 10G23G31G17G18G 1G19G 9G 3G 6G14
  22066635.456      -63306.6753       1942.815          28.000  
  24085445.196     -323397.326         205.756          38.000  
  22003604.030     -542628.7073        528.442          27.000  
  22548179.188     2915832.0502      -3687.646          31.000  
  20920148.769     1606032.5173      -2189.347          29.000  
  23226037.974    -1773527.183        2036.546          31.000  
  23588436.994    -2563146.488        3089.967          35.000  
  20330830.625      221758.5133       -659.473          19.000  
  25035046.869     -601417.6303       2726.583          30.000  
  24222376.670     2836719.2983      -3528.711          26.000  
 18 10  4 13  3  2.0000000  0 10G23G31G17G18G 1G19G 9G 3G 6G14
  22066263.295      -65250.1473       1943.914          29.000  
  24085405.304     -323602.645         205.515          38.000  
  22003502.173     -543158.6993        528.859          26.000  
  22548881.053     2919519.8092      -3685.585          31.000  
  20920561.868     1608221.9693      -2190.257          29.000  
  23225650.579    -1775562.409        2034.192          31.000  
  23587849.776    -2566235.179        3088.780          36.000  
  20330954.644      222419.6233       -660.589          20.000  
  25034527.900     -604143.9343       2725.472          30.000  
  24223049.882     2840247.7663      -3526.138          26.000  
 18 10  4 13  3  3.0000000  0 12G23G31G17G18G 1G19G 9G11G 3G 6G14G22
  22065893.455      -67193.3083       1942.592          29.000  
  24085365.727     -323807.450         204.030          38.000  
  22003401.660     -543688.4863        529.095          26.000  
  22549583.058     2923207.7242      -3690.429          32.000  
  20920979.574     1610411.8123      -2190.682          29.000  
  23225263.568    -1777597.1223       2034.101          31.000  
  23587261.721    -2569323.723        3088.826          36.000  
  21827263.525     2649504.0733      -3658.846          19.000  
  20331078.279      223079.9873       -660.909          21.000  
  25034009.018     -606870.3633       2726.205          30.000  
  24223721.087     2843777.0273      -3527.422          26.000  
  21107161.287      799606.2423      -1847.531          22.000  
 18 10  4 13  3  4.0000000  0 12G23G31G17G18G 1G19G 9G11G 3G 6G14G22
  22065521.853      -69135.9833       1943.374          28.000  
  24085326.395     -324011.668         204.314          38.000  
  22003300.257     -544217.0253        525.355          26.000  
  22550284.853     2926896.0192      -3689.353          32.000  
  20921396.355     1612602.1273      -2190.404          29.000  
  23224876.313    -1779631.3872       2031.888          32.000  
  23586673.597    -2572412.057        3088.285          37.000  
  21827953.943     2653169.4113      -3661.179          21.000  
  20331206.398      223745.4653       -668.547          22.000  
  25033489.961     -609596.7623       2723.304          29.000  
  24224392.729     2847306.5863      -3528.286          26.000  
  21107509.296      801459.2963      -1856.105          23.000  
 18 10  4 13  3  5.0000000  0 12G23G31G17G18G 1G19G 9G11G 3G 6G14G22
  22065151.489      -71078.2893       1941.169          28.000  
  24085287.777     -324215.224         203.630          38.000  
  22003199.953     -544745.1473        527.044          25.000  
  22550987.085     2930584.6422      -3688.851          32.000  
  20921812.682     1614792.9003      -2190.933          29.000  
  23224488.953    -1781665.0652       2032.639          31.000  
  23586085.263    -2575500.161        3087.993          36.000  
  21828644.814     2656834.7123      -3665.430          22.000  
  20331333.471      224410.0403       -663.458          22.000  
  25032970.468     -612323.1423       2727.749          29.000  
  24225066.046     2850836.5463      -3529.732          26.000  
  21107860.744      803313.8703      -1852.793          24.000  
 18 10  4 13  3  6.0000000  0 12G23G31G17G18G 1G19G 9G11G 3G 6G14G22
  22064780.951      -73020.0313       1942.433          28.000  
  24085248.654     -324418.127         202.835          38.000  
  22003099.440     -545270.5193        522.553          25.000  
  22551688.898     2934273.6152      -3688.683          32.000  
  20922231.644     1616984.3253      -2196.436          30.000  
  23224101.541    -1783698.0982       2034.227          31.000  
  23585497.033    -2578588.018        3087.273          37.000  
  21829335.721     2660500.6033      -3666.996          25.000  
  20331459.880      225074.9923       -662.132          24.000  
  25032450.853     -615049.4593       2727.893          28.000  
  24225738.978     2854366.8193      -3531.022          27.000  
  21108215.140      805166.9283      -1851.849          24.000  
 18 10  4 13  3  7.0000000  0 12G23G31G17G18G 1G19G 9G11G 3G 6G14G22
  22064412.176      -74961.7303       1941.799          28.000  
  24085209.775     -324620.782         201.252          38.000  
  22002998.578     -545798.9883        524.152          25.000  
  22552390.466     2937962.5883      -3688.780          32.000  
  20922648.129     1619175.7753      -2192.003          31.000  
  23223714.565    -1785730.9702       2034.096          31.000  
  23584909.292    -2581676.047        3087.299          37.000  
  21830028.337     2664166.7773      -3665.632          27.000  
  20331583.934      225736.6373       -661.270          25.000  
  25031931.901     -617776.0353       2728.832          28.000  
  24226413.534     2857897.1163      -3530.153          27.000  
  21108568.245      807021.3533      -1849.088          24.000  
 18 10  4 13  3  8.0000000  0 12G23G31G17G18G 1G19G 9G11G 3G 6G14G22
  22064044.116      -76902.8243       1941.652          27.000  
  24085170.773     -324822.612         201.103          37.000  
  22002898.727     -546325.0133        525.870          25.000  
  22553092.558     2941651.9492      -3689.283          32.000  
  20923065.137     1621367.7832      -2193.594          31.000  
  23223327.658    -1787763.2282       2030.488          31.000  
  23584321.464    -2584763.690        3086.301          37.000  
  21830722.943     2667833.5243      -3667.356          28.000  
  20331708.231      226399.6703       -660.937          26.000  
  25031412.512     -620502.6083       2726.073          27.000  
  24227085.350     2861427.8673      -3530.280          27.000  
  21108921.054      808874.3323      -1855.873          25.000  
 18 10  4 13  3  9.0000000  0 12G23G31G17G18G 1G19G 9G11G 3G 6G14G22
  22063672.985      -78843.7473       1939.610          27.000  
  24085131.336     -325024.091         201.464          37.000  
  22002798.127     -546850.8963        524.541          26.000  
  22553794.162     2945341.5023      -3689.052          32.000  
  20923482.668     1623560.1152      -2192.252          31.000  
  23222940.560    -1789795.0813       2032.241          31.000  
  23583734.457    -2587851.299        3087.266          37.000  
  21831416.537     2671500.5433      -3665.937          29.000  
  20331836.054      227062.5123       -664.387          26.000  
  25030892.880     -623229.2323       2727.127          27.000  
  24227757.218     2864958.7923      -3531.771          27.000  
  21109275.258      810729.1643      -1850.895          25.000  
 18 10  4 13  3 10.0000000  0 12G23G31G17G18G 1G19G 9G11G 3G 6G14G22
  22063305.431      -80784.2113       1941.460          28.000  
  24085091.427     -325224.958         201.225          36.000  
  22002693.897     -547376.1613        524.773          26.000  
  22554496.742     2949031.2922      -3691.167          32.000  
  20923898.821     1625752.8432      -2192.635          31.000  
  23222553.026    -1791826.4182       2030.849          31.000  
  23583146.297    -2590938.747        3086.493          38.000  
  21832114.825     2675168.0043      -3667.300          29.000  
  20331961.225      227725.6723       -665.720          25.000  
  25030373.247     -625955.7923       2727.766          27.000  
  24228427.952     2868490.0103      -3531.083          27.000  
  21109624.996      812583.9573      -1856.896          24.000  
 18 10  4 13  3 11.0000000  0 12G23G31G17G18G 1G19G 9G11G 3G 6G14G22
  22062936.376      -82724.6503       1940.165          28.000  
  24085051.868     -325425.537         202.892          36.000  
  22002594.797     -547901.1433        524.076          25.000  
  22555198.887     2952721.1102      -3690.096          33.000  
  20924315.584     1627945.7003      -2193.559          30.000  
  23222166.503    -1793857.6102       2030.750          31.000  
  23582558.992    -2594026.304        3087.721          37.000  
  21832812.851     2678835.4723      -3667.688          29.000  
  20332084.894      228387.6193       -660.958          25.000  
  25029853.615     -628682.7913       2732.001          27.000  
  24229098.599     2872021.2293      -3532.061          27.000  
  21109978.066      814438.7743      -1852.097          24.000  
 18 10  4 13  3 12.0000000  0 12G23G31G17G18G 1G19G 9G11G 3G 6G14G22
  22062567.915      -84664.5113       1939.868          29.000  
  24085013.006     -325625.375         199.392          35.000  
  22002493.167     -548425.3233        524.572          25.000  
  22555901.084     2956411.3612      -3687.769          32.000  
  20924731.353     1630139.1582      -2193.955          30.000  
  23221780.051    -1795888.0762       2030.863          31.000  
  23581971.740    -2597113.545        3087.867          37.000  
  21833509.464     2682503.5763      -3665.751          30.000  
  20332207.988      229051.7683       -664.391          25.000  
  25029334.820     -631409.5193       2733.620          27.000  
  24229772.160     2875552.8493      -3532.664          26.000  
  21110328.449      816294.2553      -1860.711          24.000  
 18 10  4 13  3 13.0000000  0 12G23G31G17G18G 1G19G 9G11G 3G 6G14G22
  22062198.057      -86604.0293       1939.710          28.000  
  24084974.197     -325824.678         199.002          35.000  
  22002394.591     -548948.6703        524.749          24.000  
  22556603.193     2960101.8212      -3691.031          32.000  
  20925148.780     1632333.0163      -2196.550          30.000  
  23221393.476    -1797918.0912       2032.978          31.000  
  23581384.104    -2600200.634        3087.813          38.000  
  21834209.008     2686172.0412      -3668.970          31.000  
  20332333.560      229715.4433       -670.569          25.000  
  25028814.192     -634136.7513       2727.443          26.000  
  24230441.603     2879084.7643      -3531.531          26.000  
  21110682.706      818149.8823      -1854.691          24.000  
 18 10  4 13  3 14.0000000  0 12G23G31G17G18G 1G19G 9G11G 3G 6G14G22
  22061831.603      -88543.0963       1937.535          29.000  
  24084935.754     -326023.283         199.399          35.000  
  22002296.503     -549472.0053        521.158          23.000  
  22557305.268     2963792.7052      -3690.965          32.000  
  20925566.538     1634527.3843      -2196.694          30.000  
  23221007.233    -1799947.5223       2030.660          31.000  
  23580796.555    -2603287.456        3087.428          38.000  
  21834908.657     2689841.0072      -3669.484          32.000  
  20332459.812      230378.9603       -664.540          25.000  
  25028295.240     -636863.3863       2726.599          26.000  
  24231113.733     2882617.1193      -3532.357          25.000  
  21111036.055      820004.1403      -1862.929          24.000  
 18 10  4 13  3 15.0000000  0 12G23G31G17G18G 1G19G 9G11G 3G 6G14G22
  22061463.560      -90481.8123       1939.195          28.000  
  24084896.770     -326221.509         196.992          35.000  
  22002197.351     -549994.0683        525.010          23.000  
  22558007.272     2967483.6642      -3692.444          33.000  
  20925985.099     1636722.0582      -2192.598          31.000  
  23220620.344    -1801976.6162       2030.698          31.000  
  23580209.530    -2606374.275        3087.056          38.000  
  21835607.120     2693510.2242      -3669.541          33.000  
  20332584.791      231045.2503       -665.355          25.000  
  25027775.049     -639590.2653       2728.365          27.000  
  24231784.327     2886150.0733      -3531.943          25.000  
  21111389.771      821859.4733      -1853.571          25.000  
 18 10  4 13  3 16.0000000  0 12G23G31G17G18G 1G19G 9G11G 3G 6G14G22
  22061094.017      -92420.2583       1937.609          29.000  
  24084858.903     -326419.147         196.604          35.000  
  22002097.710     -550519.1883        530.034          23.000  
  22558709.452     2971174.9262      -3691.617          33.000  
  20926402.787     1638916.9933      -2196.609          30.000  
  23220234.607    -1804005.2362       2027.559          32.000  
  23579621.493    -2609460.953        3086.011          38.000  
  21836301.045     2697179.8262      -3668.965          33.000  
  20332710.816      231710.9283       -669.193          25.000  
  25027255.260     -642317.2223       2729.280          27.000  
  24232457.085     2889682.7153      -3532.223          25.000  
  21111742.230      823715.4793      -1861.320          24.000  
 18 10  4 13  3 17.0000000  0 12G23G31G17G18G 1G19G 9G11G 3G 6G14G22
  22060724.736      -94358.2883       1937.425          29.000  
  24084821.158     -326616.255         196.358          36.000  
  22001999.745     -551040.1503        514.181          23.000  
  22559411.998     2974866.4482      -3690.311          33.000  
  20926820.668     1641112.4583      -2197.520          31.000  
  23219848.416    -1806033.3402       2024.860          31.000  
  23579035.183    -2612547.476        3086.293          38.000  
  21837001.322     2700849.8102      -3671.582          34.000  
  20332838.028      232377.0113       -671.660          25.000  
  25026736.796     -645044.1973       2726.280          27.000  
  24233131.362     2893216.6403      -3538.446          24.000  
  21112096.138      825575.1113      -1858.077          24.000  
 18 10  4 13  3 18.0000000  0 12G23G31G17G18G 1G19G 9G11G 3G 6G14G22
  22060358.368      -96295.7683       1936.508          29.000  
  24084783.274     -326812.576         197.958          36.000  
  22001900.767     -551560.6503        516.776          22.000  
  22560114.945     2978558.4522      -3691.783          33.000  
  20927239.211     1643308.5432      -2195.273          30.000  
  23219463.517    -1808060.7752       2027.805          31.000  
  23578447.564    -2615633.626        3086.120          38.000  
  21837697.935     2704520.3692      -3671.437          34.000  
  20332966.968      233043.1223       -662.583          25.000  
  25026217.966     -647771.1083       2726.935          27.000  
  24233801.031     2896749.0573      -3538.256          25.000  
  21112449.593      827430.3243      -1863.436          24.000  
 18 10  4 13  3 19.0000000  0 12G23G31G17G18G 1G19G 9G11G 3G 6G14G22
  22059988.389      -98232.9493       1937.476          29.000  
  24084745.006     -327008.498         195.265          36.000  
  22001804.773     -552079.8063        516.062          22.000  
  22560818.188     2982250.504       -3692.721          34.000  
  20927657.441     1645504.8533      -2196.352          31.000  
  23219078.618    -1810087.8992       2025.918          32.000  
  23577860.242    -2618719.794        3085.454          38.000  
  21838397.811     2708190.723       -3670.350          34.000  
  20333090.847      233708.8233       -675.209          25.000  
  25025699.329     -650498.0713       2727.219          27.000  
  24234471.154     2900284.0203      -3533.431          24.000  
  21112801.790      829287.6313      -1862.761          24.000  
 18 10  4 13  3 20.0000000  0 12G23G31G17G18G 1G19G 9G11G 3G 6G14G22
  22059620.137     -100169.9043       1937.073          29.000  
  24084707.174     -327203.895         194.543          35.000  
  22001708.343     -552599.3803        518.743          23.000  
  22561521.834     2985942.795       -3692.892          34.000  
  20928075.251     1647701.5482      -2194.025          31.000  
  23218693.072    -1812114.5692       2026.044          32.000  
  23577272.623    -2621805.811        3085.556          38.000  
  21839097.285     2711861.843       -3670.684          35.000  
  20333216.977      234377.4973       -663.540          25.000  
  25025181.965     -653225.1603       2727.098          27.000  
  24235143.581     2903815.2753      -3526.738          24.000  
  21113157.548      831146.1493      -1857.022          24.000  
 18 10  4 13  3 21.0000000  0 12G23G31G17G18G 1G19G 9G11G 3G 6G14G22
  22059249.826     -102106.2823       1935.028          29.000  
  24084669.359     -327398.539         194.880          35.000  
  22001610.518     -553119.7013        525.974          23.000  
  22562225.234     2989635.523       -3693.539          34.000  
  20928493.323     1649898.8113      -2195.536          31.000  
  23218308.417    -1814140.5322       2026.770          33.000  
  23576686.157    -2624891.503        3085.462          39.000  
  21839796.428     2715533.584       -3671.640          35.000  
  20333344.538      235046.6013       -671.618          26.000  
  25024661.564     -655952.1273       2727.959          27.000  
  24235816.409     2907348.1953      -3533.974          24.000  
  21113513.480      833003.6103      -1855.444          24.000  
 18 10  4 13  3 22.0000000  0 12G23G31G17G18G 1G19G 9G11G 3G 6G14G22
  22058882.324     -104042.0963       1935.415          29.000  
  24084631.771     -327592.473         191.858          35.000  
  22001515.100     -553639.4083        520.179          23.000  
  22562928.059     2993328.644       -3693.801          34.000  
  20928912.355     1652096.5982      -2198.512          31.000  
  23217922.820    -1816165.9822       2024.614          33.000  
  23576098.869    -2627976.906        3085.404          39.000  
  21840495.379     2719205.836       -3673.174          36.000  
  20333470.913      235715.2053       -666.658          26.000  
  25024141.984     -658678.9743       2726.340          27.000  
  24236489.098     2910883.4583      -3533.877          25.000  
  21113866.725      834862.2523      -1855.005          23.000  
 18 10  4 13  3 23.0000000  0 12G23G31G17G18G 1G19G 9G11G 3G 6G14G22
  22058515.224     -105977.6493       1935.434          29.000  
  24084594.497     -327785.920         193.177          35.000  
  22001419.176     -554156.3833        515.911          24.000  
  22563632.088     2997021.953       -3692.712          34.000  
  20929331.649     1654294.7193      -2199.425          31.000  
  23217537.153    -1818190.9132       2024.884          32.000  
  23575512.019    -2631062.248        3084.733          39.000  
  21841195.151     2722878.395       -3673.926          36.000  
  20333597.898      236383.8773       -667.756          26.000  
  25023623.276     -661405.9583       2726.309          26.000  
  24237158.052     2914415.9943      -3535.410          25.000  
  21114220.144      836722.0503      -1857.127          23.000  
 18 10  4 13  3 24.0000000  0 12G23G31G17G18G 1G19G 9G11G 3G 6G14G22
  22058145.855     -107912.8393       1934.314          29.000  
  24084557.869     -327978.877         192.779          35.000  
  22001322.990     -554672.3333        517.719          25.000  
  22564335.856     3000715.523       -3694.125          34.000  
  20929750.664     1656493.2222      -2198.516          31.000  
  23217151.607    -1820215.4252       2022.921          32.000  
  23574924.836    -2634147.454        3084.282          39.000  
  21841894.468     2726551.327       -3673.295          36.000  
  20333725.407      237052.9503       -668.542          26.000  
  25023104.516     -664132.9783       2726.196          26.000  
  24237832.677     2917952.9283      -3530.467          25.000  
  21114572.621      838580.2003      -1867.591          23.000  
 18 10  4 13  3 25.0000000  0 12G23G31G17G18G 1G19G 9G11G 3G 6G14G22
  22057778.685     -109847.5633       1934.621          29.000  
  24084521.311     -328171.114         192.425          35.000  
  22001227.834     -555188.7363        515.798          26.000  
  22565039.169     3004409.435       -3694.819          34.000  
  20930169.696     1658692.2772      -2197.665          31.000  
  23216767.109    -1822239.353        2023.310          33.000  
  23574338.334    -2637232.375        3085.444          39.000  
  21842593.157     2730224.752       -3674.394          36.000  
  20333853.474      237722.4373       -668.532          26.000  
  25022585.459     -666859.8823       2726.816          26.000  
  24238507.006     2921488.7193      -3536.907          25.000  
  21114926.616      840440.7923      -1858.361          23.000  
 18 10  4 13  3 26.0000000  0 12G23G31G17G18G 1G19G 9G11G 3G 6G14G22
  22057412.056     -111781.9343       1934.250          28.000  
  24084484.474     -328362.903         190.008          35.000  
  22001131.335     -555704.6053        515.734          27.000  
  22565742.204     3008103.565       -3694.450          35.000  
  20930588.780     1660891.6382      -2199.840          32.000  
  23216382.349    -1824262.847        2023.204          33.000  
  23573750.663    -2640317.209        3085.084          39.000  
  21843293.225     2733898.535       -3673.554          36.000  
  20333977.842      238392.2103       -669.938          26.000  
  25022067.205     -669586.9333       2725.716          26.000  
  24239180.043     2925024.4003      -3535.580          25.000  
  21115279.442      842301.4033      -1857.596          22.000  
 18 10  4 13  3 27.0000000  0 12G23G31G17G18G 1G19G 9G11G 3G 6G14G22
  22057044.659     -113715.9023       1934.668          28.000  
  24084448.108     -328554.002         190.376          36.000  
  22001033.352     -556219.7363        515.871          27.000  
  22566445.849     3011798.015       -3694.281          36.000  
  20931007.481     1663091.4712      -2202.496          32.000  
  23215997.991    -1826285.769        2022.503          33.000  
  23573163.638    -2643401.815        3085.604          39.000  
  21843991.967     2737572.726       -3674.720          36.000  
  20334103.536      239062.5023       -670.598          27.000  
  25021548.026     -672313.7913       2727.094          26.000  
  24239851.947     2928560.9323      -3534.592          26.000  
  21115634.100      844165.5953      -1866.919          22.000  
 18 10  4 13  3 28.0000000  0 12G23G31G17G18G 1G19G 9G11G 3G 6G14G22
  22056674.784     -115649.6113       1933.729          28.000  
  24084412.247     -328744.674         190.571          36.000  
  22000936.834     -556734.3793        514.432          27.000  
  22567148.918     3015492.617       -3694.923          36.000  
  20931426.914     1665291.7192      -2198.943          32.000  
  23215613.475    -1828308.389        2021.545          33.000  
  23572576.543    -2646486.413        3083.755          39.000  
  21844691.162     2741247.226       -3674.940          37.000  
  20334231.690      239733.0713       -669.400          27.000  
  25021028.673     -675040.9453       2727.045          26.000  
  24240526.973     2932097.1423      -3536.256          26.000  
  21115988.462      846023.7133      -1866.409          21.000  
 18 10  4 13  3 29.0000000  0 12G23G31G17G18G 1G19G 9G11G 3G 6G14G22
  22056307.981     -117582.9973       1931.958          28.000  
  24084376.178     -328934.803         190.169          35.000  
  22000843.458     -557248.4783        514.124          28.000  
  22567852.197     3019187.472       -3693.825          36.000  
  20931845.720     1667492.1762      -2200.743          33.000  
  23215228.995    -1830330.451        2021.872          33.000  
  23571989.151    -2649570.853        3084.775          39.000  
  21845390.602     2744922.070       -3672.932          37.000  
  20334362.183      240403.8663       -670.569          27.000  
  25020509.006     -677768.1813       2727.924          26.000  
  24241199.470     2935633.5683      -3536.513          26.000  
  21116342.544      847887.0763      -1855.697          20.000  
 18 10  4 13  3 30.0000000  0 12G23G31G17G18G 1G19G 9G11G 3G 6G14G22
  22055942.154     -119515.9353       1932.156          28.000  
  24084340.038     -329124.393         188.382          36.000  
  22000744.899     -557761.9633        513.542          28.000  
  22568555.423     3022882.561       -3695.160          36.000  
  20932264.699     1669693.1922      -2200.464          33.000  
  23214843.973    -1832352.123        2019.872          34.000  
  23571402.318    -2652655.129        3084.535          39.000  
  21846090.373     2748597.276       -3675.617          37.000  
  20334488.836      241075.0983       -670.969          27.000  
  25019990.228     -680495.3943       2727.321          25.000  
  24241873.031     2939170.2693      -3536.863          26.000  
  21116697.813      849746.9833      -1854.625          21.000  
 18 10  4 13  3 31.0000000  0 12G23G31G17G18G 1G19G 9G11G 3G 6G14G22
  22055576.206     -121448.4553       1932.730          28.000  
  24084304.318     -329313.318         188.958          36.000  
  22000649.656     -558274.7523        512.266          29.000  
  22569258.527     3026577.998       -3695.146          36.000  
  20932683.889     1671894.074       -2202.934          33.000  
  23214459.842    -1834373.162        2020.503          34.000  
  23570815.484    -2655739.199        3083.227          39.000  
  21846789.795     2752272.950       -3675.245          37.000  
  20334613.152      241746.8173       -671.422          27.000  
  25019469.548     -683222.6053       2726.457          25.000  
  24242545.946     2942707.3163      -3536.717          26.000  
  21117050.691      851604.8473      -1860.088          20.000  
 18 10  4 13  3 32.0000000  0 12G23G31G17G18G 1G19G 9G11G 3G 6G14G22
  22055206.628     -123380.6363       1932.426          29.000  
  24084269.156     -329501.743         187.887          36.000  
  22000553.610     -558787.0203        511.470          29.000  
  22569962.207     3030273.639       -3696.707          36.000  
  20933102.851     1674095.867       -2201.141          33.000  
  23214076.024    -1836393.788        2021.991          34.000  
  23570228.250    -2658823.151        3084.015          39.000  
  21847489.514     2755948.987       -3676.821          38.000  
  20334741.149      242418.7433       -672.883          27.000  
  25018950.247     -685949.7933       2727.202          26.000  
  24243219.175     2946244.6373      -3536.591          26.000  
  21117402.627      853459.7203      -1861.305          18.000  
 18 10  4 13  3 33.0000000  0 12G23G31G17G18G 1G19G 9G11G 3G 6G14G22
  22054838.847     -125312.4003       1932.523          28.000  
  24084233.452     -329689.517         187.075          36.000  
  22000457.023     -559298.6553        511.397          29.000  
  22570665.748     3033969.633       -3695.988          36.000  
  20933522.668     1676298.175       -2202.019          33.000  
  23213692.119    -1838413.852        2019.442          34.000  
  23569642.027    -2661906.855        3084.408          39.000  
  21848188.692     2759625.450       -3677.430          38.000  
  20334872.096      243091.1743       -673.524          27.000  
  25018430.842     -688677.1413       2725.572          25.000  
  24243892.946     2949782.1813      -3538.015          26.000  
  21117755.471      855319.8823      -1861.282          18.000  
 18 10  4 13  3 34.0000000  0 12G23G31G17G18G 1G19G 9G11G 3G 6G14G22
  22054473.352     -127243.7393       1930.487          28.000  
  24084198.029     -329876.721         186.211          36.000  
  22000359.267     -559809.6643        510.136          30.000  
  22571369.009     3037665.938       -3696.985          37.000  
  20933942.206     1678500.850       -2204.877          33.000  
  23213308.703    -1840433.441        2018.791          34.000  
  23569055.752    -2664990.409        3082.571          39.000  
  21848888.794     2763302.364       -3677.467          38.000  
  20335001.349      243764.0503       -673.050          26.000  
  25017911.279     -691404.3003       2726.682          25.000  
  24244565.250     2953320.1533      -3537.864          26.000  
  21118109.082      857183.8063      -1862.333          18.000  
 18 10  4 13  3 35.0000000  0 12G23G31G17G18G 1G19G 9G11G 3G 6G14G22
  22054103.756     -129174.5613       1929.937          28.000  
  24084162.029     -330063.233         185.951          35.000  
  22000265.106     -560319.8893        509.441          30.000  
  22572072.462     3041362.640       -3696.152          37.000  
  20934362.076     1680704.149       -2202.702          33.000  
  23212924.763    -1842452.347        2019.260          34.000  
  23568469.303    -2668073.600        3083.818          39.000  
  21849588.199     2766979.834       -3675.856          38.000  
  20335130.429      244437.4563       -673.095          26.000  
  25017389.291     -694131.3283       2727.673          25.000  
  24245238.933     2956858.5153      -3538.306          26.000  
  21118462.746      859045.8983      -1850.584          18.000  
 18 10  4 13  3 36.0000000  0 12G23G31G17G18G 1G19G 9G11G 3G 6G14G22
  22053736.709     -131105.1623       1930.148          28.000  
  24084126.570     -330249.308         185.649          35.000  
  22000170.054     -560829.6923        509.909          30.000  
  22572775.985     3045059.341       -3697.312          37.000  
  20934780.951     1682907.644       -2202.467          33.000  
  23212540.998    -1844470.965        2020.006          34.000  
  23567882.400    -2671156.864        3083.775          39.000  
  21850287.674     2770657.449       -3677.154          37.000  
  20335260.398      245111.0253       -673.742          26.000  
  25016872.206     -696858.6393       2728.997          25.000  
  24245912.564     2960396.9623      -3538.851          26.000  
  21118819.498      860913.3943      -1870.378          18.000  
 18 10  4 13  3 37.0000000  0 12G23G31G17G18G 1G19G 9G11G 3G 6G14G22
  22053371.231     -133035.5663       1931.348          28.000  
  24084090.256     -330434.988         186.365          35.000  
  22000073.171     -561339.1373        509.366          30.000  
  22573479.630     3048756.227       -3696.475          37.000  
  20935200.018     1685111.382       -2203.929          32.000  
  23212157.338    -1846489.289        2016.777          34.000  
  23567295.479    -2674240.130        3083.248          39.000  
  21850987.480     2774335.291       -3677.221          38.000  
  20335386.545      245784.7273       -676.784          26.000  
  25016354.964     -699586.2043       2728.549          26.000  
  24246586.335     2963935.5543      -3537.919          26.000  
  21119173.894      862776.1543      -1871.694          18.000  
 18 10  4 13  3 38.0000000  0 12G23G31G17G18G 1G19G 9G11G 3G 6G14G22
  22053003.695     -134965.6803       1929.461          27.000  
  24084054.692     -330620.190         185.867          35.000  
  21999974.106     -561848.0413        508.838          29.000  
  22574182.926     3052453.280       -3697.529          37.000  
  20935618.718     1687315.493       -2204.295          32.000  
  23211773.817    -1848507.107        2017.768          34.000  
  23566708.105    -2677323.295        3082.658          39.000  
  21851686.762     2778013.483       -3679.369          38.000  
  20335512.274      246458.8023       -674.153          25.000  
  25015835.890     -702313.8103       2728.038          26.000  
  24247262.356     2967474.2783      -3539.949          25.000  
  21119528.989      864642.0083      -1858.678          18.000  
 18 10  4 13  3 39.0000000  0 12G23G31G17G18G 1G19G 9G11G 3G 6G14G22
  22052633.698     -136895.3083       1929.682          27.000  
  24084019.356     -330804.716         184.369          35.000  
  21999875.774     -562356.2113        507.392          28.000  
  22574886.327     3056150.733       -3697.898          37.000  
  20936037.873     1689520.084       -2205.534          32.000  
  23211389.912    -1850524.354        2018.424          34.000  
  23566120.416    -2680406.164        3083.040          39.000  
  21852386.743     2781692.184       -3679.448          38.000  
  20335639.608      247133.3583       -673.759          25.000  
  25015319.049     -705040.7483       2729.127          25.000  
  24247936.737     2971013.4333      -3539.930          25.000  
  21119883.856      866502.6863      -1858.996          18.000  
 18 10  4 13  3 40.0000000  0 12G23G31G17G18G 1G19G 9G11G 3G 6G14G22
  22052267.296     -138824.6213       1929.412          27.000  
  24083983.600     -330988.748         184.441          34.000  
  21999775.924     -562863.9213        506.594          28.000  
  22575589.763     3059848.320       -3696.861          36.000  
  20936457.132     1691725.010       -2204.421          32.000  
  23211006.025    -1852541.248        2016.605          34.000  
  23565533.967    -2683489.015        3082.792          39.000  
  21853086.427     2785371.178       -3679.259          37.000  
  20335768.758      247808.2413       -673.823          25.000  
  25014800.219     -707768.4693       2728.500          26.000  
  24248609.792     2974552.7383      -3540.450          25.000  
  21120237.834      868363.3323      -1866.881          18.000  
 18 10  4 13  3 41.0000000  0 12G23G31G17G18G 1G19G 9G11G 3G 6G14G22
  22051897.874     -140753.7113       1928.983          27.000  
  24083948.141     -331172.354         182.714          34.000  
  21999675.585     -563371.0803        505.845          27.000  
  22576293.251     3063546.043       -3697.049          36.000  
  20936875.815     1693930.7503      -2204.286          31.000  
  23210622.277    -1854557.749        2015.180          34.000  
  23564947.657    -2686571.803        3082.752          39.000  
  21853786.722     2789050.415       -3680.143          37.000  
  20335898.552      248483.3033       -673.851          25.000  
  25014281.040     -710496.2563       2726.769          26.000  
  24249282.358     2978092.2843      -3539.530          25.000  
  21120594.377      870226.6883      -1868.893          20.000  
 18 10  4 13  3 42.0000000  0 12G23G31G17G18G 1G19G 9G11G 3G 6G14G22
  22051531.490     -142682.4353       1928.438          27.000  
  24083912.787     -331355.383         182.113          34.000  
  21999577.270     -563877.7383        505.642          25.000  
  22576996.198     3067244.054       -3698.019          36.000  
  20937295.143     1696136.4242      -2204.199          31.000  
  23210238.424    -1856573.742        2014.897          33.000  
  23564361.103    -2689654.420        3082.115          39.000  
  21854486.981     2792730.075       -3680.966          37.000  
  20336026.096      249158.8043       -675.495          25.000  
  25013762.071     -713224.0963       2728.034          26.000  
  24249956.198     2981632.0563      -3539.938          26.000  
  21120948.704      872097.2133      -1867.443          20.000  
 18 10  4 13  3 43.0000000  0 12G23G31G17G18G 1G19G 9G11G 3G 6G14G22
  22051163.587     -144610.6323       1926.844          26.000  
  24083877.433     -331537.728         181.974          34.000  
  21999479.828     -564382.7083        507.581          24.000  
  22577700.454     3070942.419       -3699.224          36.000  
  20937714.647     1698342.5563      -2209.744          31.000  
  23209854.275    -1858589.178        2014.396          33.000  
  23563774.723    -2692736.769        3081.649          39.000  
  21855187.067     2796410.225       -3680.250          37.000  
  20336151.127      249834.7063       -676.304          25.000  
  25013245.387     -715951.7593       2727.164          26.000  
  24250627.962     2985172.1753      -3540.769          26.000  
  21121304.723      873961.3553      -1869.707          21.000  
 18 10  4 13  3 44.0000000  0 12G23G31G17G18G 1G19G 9G11G 3G 6G14G22
  22050797.970     -146538.4063       1926.614          26.000  
  24083842.585     -331719.468         180.927          33.000  
  21999380.764     -564890.9013        510.925          23.000  
  22578404.099     3074641.134       -3699.178          36.000  
  20938134.202     1700549.2083      -2205.429          30.000  
  23209470.685    -1860604.012        2013.378          33.000  
  23563188.343    -2695818.895        3081.919          39.000  
  21855887.518     2800090.839       -3680.946          38.000  
  20336279.037      250511.1183       -676.499          25.000  
  25012725.650     -718679.2283       2728.424          26.000  
  24251303.268     2988712.6803      -3540.560          26.000  
  21121660.620      875828.6373      -1874.250          20.000  
 18 10  4 13  3 45.0000000  0 12G23G31G17G18G 1G19G 9G11G 3G 6G14G22
  22050431.201     -148465.8283       1928.637          26.000  
  24083808.051     -331900.742         180.963          34.000  
  21999280.163     -565394.8073        507.331          22.000  
  22579107.552     3078340.020       -3699.731          36.000  
  20938554.037     1702756.1362      -2207.259          31.000  
  23209086.954    -1862618.483        2013.591          34.000  
  23562602.156    -2698900.978        3081.883          39.000  
  21856588.180     2803771.700       -3680.651          38.000  
  20336408.884      251185.2403       -680.003          24.000  
  25012206.541     -721406.6693       2720.910          26.000  
  24251979.412     2992253.3623      -3541.729          26.000  
  21122017.495      877696.3813      -1866.381          20.000  
 18 10  4 13  3 46.0000000  0 12G23G31G17G18G 1G19G 9G11G 3G 6G14G22
  22050063.159     -150393.0593       1926.561          26.000  
  24083773.849     -332081.488         181.121          33.000  
  21999177.451     -565901.2553        510.445          20.000  
  22579810.779     3082039.092       -3698.609          36.000  
  20938973.418     1704963.4172      -2207.128          31.000  
  23208702.544    -1864632.499        2014.180          33.000  
  23562015.741    -2701982.969        3082.292          39.000  
  21857288.317     2807452.912       -3681.641          38.000  
  20336538.068      251862.3323       -672.909          25.000  
  25011687.205     -724134.2943       2727.790          26.000  
  24252655.381     2995794.2333      -3540.400          26.000  
  21122375.032      879561.8153      -1852.731          20.000  
