     2.10           OBSERVATION DATA    M (MIXED)           RINEX VERSION / TYPE
RTKCONV 2.4.1                           20181001 065556 UTC PGM / RUN BY / DATE 
log: D:\Nico Personal\Universidad\MSc\PVT\NAVandOBS\COM6_1  COMMENT             
format: u-blox                                              COMMENT             
                                                            MARKER NAME         
                                                            MARKER NUMBER       
                                                            OBSERVER / AGENCY   
                                                            REC # / TYPE / VERS 
                                                            ANT # / TYPE        
        0.0000        0.0000        0.0000                  APPROX POSITION XYZ 
        0.0000        0.0000        0.0000                  ANTENNA: DELTA H/E/N
     1     1                                                WAVELENGTH FACT L1/2
     8    C1    L1    D1    S1    P2    L2    D2    S2      # / TYPES OF OBSERV 
  2018    10     1     6    26   59.0000000     GPS         TIME OF FIRST OBS   
  2018    10     1     6    55    2.0000000     GPS         TIME OF LAST OBS    
                                                            END OF HEADER       
 18 10  1  6 26 59.0000000  0  8G16G20G26G21G27G29G31G10
  20571460.980     -419457.295        1006.146          46.000                  
                                                
  22570325.234     -939504.885        2381.284          43.000                  
                                                
  20219325.480      281097.401        -823.914          49.000                  
                                                
  21135529.539      581227.036       -1574.340          45.000                  
                                                
  22176073.830     -795132.195        2029.793          44.000                  
                                                
  23810478.202     1262807.357       -3267.570          44.000                  
                                                
  23973318.796     1472060.709       -3813.129          42.000                  
                                                
  24380119.202    -1160851.167        3027.804          38.000                  
                                                
 18 10  1  6 27  0.0000000  0  8G16G20G26G21G27G29G31G10
  20571269.751     -420463.629        1005.641          46.000                  
                                                
  22569871.615     -941885.690        2380.321          43.000                  
                                                
  20219482.309      281921.292        -824.635          49.000                  
                                                
  21135829.173      582800.991       -1574.290          45.000                  
                                                
  22175688.006     -797161.719        2028.888          44.000                  
                                                
  23811099.910     1266074.423       -3267.646          44.000                  
                                                
  23974044.237     1475873.462       -3813.470          42.000                  
                                                
  24379542.795    -1163879.470        3028.422          38.000                  
                                                
 18 10  1  6 27  1.0000000  0  8G16G20G26G21G27G29G31G10
  20571078.785     -421469.003        1004.907          46.000                  
                                                
  22569418.813     -944265.666        2379.944          43.000                  
                                                
  20219639.352      282746.221        -825.859          48.000                  
                                                
  21136128.501      584375.857       -1575.445          45.000                  
                                                
  22175302.085     -799190.542        2028.406          44.000                  
                                                
  23811720.950     1269342.014       -3267.837          44.000                  
                                                
  23974770.022     1479686.803       -3813.140          42.000                  
                                                
  24378966.911    -1166907.264        3027.574          38.000                  
                                                
 18 10  1  6 27  2.0000000  0  8G16G20G26G21G27G29G31G10
  20570887.352     -422473.220        1003.247          46.000                  
                                                
  22568966.145     -946644.646        2378.326          43.000                  
                                                
  20219796.326      283572.412        -827.175          48.000                  
                                                
  21136429.063      585951.818       -1577.017          45.000                  
                                                
  22174916.265     -801218.508        2026.904          44.000                  
                                                
  23812343.190     1272610.367       -3269.201          44.000                  
                                                
  23975495.676     1483500.853       -3814.667          42.000                  
                                                
  24378391.316    -1169934.353        3027.317          38.000                  
                                                
 18 10  1  6 27  3.0000000  0  8G16G20G26G21G27G29G31G10
  20570696.333     -423477.323        1004.290          46.000                  
                                                
  22568513.635     -949023.656        2379.279          43.000                  
                                                
  20219953.805      284398.795        -826.260          48.000                  
                                                
  21136728.998      587527.848       -1576.159          45.000                  
                                                
  22174530.062     -803246.608        2028.619          44.000                  
                                                
  23812965.526     1275878.406       -3267.758          44.000                  
                                                
  23976221.566     1487314.646       -3813.754          42.000                  
                                                
  24377814.782    -1172961.823        3027.946          38.000                  
                                                
 18 10  1  6 27  4.0000000  0  8G16G20G26G21G27G29G31G10
  20570505.532     -424481.612        1004.477          46.000                  
                                                
  22568061.208     -951403.002        2379.398          43.000                  
                                                
  20220110.596      285225.076        -826.428          48.000                  
                                                
  21137029.010      589103.625       -1576.128          45.000                  
                                                
  22174143.831     -805275.169        2028.558          44.000                  
                                                
  23813587.356     1279145.858       -3267.262          44.000                  
                                                
  23976947.150     1491127.853       -3812.422          42.000                  
                                                
  24377238.607    -1175989.949        3027.630          38.000                  
                                                
 18 10  1  6 27  5.0000000  0  8G16G20G26G21G27G29G31G10
  20570314.797     -425485.007        1002.458          46.000                  
                                                
  22567607.764     -953781.594        2377.278          43.000                  
                                                
  20220268.363      286052.349        -827.980          49.000                  
                                                
  21137329.045      590680.246       -1576.926          45.000                  
                                                
  22173758.155     -807303.092        2027.337          44.000                  
                                                
  23814208.893     1282413.797       -3268.508          44.000                  
                                                
  23977672.866     1494941.551       -3814.648          42.000                  
                                                
  24376662.078    -1179017.657        3026.269          38.000                  
                                                
 18 10  1  6 27  6.0000000  0  8G16G20G26G21G27G29G31G10
  20570123.608     -426487.254        1001.849          46.000                  
                                                
  22567155.367     -956159.188        2377.168          43.000                  
                                                
  20220425.825      286880.849        -829.061          49.000                  
                                                
  21137629.067      592257.948       -1577.978          45.000                  
                                                
  22173372.052     -809330.169        2026.558          44.000                  
                                                
  23814830.605     1285682.475       -3268.944          44.000                  
                                                
  23978398.568     1498755.997       -3814.274          42.000                  
                                                
  24376086.504    -1182044.666        3025.962          38.000                  
                                                
 18 10  1  6 27  7.0000000  0  8G16G20G26G21G27G29G31G10
  20569933.148     -427489.121        1001.856          46.000                  
                                                
  22566703.153     -958536.523        2378.100          43.000                  
                                                
  20220583.475      287709.831        -828.499          49.000                  
                                                
  21137929.363      593835.991       -1577.874          45.000                  
                                                
  22172986.031     -811357.108        2027.353          44.000                  
                                                
  23815453.055     1288951.138       -3268.328          44.000                  
                                                
  23979124.453     1502570.425       -3813.773          42.000                  
                                                
  24375509.923    -1185071.729        3028.636          38.000                  
                                                
 18 10  1  6 27  8.0000000  0  8G16G20G26G21G27G29G31G10
  20569742.604     -428490.877        1001.562          46.000                  
                                                
  22566250.839     -960913.912        2377.467          43.000                  
                                                
  20220741.731      288539.011        -829.157          49.000                  
                                                
  21138229.119      595414.080       -1578.196          45.000                  
                                                
  22172600.286     -813384.209        2027.280          44.000                  
                                                
  23816075.211     1292219.477       -3268.319          44.000                  
                                                
  23979850.614     1506384.561       -3813.688          42.000                  
                                                
  24374934.170    -1188099.179        3029.019          38.000                  
                                                
 18 10  1  6 27  9.0000000  0  8G16G20G26G21G27G29G31G10
  20569551.948     -429492.113        1001.400          46.000                  
                                                
  22565798.438     -963290.936        2376.654          43.000                  
                                                
  20220899.180      289368.773        -830.091          49.000                  
                                                
  21138529.982      596992.613       -1578.724          45.000                  
                                                
  22172214.152     -815411.072        2026.737          44.000                  
                                                
  23816696.884     1295487.916       -3268.422          44.000                  
                                                
  23980576.019     1510198.793       -3814.468          42.000                  
                                                
  24374358.475    -1191126.616        3027.344          38.000                  
                                                
 18 10  1  6 27 10.0000000  0  8G16G20G26G21G27G29G31G10
  20569361.505     -430492.586        1000.079          46.000                  
                                                
  22565346.080     -965667.293        2375.569          43.000                  
                                                
  20221057.628      290199.424        -831.453          49.000                  
                                                
  21138830.501      598571.865       -1579.277          45.000                  
                                                
  22171828.794     -817437.446        2025.532          44.000                  
                                                
  23817318.339     1298756.732       -3268.952          44.000                  
                                                
  23981302.044     1514013.406       -3814.758          42.000                  
                                                
  24373782.159    -1194153.699        3027.727          38.000                  
                                                
 18 10  1  6 27 11.0000000  0  8G16G20G26G21G27G29G31G10
  20569171.188     -431492.331        1000.089          46.000                  
                                                
  22564894.237     -968043.099        2376.209          43.000                  
                                                
  20221215.517      291030.867        -831.006          49.000                  
                                                
  21139131.382      600151.776       -1578.963          45.000                  
                                                
  22171443.310     -819463.350        2026.406          44.000                  
                                                
  23817940.147     1302025.844       -3268.194          44.000                  
                                                
  23982028.265     1517828.339       -3814.518          42.000                  
                                                
  24373206.176    -1197180.544        3027.445          38.000                  
                                                
 18 10  1  6 27 12.0000000  0  8G16G20G26G21G27G29G31G10
  20568980.514     -432492.275        1000.261          46.000                  
                                                
  22564442.355     -970419.226        2377.207          43.000                  
                                                
  20221373.751      291862.220        -830.696          49.000                  
                                                
  21139431.932      601731.440       -1579.100          45.000                  
                                                
  22171057.560     -821489.725        2026.792          44.000                  
                                                
  23818562.112     1305294.350       -3267.628          44.000                  
                                                
  23982754.168     1521642.690       -3814.019          42.000                  
                                                
  24372629.682    -1200208.070        3028.485          38.000                  
                                                
 18 10  1  6 27 13.0000000  0  8G16G20G26G21G27G29G31G10
  20568790.529     -433491.971         998.961          46.000                  
                                                
  22563990.124     -972795.278        2375.932          43.000                  
                                                
  20221532.387      292693.871        -832.342          49.000                  
                                                
  21139732.355      603311.283       -1580.141          45.000                  
                                                
  22170671.858     -823516.144        2025.714          44.000                  
                                                
  23819184.513     1308562.670       -3268.186          44.000                  
                                                
  23983479.530     1525456.850       -3814.538          42.000                  
                                                
  24372053.737    -1203235.825        3027.656          38.000                  
                                                
 18 10  1  6 27 14.0000000  0  8G16G20G26G21G27G29G31G10
  20568600.946     -434490.570         997.742          46.000                  
                                                
  22563538.508     -975170.363        2374.315          43.000                  
                                                
  20221690.979      293526.719        -833.364          49.000                  
                                                
  21140033.279      604892.162       -1581.800          45.000                  
                                                
  22170286.395     -825541.731        2024.884          43.000                  
                                                
  23819806.509     1311831.682       -3269.382          44.000                  
                                                
  23984206.375     1529271.705       -3815.918          42.000                  
                                                
  24371477.806    -1206262.910        3025.346          38.000                  
                                                
 18 10  1  6 27 15.0000000  0  8G16G20G26G21G27G29G31G10
  20568410.821     -435488.326         997.831          46.000                  
                                                
  22563086.251     -977544.758        2374.645          43.000                  
                                                
  20221849.436      294360.505        -833.570          49.000                  
                                                
  21140334.461      606473.827       -1581.521          45.000                  
                                                
  22169900.898     -827566.740        2025.349          44.000                  
                                                
  23820428.823     1315101.118       -3269.287          44.000                  
                                                
  23984932.667     1533086.998       -3813.865          42.000                  
                                                
  24370901.896    -1209289.687        3027.426          38.000                  
                                                
 18 10  1  6 27 16.0000000  0  8G16G20G26G21G27G29G31G10
  20568220.771     -436486.177         997.959          46.000                  
                                                
  22562634.552     -979919.401        2374.608          43.000                  
                                                
  20222007.731      295194.267        -833.968          48.000                  
                                                
  21140635.120      608055.321       -1581.368          45.000                  
                                                
  22169515.890     -829592.143        2025.050          44.000                  
                                                
  23821051.224     1318370.019       -3269.262          44.000                  
                                                
  23985658.063     1536901.796       -3813.982          42.000                  
                                                
  24370325.930    -1212316.970        3028.448          38.000                  
                                                
 18 10  1  6 27 17.0000000  0  8G16G20G26G21G27G29G31G10
  20568031.030     -437483.890         997.331          46.000                  
                                                
  22562182.871     -982294.034        2374.441          43.000                  
                                                
  20222166.519      296028.249        -834.655          48.000                  
                                                
  21140936.149      609636.911       -1581.569          45.000                  
                                                
  22169130.572     -831617.640        2025.920          44.000                  
                                                
  23821673.180     1321638.678       -3268.633          44.000                  
                                                
  23986383.853     1540716.344       -3814.296          42.000                  
                                                
  24369749.911    -1215344.614        3026.123          38.000                  
                                                
 18 10  1  6 27 18.0000000  0  8G16G20G26G21G27G29G31G10
  20567841.669     -438480.486         996.263          46.000                  
                                                
  22561730.810     -984667.709        2373.220          43.000                  
                                                
  20222325.382      296863.442        -835.979          48.000                  
                                                
  21141236.952      611219.547       -1583.194          45.000                  
                                                
  22168745.240     -833642.331        2024.019          44.000                  
                                                
  23822295.141     1324908.028       -3269.406          44.000                  
                                                
  23987109.607     1544531.589       -3815.822          42.000                  
                                                
  24369174.002    -1218371.596        3027.177          38.000                  
                                                
 18 10  1  6 27 19.0000000  0  8G16G20G26G21G27G29G31G10
  20567651.859     -439476.071         994.656          46.000                  
                                                
  22561279.242     -987040.514        2372.164          43.000                  
                                                
  20222484.419      297699.743        -836.830          48.000                  
                                                
  21141538.679      612803.149       -1584.412          45.000                  
                                                
  22168360.581     -835666.258        2023.715          44.000                  
                                                
  23822916.604     1328177.979       -3270.226          44.000                  
                                                
  23987836.182     1548347.457       -3816.492          42.000                  
                                                
  24368598.398    -1221398.032        3026.917          38.000                  
                                                
 18 10  1  6 27 20.0000000  0  8G16G20G26G21G27G29G31G10
  20567462.598     -440471.533         995.176          46.000                  
                                                
  22560826.688     -989413.349        2373.235          43.000                  
                                                
  20222643.818      298536.238        -837.543          48.000                  
                                                
  21141840.302      614386.798       -1584.085          45.000                  
                                                
  22167975.293     -837690.357        2023.552          44.000                  
                                                
  23823539.032     1331447.610       -3270.378          44.000                  
                                                
  23988561.788     1552163.033       -3815.763          42.000                  
                                                
  24368022.798    -1224424.838        3026.546          39.000                  
                                                
 18 10  1  6 27 21.0000000  0  8G16G20G26G21G27G29G31G10
  20567272.670     -441466.996         995.689          46.000                  
                                                
  22560375.678     -991786.329        2373.219          43.000                  
                                                
  20222802.964      299372.814        -836.131          48.000                  
                                                
  21142141.261      615970.387       -1583.418          45.000                  
                                                
  22167590.511     -839714.706        2024.497          44.000                  
                                                
  23824161.193     1334716.855       -3268.894          44.000                  
                                                
  23989287.800     1555978.191       -3814.362          42.000                  
                                                
  24367446.901    -1227452.120        3026.957          39.000                  
                                                
 18 10  1  6 27 22.0000000  0  8G16G20G26G21G27G29G31G10
  20567083.767     -442462.038         994.071          46.000                  
                                                
  22559924.559     -994159.010        2372.415          43.000                  
                                                
  20222962.511      300209.921        -837.656          48.000                  
                                                
  21142442.958      617554.341       -1584.731          45.000                  
                                                
  22167205.817     -841738.911        2024.217          44.000                  
                                                
  23824783.551     1337986.120       -3269.606          44.000                  
                                                
  23990013.507     1559793.380       -3815.996          42.000                  
                                                
  24366870.844    -1230479.394        3026.361          39.000                  
                                                
 18 10  1  6 27 23.0000000  0  8G16G20G26G21G27G29G31G10
  20566894.716     -443455.754         993.102          46.000                  
                                                
  22559472.655     -996530.547        2370.934          43.000                  
                                                
  20223121.591      301048.406        -839.323          48.000                  
                                                
  21142744.568      619139.558       -1585.993          45.000                  
                                                
  22166820.254     -843762.078        2022.792          44.000                  
                                                
  23825405.367     1341256.242       -3270.287          44.000                  
                                                
  23990739.977     1563609.481       -3816.253          42.000                  
                                                
  24366294.851    -1233505.850        3025.695          39.000                  
                                                
 18 10  1  6 27 24.0000000  0  8G16G20G26G21G27G29G31G10
  20566705.874     -444448.961         992.827          46.000                  
                                                
  22559021.057     -998901.694        2370.957          43.000                  
                                                
  20223281.414      301887.518        -839.034          48.000                  
                                                
  21143046.186      620725.225       -1585.782          45.000                  
                                                
  22166435.974     -845785.005        2023.145          44.000                  
                                                
  23826028.105     1344526.508       -3270.008          44.000                  
                                                
  23991466.176     1567425.693       -3816.023          42.000                  
                                                
  24365718.828    -1236532.281        3026.640          39.000                  
                                                
 18 10  1  6 27 25.0000000  0  8G16G20G26G21G27G29G31G10
  20566516.635     -445442.105         993.052          46.000                  
                                                
  22558570.462    -1001272.918        2371.306          43.000                  
                                                
  20223441.567      302726.768        -839.549          49.000                  
                                                
  21143348.096      622310.896       -1585.881          45.000                  
                                                
  22166051.110     -847808.130        2022.706          44.000                  
                                                
  23826650.589     1347796.406       -3269.855          44.000                  
                                                
  23992191.927     1571241.569       -3815.760          42.000                  
                                                
  24365143.263    -1239559.065        3027.492          39.000                  
                                                
 18 10  1  6 27 26.0000000  0  8G16G20G26G21G27G29G31G10
  20566327.793     -446434.626         992.118          46.000                  
                                                
  22558119.361    -1003643.656        2370.374          43.000                  
                                                
  20223601.324      303566.730        -840.682          49.000                  
                                                
  21143649.702      623897.139       -1587.010          45.000                  
                                                
  22165666.036     -849830.908        2022.152          44.000                  
                                                
  23827272.768     1351066.514       -3270.580          44.000                  
                                                
  23992917.419     1575057.655       -3815.344          42.000                  
                                                
  24364567.703    -1242585.703        3027.038          39.000                  
                                                
 18 10  1  6 27 27.0000000  0  8G16G20G26G21G27G29G31G10
  20566138.859     -447426.182         991.227          46.000                  
                                                
  22557668.635    -1006013.585        2369.767          43.000                  
                                                
  20223761.251      304407.749        -841.395          49.000                  
                                                
  21143951.909      625484.287       -1587.797          45.000                  
                                                
  22165281.158     -851852.995        2021.653          44.000                  
                                                
  23827895.003     1354337.181       -3270.815          44.000                  
                                                
  23993643.876     1578874.304       -3816.764          42.000                  
                                                
  24363991.492    -1245611.834        3026.499          39.000                  
                                                
 18 10  1  6 27 28.0000000  0  8G16G20G26G21G27G29G31G10
  20565950.148     -448417.095         992.020          46.000                  
                                                
  22557217.346    -1008383.029        2370.225          43.000                  
                                                
  20223921.235      305249.496        -840.636          49.000                  
                                                
  21144253.994      627072.010       -1586.573          45.000                  
                                                
  22164896.250     -853874.716        2022.523          44.000                  
                                                
  23828517.618     1357608.056       -3269.865          44.000                  
                                                
  23994370.045     1582691.193       -3815.630          42.000                  
                                                
  24363415.783    -1248637.848        3027.774          39.000                  
                                                
 18 10  1  6 27 29.0000000  0  8G16G20G26G21G27G29G31G10
  20565761.573     -449408.280         991.167          46.000                  
                                                
  22556766.445    -1010752.882        2370.246          43.000                  
                                                
  20224081.916      306091.033        -841.602          49.000                  
                                                
  21144555.630      628659.402       -1587.277          45.000                  
                                                
  22164511.429     -855896.980        2022.505          44.000                  
                                                
  23829139.771     1360878.231       -3270.243          44.000                  
                                                
  23995096.467     1586507.384       -3816.814          42.000                  
                                                
  24362839.411    -1251664.553        3026.927          39.000                  
                                                
 18 10  1  6 27 30.0000000  0  8G16G20G26G21G27G29G31G10
  20565572.622     -450399.346         991.207          46.000                  
                                                
  22556315.488    -1013122.763        2369.396          43.000                  
                                                
  20224241.961      306932.791        -841.865          49.000                  
                                                
  21144858.029      630246.847       -1587.399          45.000                  
                                                
  22164126.320     -857919.383        2022.798          44.000                  
                                                
  23829762.146     1364148.135       -3269.725          44.000                  
                                                
  23995822.924     1590323.310       -3815.148          42.000                  
                                                
  24362263.183    -1254691.644        3028.616          39.000                  
                                                
 18 10  1  6 27 31.0000000  0  8G16G20G26G21G27G29G31G10
  20565384.486     -451389.318         988.916          46.000                  
                                                
  22555864.832    -1015491.685        2368.070          43.000                  
                                                
  20224402.219      307775.740        -843.663          49.000                  
                                                
  21145160.088      631835.331       -1589.222          45.000                  
                                                
  22163741.552     -859940.993        2020.837          44.000                  
                                                
  23830384.272     1367418.729       -3271.239          44.000                  
                                                
  23996548.884     1594139.910       -3816.987          42.000                  
                                                
  24361687.501    -1257718.074        3025.363          39.000                  
                                                
 18 10  1  6 27 32.0000000  0  8G16G20G26G21G27G29G31G10
  20565196.264     -452378.348         989.562          46.000                  
                                                
  22555414.005    -1017859.818        2368.523          43.000                  
                                                
  20224562.805      308619.691        -843.750          49.000                  
                                                
  21145462.736      633424.688       -1589.055          45.000                  
                                                
  22163356.709     -861961.925        2021.396          44.000                  
                                                
  23831006.852     1370689.810       -3270.771          44.000                  
                                                
  23997275.511     1597957.028       -3816.672          42.000                  
                                                
  24361111.116    -1260744.033        3027.108          39.000                  
                                                
 18 10  1  6 27 33.0000000  0  8G16G20G26G21G27G29G31G10
  20565008.447     -453367.359         988.840          46.000                  
                                                
  22554963.297    -1020228.074        2368.218          43.000                  
                                                
  20224723.591      309463.767        -844.402          49.000                  
                                                
  21145764.973      635014.012       -1589.324          45.000                  
                                                
  22162971.535     -863983.109        2021.379          44.000                  
                                                
  23831629.520     1373960.524       -3270.574          44.000                  
                                                
  23998001.924     1601773.768       -3816.436          42.000                  
                                                
  24360535.415    -1263770.441        3026.095          39.000                  
                                                
 18 10  1  6 27 34.0000000  0  8G16G20G26G21G27G29G31G10
  20564820.269     -454356.254         988.127          46.000                  
                                                
  22554512.510    -1022596.370        2367.584          43.000                  
                                                
  20224884.443      310308.035        -845.159          49.000                  
                                                
  21146067.399      636603.368       -1590.416          45.000                  
                                                
  22162587.455     -866004.450        2020.494          44.000                  
                                                
  23832251.991     1377230.918       -3271.386          44.000                  
                                                
  23998728.202     1605590.235       -3816.562          42.000                  
                                                
  24359959.166    -1266797.236        3026.079          39.000                  
                                                
 18 10  1  6 27 35.0000000  0  8G16G20G26G21G27G29G31G10
  20564632.151     -455344.111         987.065          46.000                  
                                                
  22554062.381    -1024963.777        2366.844          43.000                  
                                                
  20225045.295      311153.427        -846.135          49.000                  
                                                
  21146370.068      638193.708       -1590.989          45.000                  
                                                
  22162202.647     -868025.026        2020.469          44.000                  
                                                
  23832874.698     1380501.947       -3272.048          44.000                  
                                                
  23999454.733     1609407.313       -3817.604          42.000                  
                                                
  24359382.462    -1269823.436        3026.137          39.000                  
                                                
 18 10  1  6 27 36.0000000  0  8G16G20G26G21G27G29G31G10
  20564444.234     -456330.994         987.053          46.000                  
                                                
  22553611.965    -1027330.323        2366.727          43.000                  
                                                
  20225205.972      311999.869        -846.455          49.000                  
                                                
  21146672.943      639784.972       -1590.877          45.000                  
                                                
  22161818.171     -870044.906        2019.442          43.000                  
                                                
  23833497.042     1383773.543       -3270.971          44.000                  
                                                
  24000181.518     1613224.964       -3817.552          42.000                  
                                                
  24358806.998    -1272849.143        3026.271          38.000                  
                                                
 18 10  1  6 27 37.0000000  0  8G16G20G26G21G27G29G31G10
  20564256.827     -457317.850         987.002          46.000                  
                                                
  22553161.854    -1029697.026        2366.978          43.000                  
                                                
  20225367.199      312846.433        -846.515          49.000                  
                                                
  21146975.377      641376.184       -1590.778          45.000                  
                                                
  22161433.215     -872065.023        2020.888          43.000                  
                                                
  23834119.500     1387044.724       -3270.942          44.000                  
                                                
  24000907.665     1617042.220       -3816.781          42.000                  
                                                
  24358230.809    -1275875.263        3027.251          38.000                  
                                                
 18 10  1  6 27 38.0000000  0  8G16G20G26G21G27G29G31G10
  20564069.534     -458304.552         986.244          46.000                  
                                                
  22552711.608    -1032063.699        2366.397          43.000                  
                                                
  20225528.478      313693.218        -847.012          48.000                  
                                                
  21147278.531      642967.481       -1591.848          45.000                  
                                                
  22161049.114     -874085.282        2019.910          43.000                  
                                                
  23834742.578     1390315.667       -3271.134          44.000                  
                                                
  24001633.982     1620859.227       -3816.449          42.000                  
                                                
  24357654.965    -1278901.709        3026.236          38.000                  
                                                
 18 10  1  6 27 39.0000000  0  8G16G20G26G21G27G29G31G10
  20563881.508     -459290.180         985.141          46.000                  
                                                
  22552261.392    -1034429.433        2365.420          43.000                  
                                                
  20225689.596      314541.172        -848.371          49.000                  
                                                
  21147581.489      644559.794       -1593.199          45.000                  
                                                
  22160664.446     -876104.720        2019.142          43.000                  
                                                
  23835364.922     1393587.277       -3271.618          44.000                  
                                                
  24002360.208     1624676.915       -3817.871          42.000                  
                                                
  24357079.025    -1281927.585        3024.963          38.000                  
                                                
 18 10  1  6 27 40.0000000  0  8G16G20G26G21G27G29G31G10
  20563694.097     -460274.870         984.699          46.000                  
                                                
  22551811.613    -1036794.390        2364.506          43.000                  
                                                
  20225851.124      315390.152        -849.674          49.000                  
                                                
  21147884.660      646152.980       -1594.094          45.000                  
                                                
  22160280.663     -878123.500        2018.034          43.000                  
                                                
  23835987.040     1396859.402       -3272.692          44.000                  
                                                
  24003087.166     1628495.127       -3818.907          42.000                  
                                                
  24356503.167    -1284952.968        3026.192          38.000                  
                                                
 18 10  1  6 27 41.0000000  0  8G16G20G26G21G27G29G31G10
  20563506.354     -461259.801         985.133          46.000                  
                                                
  22551361.650    -1039159.727        2365.703          43.000                  
                                                
  20226012.425      316238.971        -848.982          49.000                  
                                                
  21148187.936      647745.857       -1592.672          45.000                  
                                                
  22159896.156     -880142.811        2019.135          43.000                  
                                                
  23836609.677     1400130.860       -3271.427          44.000                  
                                                
  24003813.593     1632312.665       -3817.712          42.000                  
                                                
  24355926.926    -1287979.025        3025.875          38.000                  
                                                
 18 10  1  6 27 42.0000000  0  8G16G20G26G21G27G29G31G10
  20563319.157     -462244.805         984.528          46.000                  
                                                
  22550911.221    -1041525.289        2364.261          43.000                  
                                                
  20226174.673      317087.802        -849.770          49.000                  
                                                
  21148490.990      649338.618       -1593.289          45.000                  
                                                
  22159511.929     -882162.448        2019.302          44.000                  
                                                
  23837231.995     1403401.855       -3271.637          44.000                  
                                                
  24004539.683     1636129.773       -3817.228          42.000                  
                                                
  24355350.615    -1291005.649        3026.856          38.000                  
                                                
 18 10  1  6 27 43.0000000  0  8G16G20G26G21G27G29G31G10
  20563131.646     -463228.775         983.457          46.000                  
                                                
  22550461.271    -1043889.952        2363.996          43.000                  
                                                
  20226335.669      317937.753        -850.739          49.000                  
                                                
  21148793.987      650932.333       -1594.131          45.000                  
                                                
  22159127.417     -884181.329        2018.157          44.000                  
                                                
  23837854.837     1406673.446       -3271.785          44.000                  
                                                
  24005266.306     1639947.475       -3817.676          42.000                  
                                                
  24354774.531    -1294031.722        3026.200          38.000                  
                                                
 18 10  1  6 27 44.0000000  0  8G16G20G26G21G27G29G31G10
  20562944.859     -464211.729         982.898          46.000                  
                                                
  22550011.265    -1046253.749        2363.440          43.000                  
                                                
  20226497.659      318788.815        -851.302          49.000                  
                                                
  21149097.860      652527.002       -1595.095          45.000                  
                                                
  22158743.617     -886199.466        2018.257          44.000                  
                                                
  23838477.256     1409945.633       -3272.225          44.000                  
                                                
  24005993.662     1643765.774       -3818.108          42.000                  
                                                
  24354198.513    -1297057.240        3025.973          38.000                  
                                                
 18 10  1  6 27 45.0000000  0  8G16G20G26G21G27G29G31G10
  20562757.601     -465194.512         982.208          46.000                  
                                                
  22549561.992    -1048617.521        2363.627          43.000                  
                                                
  20226659.806      319640.110        -851.726          49.000                  
                                                
  21149401.647      654121.781       -1595.040          45.000                  
                                                
  22158360.288     -888217.733        2017.645          44.000                  
                                                
  23839099.435     1413217.563       -3272.544          44.000                  
                                                
  24006719.896     1647583.817       -3818.120          42.000                  
                                                
  24353622.891    -1300083.025        3025.955          38.000                  
                                                
 18 10  1  6 27 46.0000000  0  8G16G20G26G21G27G29G31G10
  20562570.621     -466177.291         982.754          46.000                  
                                                
  22549111.689    -1050981.447        2363.423          43.000                  
                                                
  20226822.102      320491.500        -851.740          49.000                  
                                                
  21149704.901      655716.508       -1594.559          45.000                  
                                                
  22157976.501     -890236.249        2018.441          44.000                  
                                                
  23839722.359     1416489.087       -3271.910          44.000                  
                                                
  24007446.274     1651401.482       -3817.628          42.000                  
                                                
  24353046.908    -1303109.301        3025.863          38.000                  
                                                
 18 10  1  6 27 47.0000000  0  8G16G20G26G21G27G29G31G10
  20562383.948     -467159.315         981.327          46.000                  
                                                
  22548662.027    -1053344.746        2362.236          43.000                  
                                                
  20226984.145      321343.728        -852.980          49.000                  
                                                
  21150008.321      657311.910       -1596.213          45.000                  
                                                
  22157592.614     -892254.301        2017.685          44.000                  
                                                
  23840345.201     1419760.941       -3272.572          44.000                  
                                                
  24008172.448     1655219.494       -3818.789          42.000                  
                                                
  24352471.103    -1306135.305        3026.113          38.000                  
                                                
 18 10  1  6 27 48.0000000  0  8G16G20G26G21G27G29G31G10
  20562197.326     -468140.276         980.893          46.000                  
                                                
  22548212.724    -1055707.132        2362.114          43.000                  
                                                
  20227146.977      322197.113        -853.945          49.000                  
                                                
  21150312.295      658908.323       -1596.984          45.000                  
                                                
  22157208.770     -894271.531        2017.056          44.000                  
                                                
  23840967.812     1423033.448       -3272.993          44.000                  
                                                
  24008899.363     1659038.155       -3819.113          42.000                  
                                                
  24351895.503    -1309160.691        3025.040          38.000                  
                                                
 18 10  1  6 27 49.0000000  0  8G16G20G26G21G27G29G31G10
  20562010.805     -469120.971         980.623          46.000                  
                                                
  22547762.704    -1058069.386        2361.943          43.000                  
                                                
  20227309.046      323050.853        -853.839          49.000                  
                                                
  21150615.994      660504.939       -1596.546          45.000                  
                                                
  22156824.368     -896288.799        2017.381          44.000                  
                                                
  23841590.484     1426305.811       -3271.964          44.000                  
                                                
  24009625.872     1662856.674       -3817.812          42.000                  
                                                
  24351319.916    -1312186.301        3027.296          38.000                  
                                                
 18 10  1  6 27 50.0000000  0  8G16G20G26G21G27G29G31G10
  20561823.569     -470101.774         980.303          46.000                  
                                                
  22547312.846    -1060431.884        2362.042          43.000                  
                                                
  20227471.551      323904.561        -854.158          49.000                  
                                                
  21150919.733      662101.377       -1596.956          45.000                  
                                                
  22156440.878     -898306.436        2017.718          44.000                  
                                                
  23842213.086     1429577.627       -3271.671          44.000                  
                                                
  24010352.442     1666674.658       -3818.533          42.000                  
                                                
  24350744.373    -1315212.466        3025.260          38.000                  
                                                
 18 10  1  6 27 51.0000000  0  8G16G20G26G21G27G29G31G10
  20561637.371     -471081.734         979.485          46.000                  
                                                
  22546864.254    -1062793.688        2361.554          43.000                  
                                                
  20227634.309      324759.205        -854.791          49.000                  
                                                
  21151224.021      663698.610       -1597.620          45.000                  
                                                
  22156056.842     -900323.507        2016.356          44.000                  
                                                
  23842835.517     1432849.890       -3272.098          44.000                  
                                                
  24011079.213     1670493.091       -3819.089          42.000                  
                                                
  24350168.542    -1318238.236        3025.135          38.000                  
                                                
 18 10  1  6 27 52.0000000  0  8G16G20G26G21G27G29G31G10
  20561450.946     -472060.678         978.199          46.000                  
                                                
  22546414.937    -1065154.617        2360.338          43.000                  
                                                
  20227797.124      325614.931        -856.659          49.000                  
                                                
  21151528.130      665296.784       -1598.702          45.000                  
                                                
  22155672.903     -902339.829        2015.965          44.000                  
                                                
  23843458.556     1436122.735       -3273.036          44.000                  
                                                
  24011806.211     1674312.124       -3819.472          42.000                  
                                                
  24349593.078    -1321263.464        3025.823          38.000                  
                                                
 18 10  1  6 27 53.0000000  0  8G16G20G26G21G27G29G31G10
  20561264.656     -473039.246         978.658          46.000                  
                                                
  22545965.310    -1067515.325        2361.050          43.000                  
                                                
  20227960.131      326471.128        -855.951          49.000                  
                                                
  21151832.471      666895.273       -1598.361          45.000                  
                                                
  22155289.526     -904356.055        2016.555          44.000                  
                                                
  23844081.131     1439395.528       -3272.854          44.000                  
                                                
  24012532.843     1678131.134       -3818.490          42.000                  
                                                
  24349017.517    -1324288.828        3026.079          38.000                  
                                                
 18 10  1  6 27 54.0000000  0  8G16G20G26G21G27G29G31G10
  20561078.410     -474017.595         977.529          46.000                  
                                                
  22545516.098    -1069875.940        2360.088          43.000                  
                                                
  20228123.539      327327.621        -857.091          49.000                  
                                                
  21152136.676      668493.904       -1599.407          45.000                  
                                                
  22154906.175     -906372.339        2015.894          44.000                  
                                                
  23844703.808     1442668.126       -3272.857          44.000                  
                                                
  24013259.705     1681949.963       -3818.892          42.000                  
                                                
  24348441.612    -1327314.417        3025.364          38.000                  
                                                
 18 10  1  6 27 55.0000000  0  8G16G20G26G21G27G29G31G10
  20560893.167     -474995.079         977.327          46.000                  
                                                
  22545066.820    -1072235.852        2359.417          43.000                  
                                                
  20228286.516      328185.082        -857.812          49.000                  
                                                
  21152440.890      670093.351       -1599.359          45.000                  
                                                
  22154522.423     -908388.035        2015.339          44.000                  
                                                
  23845326.907     1445941.181       -3273.402          44.000                  
                                                
  24013986.446     1685769.225       -3819.230          42.000                  
                                                
  24347865.262    -1330339.588        3024.421          38.000                  
                                                
 18 10  1  6 27 56.0000000  0  8G16G20G26G21G27G29G31G10
  20560706.991     -475971.772         976.750          46.000                  
                                                
  22544617.918    -1074595.107        2358.880          43.000                  
                                                
  20228449.727      329043.412        -858.570          49.000                  
                                                
  21152745.318      671693.513       -1600.087          45.000                  
                                                
  22154138.496     -910403.203        2015.054          44.000                  
                                                
  23845949.317     1449214.627       -3273.443          44.000                  
                                                
  24014713.492     1689588.869       -3819.481          42.000                  
                                                
  24347289.701    -1333364.440        3024.610          38.000                  
                                                
 18 10  1  6 27 57.0000000  0  8G16G20G26G21G27G29G31G10
  20560521.311     -476948.214         976.662          46.000                  
                                                
  22544168.618    -1076954.238        2359.774          43.000                  
                                                
  20228612.734      329902.064        -858.896          49.000                  
                                                
  21153049.671      673293.866       -1600.058          45.000                  
                                                
  22153754.844     -912418.412        2015.404          44.000                  
                                                
  23846572.281     1452487.873       -3273.033          44.000                  
                                                
  24015440.053     1693408.361       -3819.086          42.000                  
                                                
  24346714.468    -1336389.534        3025.542          38.000                  
                                                
 18 10  1  6 27 58.0000000  0  8G16G20G26G21G27G29G31G10
  20560335.314     -477925.004         976.708          46.000                  
                                                
  22543719.650    -1079313.871        2359.887          43.000                  
                                                
  20228775.964      330760.476        -858.027          49.000                  
                                                
  21153354.344      674893.820       -1600.151          45.000                  
                                                
  22153371.651     -914434.229        2015.771          44.000                  
                                                
  23847194.988     1455760.374       -3272.015          44.000                  
                                                
  24016166.894     1697227.108       -3819.263          42.000                  
                                                
  24346138.960    -1339415.390        3026.669          38.000                  
                                                
 18 10  1  6 27 59.0000000  0  8G16G20G26G21G27G29G31G10
  20560149.779     -478901.401         975.359          46.000                  
                                                
  22543270.543    -1081673.253        2359.260          43.000                  
                                                
  20228939.913      331619.341        -859.579          49.000                  
                                                
  21153658.854      676494.076       -1600.874          45.000                  
                                                
  22152988.003     -916449.915        2014.952          44.000                  
                                                
  23847818.030     1459032.833       -3273.200          44.000                  
                                                
  24016893.766     1701045.823       -3819.487          42.000                  
                                                
  24345564.040    -1342441.369        3026.472          38.000                  
                                                
 18 10  1  6 28  0.0000000  0  8G16G20G26G21G27G29G31G10
  20559964.130     -479876.540         974.701          46.000                  
                                                
  22542821.850    -1084031.548        2358.119          43.000                  
                                                
  20229103.304      332479.546        -860.640          49.000                  
                                                
  21153963.238      678095.544       -1601.746          45.000                  
                                                
  22152604.256     -918464.638        2014.347          44.000                  
                                                
  23848440.876     1462306.137       -3273.524          44.000                  
                                                
  24017620.759     1704865.395       -3819.953          43.000                  
                                                
  24344988.702    -1345466.530        3025.822          38.000                  
                                                
 18 10  1  6 28  1.0000000  0  8G16G20G26G21G27G29G31G10
  20559778.643     -480850.898         974.630          46.000                  
                                                
  22542373.335    -1086389.191        2357.799          43.000                  
                                                
  20229266.969      333340.611        -861.235          49.000                  
                                                
  21154268.294      679697.699       -1601.983          45.000                  
                                                
  22152221.319     -920478.859        2014.380          44.000                  
                                                
  23849063.509     1465579.778       -3273.390          44.000                  
                                                
  24018347.521     1708685.314       -3820.083          42.000                  
                                                
  24344412.758    -1348491.421        3024.815          39.000                  
                                                
 18 10  1  6 28  2.0000000  0  8G16G20G26G21G27G29G31G10
  20559593.387     -481824.925         973.914          46.000                  
                                                
  22541925.057    -1088746.625        2357.534          43.000                  
                                                
  20229431.346      334202.125        -860.973          49.000                  
                                                
  21154573.071      681300.165       -1602.114          45.000                  
                                                
  22151837.384     -922493.014        2013.729          44.000                  
                                                
  23849686.024     1468853.382       -3272.671          44.000                  
                                                
  24019074.694     1712505.173       -3819.731          43.000                  
                                                
  24343837.416    -1351516.388        3026.041          39.000                  
                                                
 18 10  1  6 28  3.0000000  0  8G16G20G26G21G27G29G31G10
  20559407.848     -482799.441         975.176          46.000                  
                                                
  22541476.420    -1091104.704        2358.188          43.000                  
                                                
  20229595.147      335063.203        -860.921          49.000                  
                                                
  21154878.088      682902.054       -1601.109          45.000                  
                                                
  22151453.750     -924507.925        2014.904          44.000                  
                                                
  23850308.887     1472126.046       -3272.321          44.000                  
                                                
  24019801.186     1716324.118       -3818.834          42.000                  
                                                
  24343262.405    -1354542.335        3027.045          39.000                  
                                                
 18 10  1  6 28  4.0000000  0  8G16G20G26G21G27G29G31G10
  20559222.313     -483773.082         973.276          46.000                  
                                                
  22541027.509    -1093462.044        2356.716          43.000                  
                                                
  20229759.135      335925.274        -862.553          49.000                  
                                                
  21155183.078      684504.767       -1603.418          45.000                  
                                                
  22151070.809     -926522.226        2013.543          44.000                  
                                                
  23850931.563     1475399.177       -3273.741          44.000                  
                                                
  24020528.354     1720143.560       -3819.889          43.000                  
                                                
  24342686.936    -1357567.871        3025.445          39.000                  
                                                
 18 10  1  6 28  5.0000000  0  8G16G20G26G21G27G29G31G10
  20559037.088     -484745.308         971.862          46.000                  
                                                
  22540579.270    -1095818.116        2355.732          43.000                  
                                                
  20229923.486      336788.825        -864.060          49.000                  
                                                
  21155487.877      686108.819       -1603.750          45.000                  
                                                
  22150687.310     -928535.402        2013.519          44.000                  
                                                
  23851554.645     1478673.310       -3274.013          44.000                  
                                                
  24021255.404     1723963.971       -3820.262          42.000                  
                                                
  24342111.170    -1360592.459        3024.000          39.000                  
                                                
 18 10  1  6 28  6.0000000  0  8G16G20G26G21G27G29G31G10
  20558852.390     -485717.605         972.996          46.000                  
                                                
  22540131.174    -1098174.392        2356.886          43.000                  
                                                
  20230088.203      337652.389        -863.163          49.000                  
                                                
  21155793.203      687712.734       -1603.481          45.000                  
                                                
  22150304.186     -930548.924        2014.368          44.000                  
                                                
  23852177.605     1481946.947       -3272.808          44.000                  
                                                
  24021982.166     1727783.930       -3819.518          42.000                  
                                                
  24341535.662    -1363617.576        3025.835          39.000                  
                                                
 18 10  1  6 28  7.0000000  0  8G16G20G26G21G27G29G31G10
  20558667.217     -486690.331         972.535          46.000                  
                                                
  22539682.420    -1100531.232        2357.029          43.000                  
                                                
  20230252.422      338515.608        -863.573          49.000                  
                                                
  21156098.342      689316.159       -1603.579          45.000                  
                                                
  22149920.779     -932563.130        2014.150          44.000                  
                                                
  23852800.678     1485219.739       -3273.304          44.000                  
                                                
  24022709.151     1731603.036       -3819.605          42.000                  
                                                
  24340959.962    -1366643.589        3025.164          39.000                  
                                                
 18 10  1  6 28  8.0000000  0  8G16G20G26G21G27G29G31G10
  20558482.651     -487661.774         970.463          46.000                  
                                                
  22539233.592    -1102886.950        2354.870          43.000                  
                                                
  20230416.672      339380.210        -865.152          49.000                  
                                                
  21156404.061      690920.797       -1605.413          45.000                  
                                                
  22149537.698     -934576.347        2011.866          44.000                  
                                                
  23853423.450     1488493.390       -3274.282          44.000                  
                                                
  24023435.774     1735423.007       -3820.890          42.000                  
                                                
  24340384.476    -1369668.800        3024.638          39.000                  
                                                
 18 10  1  6 28  9.0000000  0  8G16G20G26G21G27G29G31G10
  20558297.587     -488631.667         969.626          46.000                  
                                                
  22538785.885    -1105241.259        2353.452          43.000                  
                                                
  20230581.551      340246.414        -867.177          49.000                  
                                                
  21156709.366      692526.904       -1606.698          45.000                  
                                                
  22149155.163     -936588.294        2011.590          44.000                  
                                                
  23854046.637     1491768.176       -3274.971          44.000                  
                                                
  24024162.955     1739244.092       -3822.054          42.000                  
                                                
  24339808.692    -1372692.911        3023.618          39.000                  
                                                
 18 10  1  6 28 10.0000000  0  8G16G20G26G21G27G29G31G10
  20558113.456     -489601.171         969.927          46.000                  
                                                
  22538338.169    -1107595.327        2354.216          43.000                  
                                                
  20230746.451      341113.105        -866.447          49.000                  
                                                
  21157015.343      694133.362       -1605.849          45.000                  
                                                
  22148772.393     -938600.114        2012.792          44.000                  
                                                
  23854669.924     1495042.924       -3274.310          44.000                  
                                                
  24024890.467     1743065.176       -3820.597          42.000                  
                                                
  24339233.206    -1375717.104        3025.319          39.000                  
                                                
 18 10  1  6 28 11.0000000  0  8G16G20G26G21G27G29G31G10
  20557928.981     -490571.232         969.809          46.000                  
                                                
  22537889.825    -1109950.081        2355.065          43.000                  
                                                
  20230911.146      341979.324        -866.606          49.000                  
                                                
  21157320.813      695739.161       -1606.261          45.000                  
                                                
  22148389.609     -940612.781        2012.437          44.000                  
                                                
  23855292.744     1498316.699       -3274.013          44.000                  
                                                
  24025617.605     1746885.306       -3819.782          42.000                  
                                                
  24338657.515    -1378742.326        3025.706          39.000                  
                                                
 18 10  1  6 28 12.0000000  0  8G16G20G26G21G27G29G31G10
  20557744.415     -491540.315         968.476          46.000                  
                                                
  22537441.764    -1112304.018        2353.569          43.000                  
                                                
  20231076.260      342846.606        -868.506          49.000                  
                                                
  21157626.619      697345.897       -1607.494          45.000                  
                                                
  22148006.437     -942624.721        2011.297          44.000                  
                                                
  23855916.310     1501591.047       -3274.532          43.000                  
                                                
  24026344.537     1750705.960       -3820.343          43.000                  
                                                
  24338081.780    -1381767.028        3024.265          39.000                  
                                                
 18 10  1  6 28 13.0000000  0  8G16G20G26G21G27G29G31G10
  20557560.494     -492507.765         966.327          46.000                  
                                                
  22536994.258    -1114656.456        2351.432          43.000                  
                                                
  20231241.605      343715.613        -869.963          49.000                  
                                                
  21157932.399      698954.179       -1609.453          45.000                  
                                                
  22147624.552     -944635.317        2009.273          44.000                  
                                                
  23856539.413     1504866.577       -3276.207          43.000                  
                                                
  24027072.203     1754527.849       -3822.718          43.000                  
                                                
  24337506.075    -1384790.578        3022.931          39.000                  
                                                
 18 10  1  6 28 14.0000000  0  8G16G20G26G21G27G29G31G10
  20557376.276     -493474.509         966.954          46.000                  
                                                
  22536546.590    -1117008.323        2352.004          43.000                  
                                                
  20231407.025      344585.395        -869.645          49.000                  
                                                
  21158238.258      700563.120       -1608.788          45.000                  
                                                
  22147242.179     -946645.493        2010.319          44.000                  
                                                
  23857162.853     1508142.426       -3274.568          44.000                  
                                                
  24027798.428     1758350.030       -3821.724          43.000                  
                                                
  24336930.842    -1387813.877        3023.737          39.000                  
                                                
 18 10  1  6 28 15.0000000  0  8G16G20G26G21G27G29G31G10
  20557192.094     -494441.332         966.854          46.000                  
                                                
  22536099.184    -1119360.410        2352.253          43.000                  
                                                
  20231572.566      345455.186        -870.167          49.000                  
                                                
  21158545.016      702171.913       -1608.804          45.000                  
                                                
  22146859.618     -948655.993        2010.627          44.000                  
                                                
  23857786.227     1511417.760       -3275.014          44.000                  
                                                
  24028525.173     1762171.725       -3821.617          42.000                  
                                                
  24336355.504    -1390837.721        3024.371          39.000                  
                                                
 18 10  1  6 28 16.0000000  0  8G16G20G26G21G27G29G31G10
  20557008.574     -495407.602         965.630          46.000                  
                                                
  22535651.642    -1121712.100        2351.231          43.000                  
                                                
  20231738.396      346325.608        -871.077          49.000                  
                                                
  21158851.808      703781.177       -1610.177          45.000                  
                                                
  22146477.362     -950666.250        2009.638          44.000                  
                                                
  23858409.920     1514693.219       -3276.343          44.000                  
                                                
  24029252.577     1765993.551       -3822.967          42.000                  
                                                
  24335779.682    -1393861.487        3023.235          39.000                  
                                                
 18 10  1  6 28 17.0000000  0  8G16G20G26G21G27G29G31G10
  20556825.403     -496372.632         964.664          46.000                  
                                                
  22535204.777    -1124062.673        2349.971          43.000                  
                                                
  20231904.146      347197.352        -871.984          49.000                  
                                                
  21159157.845      705391.615       -1611.143          45.000                  
                                                
  22146094.853     -952675.539        2008.567          44.000                  
                                                
  23859033.442     1517969.516       -3276.576          44.000                  
                                                
  24029980.011     1769816.209       -3822.611          42.000                  
                                                
  24335204.378    -1396884.463        3023.487          39.000                  
                                                
 18 10  1  6 28 18.0000000  0  8G16G20G26G21G27G29G31G10
  20556641.823     -497337.113         964.308          46.000                  
                                                
  22534757.218    -1126412.836        2350.568          43.000                  
                                                
  20232069.950      348069.756        -872.103          49.000                  
                                                
  21159464.502      707002.564       -1610.463          45.000                  
                                                
  22145712.563     -954684.517        2009.669          44.000                  
                                                
  23859656.389     1521245.957       -3276.237          44.000                  
                                                
  24030707.720     1773639.029       -3822.186          42.000                  
                                                
  24334630.009    -1399907.384        3023.663          39.000                  
                                                
 18 10  1  6 28 19.0000000  0  8G16G20G26G21G27G29G31G10
  20556458.028     -498301.882         964.765          46.000                  
                                                
  22534309.825    -1128763.448        2351.255          43.000                  
                                                
  20232235.893      348941.932        -871.814          49.000                  
                                                
  21159770.610      708613.136       -1610.467          45.000                  
                                                
  22145330.102     -956694.090        2009.822          44.000                  
                                                
  23860279.907     1524521.673       -3275.066          44.000                  
                                                
  24031435.097     1777461.096       -3821.475          42.000                  
                                                
  24334054.745    -1402931.042        3023.855          39.000                  
                                                
 18 10  1  6 28 20.0000000  0  8G16G20G26G21G27G29G31G10
  20556274.770     -499266.340         964.280          46.000                  
                                                
  22533862.808    -1131113.885        2349.542          43.000                  
                                                
  20232401.927      349814.495        -873.227          49.000                  
                                                
  21160077.140      710223.949       -1611.529          45.000                  
                                                
  22144947.933     -958703.620        2008.862          44.000                  
                                                
  23860902.993     1527797.274       -3275.904          44.000                  
                                                
  24032162.296     1781283.076       -3822.282          42.000                  
                                                
  24333478.260    -1405954.841        3023.493          39.000                  
                                                
 18 10  1  6 28 21.0000000  0  8G16G20G26G21G27G29G31G10
  20556091.630     -500229.519         963.047          46.000                  
                                                
  22533415.859    -1133463.206        2348.530          43.000                  
                                                
  20232568.315      350688.422        -874.444          49.000                  
                                                
  21160384.155      711835.970       -1612.251          45.000                  
                                                
  22144565.206     -960712.154        2008.319          44.000                  
                                                
  23861527.174     1531073.743       -3276.674          44.000                  
                                                
  24032889.023     1785105.938       -3823.089          42.000                  
                                                
  24332903.087    -1408977.841        3022.361          39.000                  
                                                
 18 10  1  6 28 22.0000000  0  8G16G20G26G21G27G29G31G10
  20555908.281     -501191.822         962.170          46.000                  
                                                
  22532969.016    -1135811.751        2348.719          43.000                  
                                                
  20232734.637      351563.331        -874.629          49.000                  
                                                
  21160690.960      713448.806       -1613.095          45.000                  
                                                
  22144182.802     -962720.075        2008.330          44.000                  
                                                
  23862150.574     1534350.689       -3276.630          44.000                  
                                                
  24033616.951     1788929.249       -3823.000          42.000                  
                                                
  24332327.252    -1412000.406        3023.443          39.000                  
                                                
 18 10  1  6 28 23.0000000  0  8G16G20G26G21G27G29G31G10
  20555725.110     -502154.244         962.610          46.000                  
                                                
  22532521.780    -1138160.591        2348.570          43.000                  
                                                
  20232901.326      352438.175        -874.853          49.000                  
                                                
  21160997.312      715061.449       -1612.114          45.000                  
                                                
  22143801.035     -964728.407        2008.811          44.000                  
                                                
  23862774.114     1537627.049       -3276.025          44.000                  
                                                
  24034344.956     1792752.031       -3822.031          42.000                  
                                                
  24331751.971    -1415023.621        3023.033          39.000                  
                                                
 18 10  1  6 28 24.0000000  0  8G16G20G26G21G27G29G31G10
  20555542.014     -503116.394         961.538          46.000                  
                                                
  22532075.068    -1140509.276        2347.924          43.000                  
                                                
  20233068.098      353313.391        -875.932          49.000                  
                                                
  21161304.458      716674.298       -1613.943          45.000                  
                                                
  22143418.744     -966736.728        2008.082          44.000                  
                                                
  23863398.069     1540903.294       -3276.923          44.000                  
                                                
  24035072.678     1796574.665       -3822.915          42.000                  
                                                
  24331177.108    -1418046.951        3022.785          39.000                  
                                                
 18 10  1  6 28 25.0000000  0  8G16G20G26G21G27G29G31G10
  20555359.014     -504077.213         960.726          46.000                  
                                                
  22531628.338    -1142856.775        2347.344          43.000                  
                                                
  20233234.630      354190.018        -876.941          49.000                  
                                                
  21161611.695      718288.412       -1614.233          45.000                  
                                                
  22143036.707     -968744.000        2006.755          44.000                  
                                                
  23864021.220     1544180.455       -3277.271          44.000                  
                                                
  24035799.951     1800398.213       -3823.839          42.000                  
                                                
  24330601.316    -1421069.447        3022.815          38.000                  
                                                
 18 10  1  6 28 26.0000000  0  8G16G20G26G21G27G29G31G10
  20555176.415     -505037.146         960.213          46.000                  
                                                
  22531181.856    -1145203.527        2347.275          43.000                  
                                                
  20233401.829      355067.610        -877.647          49.000                  
                                                
  21161919.050      719903.333       -1614.694          45.000                  
                                                
  22142654.739     -970750.662        2006.556          44.000                  
                                                
  23864645.349     1547458.083       -3276.534          44.000                  
                                                
  24036527.407     1804222.234       -3823.846          42.000                  
                                                
  24330025.878    -1424091.530        3021.580          38.000                  
                                                
 18 10  1  6 28 27.0000000  0  8G16G20G26G21G27G29G31G10
  20554993.619     -505997.670         960.417          46.000                  
                                                
  22530734.559    -1147551.038        2347.296          43.000                  
                                                
  20233568.579      355944.688        -877.361          49.000                  
                                                
  21162226.409      721517.601       -1614.274          45.000                  
                                                
  22142272.597     -972758.181        2007.621          44.000                  
                                                
  23865269.020     1550734.690       -3276.580          44.000                  
                                                
  24037255.064     1808045.259       -3823.284          42.000                  
                                                
  24329450.440    -1427114.668        3024.313          38.000                  
                                                
 18 10  1  6 28 28.0000000  0  8G16G20G26G21G27G29G31G10
  20554810.750     -506958.262         960.577          46.000                  
                                                
  22530287.659    -1149898.726        2348.177          43.000                  
                                                
  20233735.612      356821.807        -877.194          49.000                  
                                                
  21162533.703      723131.739       -1614.486          45.000                  
                                                
  22141890.232     -974766.050        2007.376          44.000                  
                                                
  23865892.337     1554010.821       -3275.804          44.000                  
                                                
  24037981.974     1811867.784       -3822.786          42.000                  
                                                
  24328875.376    -1430138.353        3024.119          38.000                  
                                                
 18 10  1  6 28 29.0000000  0  8G16G20G26G21G27G29G31G10
  20554628.547     -507917.464         958.511          46.000                  
                                                
  22529841.553    -1152245.199        2345.421          43.000                  
                                                
  20233903.483      357700.367        -879.706          49.000                  
                                                
  21162841.421      724747.191       -1616.601          45.000                  
                                                
  22141508.037     -976772.809        2006.263          44.000                  
                                                
  23866516.030     1557287.886       -3277.804          44.000                  
                                                
  24038709.544     1815691.293       -3824.126          42.000                  
                                                
  24328299.798    -1433161.078        3021.552          38.000                  
                                                
 18 10  1  6 28 30.0000000  0  8G16G20G26G21G27G29G31G10
  20554446.206     -508875.121         956.581          46.000                  
                                                
  22529395.089    -1154590.237        2344.713          43.000                  
                                                
  20234070.765      358580.570        -881.086          49.000                  
                                                
  21163148.872      726364.118       -1617.576          45.000                  
                                                
  22141126.641     -978778.285        2004.333          44.000                  
                                                
  23867139.657     1560566.120       -3278.979          44.000                  
                                                
  24039436.956     1819515.944       -3824.780          42.000                  
                                                
  24327724.421    -1436182.754        3020.306          38.000                  
                                                
 18 10  1  6 28 31.0000000  0  8G16G20G26G21G27G29G31G10
  20554263.938     -509832.366         957.219          46.000                  
                                                
  22528949.036    -1156935.039        2345.068          43.000                  
                                                
  20234237.995      359461.261        -880.666          49.000                  
                                                
  21163456.458      727981.394       -1617.490          45.000                  
                                                
  22140744.660     -980783.627        2005.390          44.000                  
                                                
  23867763.690     1563844.329       -3278.220          44.000                  
                                                
  24040165.468     1823340.572       -3824.543          42.000                  
                                                
  24327149.266    -1439204.461        3021.820          38.000                  
                                                
 18 10  1  6 28 32.0000000  0  8G16G20G26G21G27G29G31G10
  20554081.073     -510790.020         957.669          46.000                  
                                                
  22528502.677    -1159280.377        2345.153          43.000                  
                                                
  20234405.299      360341.633        -880.095          49.000                  
                                                
  21163764.354      729598.170       -1616.892          45.000                  
                                                
  22140362.592     -982789.666        2007.012          44.000                  
                                                
  23868386.571     1567121.685       -3277.094          44.000                  
                                                
  24040892.719     1827164.370       -3823.386          42.000                  
                                                
  24326574.190    -1442227.075        3021.838          38.000                  
                                                
 18 10  1  6 28 33.0000000  0  8G16G20G26G21G27G29G31G10
  20553899.643     -511747.172         957.075          46.000                  
                                                
  22528057.164    -1161625.340        2344.636          43.000                  
                                                
  20234573.253      361222.584        -881.680          49.000                  
                                                
  21164071.744      731215.408       -1618.056          45.000                  
                                                
  22139981.401     -984795.475        2005.228          44.000                  
                                                
  23869010.696     1570399.137       -3278.410          44.000                  
                                                
  24041620.772     1830988.271       -3824.318          42.000                  
                                                
  24325999.463    -1445249.611        3023.100          38.000                  
                                                
 18 10  1  6 28 34.0000000  0  8G16G20G26G21G27G29G31G10
  20553717.690     -512702.711         954.661          46.000                  
                                                
  22527611.018    -1163968.840        2342.340          43.000                  
                                                
  20234740.780      362105.239        -883.479          49.000                  
                                                
  21164379.836      732834.184       -1619.606          45.000                  
                                                
  22139600.131     -986799.931        2003.712          44.000                  
                                                
  23869634.087     1573677.790       -3279.077          44.000                  
                                                
  24042348.560     1834813.372       -3826.095          42.000                  
                                                
  24325424.365    -1448271.007        3020.923          38.000                  
                                                
 18 10  1  6 28 35.0000000  0  8G16G20G26G21G27G29G31G10
  20553535.789     -513657.486         954.945          46.000                  
                                                
  22527164.768    -1166311.734        2343.008          43.000                  
                                                
  20234908.882      362988.725        -883.529          49.000                  
                                                
  21164687.824      734453.640       -1619.678          45.000                  
                                                
  22139218.682     -988803.929        2003.767          44.000                  
                                                
  23870257.697     1576956.763       -3278.660          44.000                  
                                                
  24043076.286     1838638.816       -3824.906          42.000                  
                                                
  24324849.410    -1451292.132        3020.919          38.000                  
                                                
 18 10  1  6 28 36.0000000  0  8G16G20G26G21G27G29G31G10
  20553354.084     -514612.212         954.740          46.000                  
                                                
  22526718.427    -1168654.681        2343.140          43.000                  
                                                
  20235077.115      363872.358        -883.550          49.000                  
                                                
  21164996.317      736073.085       -1619.247          45.000                  
                                                
  22138837.264     -990808.131        2004.334          44.000                  
                                                
  23870881.542     1580235.382       -3278.308          44.000                  
                                                
  24043803.917     1842463.896       -3824.343          42.000                  
                                                
  24324273.911    -1454313.646        3021.414          38.000                  
                                                
 18 10  1  6 28 37.0000000  0  8G16G20G26G21G27G29G31G10
  20553172.445     -515566.427         953.776          46.000                  
                                                
  22526273.176    -1170997.286        2341.790          43.000                  
                                                
  20235245.492      364756.572        -885.059          49.000                  
                                                
  21165304.724      737692.970       -1620.161          45.000                  
                                                
  22138456.073     -992812.108        2004.048          44.000                  
                                                
  23871505.492     1583514.079       -3279.362          44.000                  
                                                
  24044531.883     1846289.053       -3824.854          42.000                  
                                                
  24323698.970    -1457335.136        3020.580          38.000                  
                                                
 18 10  1  6 28 38.0000000  0  8G16G20G26G21G27G29G31G10
  20552991.189     -516519.545         952.733          46.000                  
                                                
  22525827.109    -1173338.919        2340.729          43.000                  
                                                
  20235413.795      365641.975        -885.502          49.000                  
                                                
  21165613.313      739313.892       -1621.243          46.000                  
                                                
  22138074.982     -994815.257        2002.777          44.000                  
                                                
  23872129.634     1586793.466       -3279.245          44.000                  
                                                
  24045259.544     1850114.908       -3826.187          42.000                  
                                                
  24323123.920    -1460355.958        3021.086          38.000                  
                                                
 18 10  1  6 28 39.0000000  0  8G16G20G26G21G27G29G31G10
  20552809.877     -517471.887         952.771          46.000                  
                                                
  22525381.705    -1175679.929        2341.461          43.000                  
                                                
  20235582.303      366528.237        -886.225          49.000                  
                                                
  21165921.759      740935.517       -1621.571          46.000                  
                                                
  22137693.825     -996817.907        2002.811          44.000                  
                                                
  23872753.780     1590073.197       -3279.539          44.000                  
                                                
  24045987.628     1853941.118       -3826.102          42.000                  
                                                
  24322549.594    -1463376.491        3021.311          38.000                  
                                                
 18 10  1  6 28 40.0000000  0  8G16G20G26G21G27G29G31G10
  20552629.093     -518424.692         952.938          46.000                  
                                                
  22524936.288    -1178021.542        2342.172          43.000                  
                                                
  20235751.330      367414.112        -885.825          49.000                  
                                                
  21166230.467      742556.623       -1620.624          46.000                  
                                                
  22137312.673     -998821.296        2003.607          44.000                  
                                                
  23873378.053     1593352.041       -3278.973          44.000                  
                                                
  24046716.183     1857766.442       -3825.129          42.000                  
                                                
  24321974.679    -1466397.946        3022.161          38.000                  
                                                
 18 10  1  6 28 41.0000000  0  8G16G20G26G21G27G29G31G10
  20552447.318     -519377.734         952.561          46.000                  
                                                
  22524490.762    -1180363.514        2341.991          43.000                  
                                                
  20235920.109      368299.835        -885.836          49.000                  
                                                
  21166538.842      744177.413       -1621.235          45.000                  
                                                
  22136931.591    -1000825.202        2003.869          44.000                  
                                                
  23874001.803     1596630.241       -3278.674          44.000                  
                                                
  24047444.250     1861591.112       -3824.765          42.000                  
                                                
  24321400.213    -1469420.109        3023.001          38.000                  
                                                
 18 10  1  6 28 42.0000000  0  8G16G20G26G21G27G29G31G10
  20552266.250     -520329.502         950.851          46.000                  
                                                
  22524045.346    -1182704.386        2339.520          43.000                  
                                                
  20236088.390      369186.902        -888.395          49.000                  
                                                
  21166846.900      745799.413       -1622.831          45.000                  
                                                
  22136550.177    -1002828.125        2002.145          44.000                  
                                                
  23874625.460     1599909.271       -3279.687          44.000                  
                                                
  24048171.710     1865416.625       -3825.940          42.000                  
                                                
  24320825.224    -1472441.476        3020.522          38.000                  
                                                
 18 10  1  6 28 43.0000000  0  8G16G20G26G21G27G29G31G10
  20552085.732     -521279.793         949.917          46.000                  
                                                
  22523600.204    -1185043.892        2338.802          43.000                  
                                                
  20236257.762      370075.548        -889.358          49.000                  
                                                
  21167156.118      747422.825       -1623.670          45.000                  
                                                
  22136169.139    -1004829.818        2001.343          44.000                  
                                                
  23875249.707     1603189.378       -3280.410          44.000                  
                                                
  24048899.925     1869243.206       -3827.456          42.000                  
                                                
  24320250.711    -1475461.834        3020.106          38.000                  
                                                
 18 10  1  6 28 44.0000000  0  8G16G20G26G21G27G29G31G10
  20551904.503     -522230.119         950.486          46.000                  
                                                
  22523155.402    -1187383.592        2339.895          43.000                  
                                                
  20236426.615      370964.231        -888.484          49.000                  
                                                
  21167464.886      749046.110       -1623.142          45.000                  
                                                
  22135788.506    -1006831.849        2002.428          44.000                  
                                                
  23875874.207     1606469.018       -3278.979          44.000                  
                                                
  24049628.119     1873069.331       -3825.443          42.000                  
                                                
  24319676.424    -1478482.676        3022.261          39.000                  
                                                
 18 10  1  6 28 45.0000000  0  8G16G20G26G21G27G29G31G10
  20551723.714     -523180.697         950.385          46.000                  
                                                
  22522710.037    -1189723.693        2339.815          43.000                  
                                                
  20236596.440      371852.733        -888.654          49.000                  
                                                
  21167774.165      750669.084       -1623.243          46.000                  
                                                
  22135407.537    -1008834.402        2003.193          44.000                  
                                                
  23876498.052     1609747.981       -3278.920          44.000                  
                                                
  24050355.793     1876894.775       -3825.381          42.000                  
                                                
  24319101.719    -1481504.243        3022.362          39.000                  
                                                
 18 10  1  6 28 46.0000000  0  8G16G20G26G21G27G29G31G10
  20551543.227     -524130.433         948.761          46.000                  
                                                
  22522264.791    -1192063.080        2338.412          44.000                  
                                                
  20236765.315      372742.165        -890.920          49.000                  
                                                
  21168083.396      752292.825       -1624.745          46.000                  
                                                
  22135026.586    -1010836.391        2000.424          44.000                  
                                                
  23877122.399     1613027.364       -3280.512          44.000                  
                                                
  24051083.999     1880720.635       -3826.614          42.000                  
                                                
  24318526.442    -1484525.433        3020.802          39.000                  
                                                
 18 10  1  6 28 47.0000000  0  8G16G20G26G21G27G29G31G10
  20551362.316     -525078.783         947.818          46.000                  
                                                
  22521819.653    -1194401.218        2337.813          44.000                  
                                                
  20236934.822      373633.080        -891.367          49.000                  
                                                
  21168392.243      753917.873       -1625.448          46.000                  
                                                
  22134645.905    -1012837.250        2000.624          44.000                  
                                                
  23877745.978     1616307.715       -3280.043          44.000                  
                                                
  24051812.589     1884547.489       -3826.337          42.000                  
                                                
  24317951.457    -1487545.678        3019.356          39.000                  
                                                
 18 10  1  6 28 48.0000000  0  8G16G20G26G21G27G29G31G10
  20551182.400     -526026.443         947.737          46.000                  
                                                
  22521374.847    -1196738.817        2338.400          43.000                  
                                                
  20237104.420      374524.744        -891.646          49.000                  
                                                
  21168701.313      755543.542       -1625.747          45.000                  
                                                
  22134264.984    -1014837.716        2000.407          44.000                  
                                                
  23878370.726     1619588.337       -3279.924          44.000                  
                                                
  24052540.700     1888374.595       -3826.951          42.000                  
                                                
  24317376.813    -1490565.738        3020.353          39.000                  
                                                
 18 10  1  6 28 49.0000000  0  8G16G20G26G21G27G29G31G10
  20551002.034     -526974.121         947.804          46.000                  
                                                
  22520930.115    -1199076.586        2338.193          43.000                  
                                                
  20237274.416      375416.484        -891.818          49.000                  
                                                
  21169010.744      757169.120       -1625.535          45.000                  
                                                
  22133884.133    -1016838.471        2000.783          44.000                  
                                                
  23878995.305     1622868.526       -3279.105          44.000                  
                                                
  24053268.867     1892201.282       -3826.379          42.000                  
                                                
  24316801.955    -1493586.248        3020.346          39.000                  
                                                
 18 10  1  6 28 50.0000000  0  8G16G20G26G21G27G29G31G10
  20550821.979     -527921.312         946.662          46.000                  
                                                
  22520485.104    -1201414.008        2337.082          43.000                  
                                                
  20237444.102      376308.794        -893.104          49.000                  
                                                
  21169320.368      758795.125       -1626.755          45.000                  
                                                
  22133503.374    -1018839.007        2000.309          44.000                  
                                                
  23879619.412     1626148.767       -3280.741          44.000                  
                                                
  24053997.535     1896028.020       -3827.015          42.000                  
                                                
  24316227.742    -1496606.763        3020.409          39.000                  
                                                
 18 10  1  6 28 51.0000000  0  8G16G20G26G21G27G29G31G10
  20550641.570     -528867.455         945.592          46.000                  
                                                
  22520040.525    -1203750.535        2335.543          43.000                  
                                                
  20237613.949      377202.225        -894.205          49.000                  
                                                
  21169629.970      760422.085       -1627.808          45.000                  
                                                
  22133122.963    -1020838.788        1999.919          44.000                  
                                                
  23880243.396     1629429.642       -3281.389          44.000                  
                                                
  24054725.811     1899855.389       -3828.109          42.000                  
                                                
  24315653.604    -1499626.643        3019.031          39.000                  
                                                
 18 10  1  6 28 52.0000000  0  8G16G20G26G21G27G29G31G10
  20550461.732     -529812.533         944.718          46.000                  
                                                
  22519595.680    -1206086.108        2335.116          43.000                  
                                                
  20237783.945      378096.812        -894.978          49.000                  
                                                
  21169939.288      762050.070       -1628.677          45.000                  
                                                
  22132742.291    -1022837.775        1998.892          44.000                  
                                                
  23880867.931     1632711.156       -3281.620          44.000                  
                                                
  24055453.939     1903683.434       -3827.789          42.000                  
                                                
  24315078.645    -1502645.965        3019.061          39.000                  
                                                
 18 10  1  6 28 53.0000000  0  8G16G20G26G21G27G29G31G10
  20550281.397     -530758.172         945.732          46.000                  
                                                
  22519151.131    -1208422.397        2336.462          43.000                  
                                                
  20237954.154      378990.915        -893.781          49.000                  
                                                
  21170249.099      763677.404       -1627.090          45.000                  
                                                
  22132361.274    -1024837.603        2000.240          44.000                  
                                                
  23881492.553     1635991.702       -3279.863          44.000                  
                                                
  24056182.198     1907510.465       -3826.424          42.000                  
                                                
  24314504.241    -1505666.328        3020.229          39.000                  
                                                
 18 10  1  6 28 54.0000000  0  8G16G20G26G21G27G29G31G10
  20550101.965     -531703.972         945.139          46.000                  
                                                
  22518706.600    -1210758.947        2336.750          43.000                  
                                                
  20238124.246      379884.951        -894.160          49.000                  
                                                
  21170558.976      765304.517       -1627.399          45.000                  
                                                
  22131980.786    -1026837.842        2000.351          44.000                  
                                                
  23882116.939     1639271.657       -3280.473          44.000                  
                                                
  24056910.260     1911336.942       -3826.753          42.000                  
                                                
  24313929.819    -1508687.251        3020.676          40.000                  
                                                
 18 10  1  6 28 55.0000000  0  8G16G20G26G21G27G29G31G10
  20549921.940     -532648.535         943.860          46.000                  
                                                
  22518262.012    -1213094.431        2335.353          43.000                  
                                                
  20238294.844      380780.307        -895.924          49.000                  
                                                
  21170868.595      766932.797       -1628.613          45.000                  
                                                
  22131600.270    -1028837.137        1998.763          44.000                  
                                                
  23882741.081     1642552.423       -3281.589          44.000                  
                                                
  24057638.576     1915164.215       -3827.725          42.000                  
                                                
  24313355.031    -1511707.433        3020.569          40.000                  
                                                
 18 10  1  6 28 56.0000000  0  8G16G20G26G21G27G29G31G10
  20549742.626     -533591.711         942.267          46.000                  
                                                
  22517818.362    -1215428.657        2333.911          43.000                  
                                                
  20238465.402      381677.114        -897.384          49.000                  
                                                
  21171178.842      768562.389       -1630.305          45.000                  
                                                
  22131220.397    -1030835.325        1997.321          44.000                  
                                                
  23883365.664     1645834.161       -3281.684          44.000                  
                                                
  24058366.725     1918992.456       -3828.750          42.000                  
                                                
  24312780.779    -1514726.699        3018.551          40.000                  
                                                
 18 10  1  6 28 57.0000000  0  8G16G20G26G21G27G29G31G10
  20549563.308     -534534.750         943.201          46.000                  
                                                
  22517374.721    -1217762.915        2334.277          43.000                  
                                                
  20238635.904      382574.136        -896.660          49.000                  
                                                
  21171488.475      770192.016       -1629.132          45.000                  
                                                
  22130840.056    -1032833.662        1998.445          44.000                  
                                                
  23883990.185     1649115.604       -3281.523          44.000                  
                                                
  24059095.656     1922820.412       -3827.573          42.000                  
                                                
  24312206.684    -1517746.309        3020.218          40.000                  
                                                
 18 10  1  6 28 58.0000000  0  8G16G20G26G21G27G29G31G10
  20549383.815     -535477.808         942.618          46.000                  
                                                
  22516930.805    -1220097.309        2334.401          43.000                  
                                                
  20238806.964      383471.231        -897.197          49.000                  
                                                
  21171798.936      771821.575       -1629.524          45.000                  
                                                
  22130459.694    -1034832.276        1998.424          44.000                  
                                                
  23884614.462     1652396.622       -3280.579          44.000                  
                                                
  24059824.119     1926647.919       -3827.540          42.000                  
                                                
  24311631.503    -1520766.378        3019.772          40.000                  
                                                
 18 10  1  6 28 59.0000000  0  8G16G20G26G21G27G29G31G10
  20549204.470     -536419.906         941.776          46.000                  
                                                
  22516486.391    -1222430.899        2332.547          43.000                  
                                                
  20238977.893      384369.354        -899.113          49.000                  
                                                
  21172109.318      773452.006       -1631.324          45.000                  
                                                
  22130079.323    -1036830.237        1997.309          44.000                  
                                                
  23885239.154     1655678.165       -3282.490          44.000                  
                                                
  24060552.474     1930475.969       -3828.378          42.000                  
                                                
  24311057.120    -1523785.968        3019.792          40.000                  
                                                
 18 10  1  6 29  0.0000000  0  8G16G20G26G21G27G29G31G10
  20549025.575     -537360.583         939.867          46.000                  
                                                
  22516042.034    -1224763.202        2331.353          43.000                  
                                                
  20239148.962      385268.980        -900.412          49.000                  
                                                
  21172419.976      775083.796       -1632.288          45.000                  
                                                
  22129699.950    -1038827.018        1996.017          44.000                  
                                                
  23885864.046     1658960.704       -3283.002          44.000                  
                                                
  24061280.890     1934305.015       -3829.417          42.000                  
                                                
  24310482.555    -1526804.596        3018.165          40.000                  
                                                
 18 10  1  6 29  1.0000000  0  8G16G20G26G21G27G29G31G10
  20548846.348     -538300.843         940.135          46.000                  
                                                
  22515598.454    -1227095.198        2332.182          43.000                  
                                                
  20239320.280      386169.146        -900.687          49.000                  
                                                
  21172730.743      776715.959       -1632.211          45.000                  
                                                
  22129319.924    -1040823.662        1996.085          44.000                  
                                                
  23886488.733     1662243.263       -3282.933          44.000                  
                                                
  24062009.829     1938134.086       -3829.515          42.000                  
                                                
  24309908.159    -1529823.241        3018.302          40.000                  
                                                
 18 10  1  6 29  2.0000000  0  8G16G20G26G21G27G29G31G10
  20548667.806     -539241.240         939.788          46.000                  
                                                
  22515155.005    -1229427.472        2331.598          43.000                  
                                                
  20239491.724      387069.254        -900.455          49.000                  
                                                
  21173041.130      778347.902       -1631.978          45.000                  
                                                
  22128940.133    -1042820.689        1997.092          44.000                  
                                                
  23887113.360     1665525.278       -3281.955          44.000                  
                                                
  24062738.568     1941962.605       -3828.568          42.000                  
                                                
  24309332.930    -1532842.479        3019.366          40.000                  
                                                
 18 10  1  6 29  3.0000000  0  8G16G20G26G21G27G29G31G10
  20548488.605     -540180.944         938.741          46.000                  
                                                
  22514710.971    -1231759.207        2331.110          43.000                  
                                                
  20239663.421      387970.127        -901.659          49.000                  
                                                
  21173351.407      779980.470       -1633.460          45.000                  
                                                
  22128560.325    -1044817.334        1996.149          44.000                  
                                                
  23887738.173     1668807.540       -3282.806          45.000                  
                                                
  24063466.992     1945791.394       -3829.237          42.000                  
                                                
  24308757.980    -1535861.501        3018.912          39.000                  
                                                
 18 10  1  6 29  4.0000000  0  8G16G20G26G21G27G29G31G10
  20548309.963     -541119.668         938.305          46.000                  
                                                
  22514266.833    -1234090.109        2330.936          43.000                  
                                                
  20239834.734      388872.054        -902.431          49.000                  
                                                
  21173662.510      781613.920       -1633.875          45.000                  
                                                
  22128180.617    -1046813.267        1995.445          44.000                  
                                                
  23888362.625     1672090.356       -3282.740          44.000                  
                                                
  24064195.949     1949620.736       -3829.611          42.000                  
                                                
  24308183.104    -1538879.993        3018.681          39.000                  
                                                
 18 10  1  6 29  5.0000000  0  8G16G20G26G21G27G29G31G10
  20548131.229     -542057.857         938.888          46.000                  
                                                
  22513823.148    -1236420.598        2331.061          43.000                  
                                                
  20240006.514      389774.598        -902.196          49.000                  
                                                
  21173972.914      783247.843       -1633.106          45.000                  
                                                
  22127800.342    -1048808.956        1996.594          44.000                  
                                                
  23888986.466     1675373.296       -3282.334          45.000                  
                                                
  24064924.360     1953450.176       -3829.153          42.000                  
                                                
  24307608.408    -1541898.450        3019.604          39.000                  
                                                
 18 10  1  6 29  6.0000000  0  8G16G20G26G21G27G29G31G10
  20547953.106     -542996.062         938.607          46.000                  
                                                
  22513379.572    -1238751.247        2331.404          43.000                  
                                                
  20240178.342      390677.210        -902.150          49.000                  
                                                
  21174283.808      784881.694       -1633.385          45.000                  
                                                
  22127420.904    -1050804.916        1996.614          44.000                  
                                                
  23889612.126     1678655.793       -3281.683          44.000                  
                                                
  24065652.985     1957279.232       -3827.392          42.000                  
                                                
  24307033.707    -1544917.365        3019.444          39.000                  
                                                
 18 10  1  6 29  7.0000000  0  8G16G20G26G21G27G29G31G10
  20547774.673     -543934.474         937.764          46.000                  
                                                
  22512936.563    -1241082.270        2330.422          43.000                  
                                                
  20240349.808      391579.690        -902.778          49.000                  
                                                
  21174595.150      786515.244       -1633.903          45.000                  
                                                
  22127041.266    -1052801.385        1996.263          44.000                  
                                                
  23890236.866     1681937.660       -3282.031          44.000                  
                                                
  24066381.436     1961107.602       -3829.118          42.000                  
                                                
  24306459.477    -1547936.949        3019.383          39.000                  
                                                
 18 10  1  6 29  8.0000000  0  8G16G20G26G21G27G29G31G10
  20547595.761     -544871.580         936.360          46.000                  
                                                
  22512492.918    -1243412.100        2329.274          43.000                  
                                                
  20240521.801      392483.556        -905.056          49.000                  
                                                
  21174906.719      788150.038       -1635.585          46.000                  
                                                
  22126661.126    -1054796.816        1995.078          44.000                  
                                                
  23890861.152     1685220.375       -3283.369          44.000                  
                                                
  24067110.558     1964936.868       -3829.281          42.000                  
                                                
  24305884.549    -1550955.698        3018.278          39.000                  
                                                
 18 10  1  6 29  9.0000000  0  8G16G20G26G21G27G29G31G10
  20547417.768     -545807.546         935.583          46.000                  
                                                
  22512049.412    -1245740.940        2329.497          43.000                  
                                                
  20240693.974      393388.637        -904.854          49.000                  
                                                
  21175218.206      789785.906       -1635.129          46.000                  
                                                
  22126282.064    -1056791.381        1995.214          44.000                  
                                                
  23891485.773     1688503.849       -3282.927          44.000                  
                                                
  24067839.454     1968766.859       -3829.272          42.000                  
                                                
  24305309.883    -1553973.770        3018.367          39.000                  
                                                
 18 10  1  6 29 10.0000000  0  8G16G20G26G21G27G29G31G10
  20547239.955     -546743.930         936.822          46.000                  
                                                
  22511606.176    -1248070.349        2329.501          43.000                  
                                                
  20240865.981      394293.370        -904.806          49.000                  
                                                
  21175529.007      791421.245       -1635.258          46.000                  
                                                
  22125902.133    -1058786.675        1995.137          44.000                  
                                                
  23892110.317     1691786.446       -3282.361          44.000                  
                                                
  24068568.345     1972595.993       -3828.747          42.000                  
                                                
  24304735.657    -1556992.745        3019.055          39.000                  
                                                
 18 10  1  6 29 11.0000000  0  8G16G20G26G21G27G29G31G10
  20547061.989     -547680.501         936.096          46.000                  
                                                
  22511162.871    -1250400.073        2329.862          43.000                  
                                                
  20241038.297      395198.009        -905.442          49.000                  
                                                
  21175840.018      793056.340       -1635.718          46.000                  
                                                
  22125522.556    -1060782.412        1995.019          44.000                  
                                                
  23892735.008     1695068.461       -3282.519          44.000                  
                                                
  24069297.193     1976424.512       -3828.732          43.000                  
                                                
  24304161.148    -1560012.359        3019.391          39.000                  
                                                
 18 10  1  6 29 12.0000000  0  8G16G20G26G21G27G29G31G10
  20546884.045     -548615.556         934.047          46.000                  
                                                
  22510719.714    -1252728.433        2327.137          43.000                  
                                                
  20241210.862      396104.235        -906.963          48.000                  
                                                
  21176151.051      794692.869       -1637.462          46.000                  
                                                
  22125142.569    -1062776.916        1993.484          44.000                  
                                                
  23893359.355     1698351.558       -3283.420          44.000                  
                                                
  24070025.805     1980254.134       -3829.973          43.000                  
                                                
  24303586.468    -1563030.923        3017.761          39.000                  
                                                
 18 10  1  6 29 13.0000000  0  8G16G20G26G21G27G29G31G10
  20546705.882     -549549.254         933.343          46.000                  
                                                
  22510277.263    -1255055.560        2327.444          43.000                  
                                                
  20241383.375      397011.908        -907.868          48.000                  
                                                
  21176462.576      796330.687       -1637.774          45.000                  
                                                
  22124763.066    -1064770.319        1993.510          44.000                  
                                                
  23893984.217     1701635.595       -3283.635          44.000                  
                                                
  24070754.678     1984084.693       -3830.146          43.000                  
                                                
  24303012.950    -1566048.582        3017.802          39.000                  
                                                
 18 10  1  6 29 14.0000000  0  8G16G20G26G21G27G29G31G10
  20546528.030     -550483.033         933.951          46.000                  
                                                
  22509834.516    -1257382.907        2327.014          43.000                  
                                                
  20241555.901      397919.582        -907.654          48.000                  
                                                
  21176774.543      797968.348       -1637.741          45.000                  
                                                
  22124383.436    -1066764.115        1993.668          44.000                  
                                                
  23894608.944     1704919.116       -3283.513          44.000                  
                                                
  24071483.164     1987914.732       -3830.280          43.000                  
                                                
  24302438.078    -1569066.800        3018.661          39.000                  
                                                
 18 10  1  6 29 15.0000000  0  8G16G20G26G21G27G29G31G10
  20546350.404     -551417.012         934.084          46.000                  
                                                
  22509391.626    -1259710.604        2327.890          43.000                  
                                                
  20241728.889      398827.133        -907.414          48.000                  
                                                
  21177086.635      799605.743       -1637.181          45.000                  
                                                
  22124003.798    -1068758.369        1994.283          44.000                  
                                                
  23895233.199     1708202.037       -3282.338          44.000                  
                                                
  24072212.797     1991744.176       -3828.998          43.000                  
                                                
  24301863.150    -1572085.672        3018.875          38.000                  
                                                
 18 10  1  6 29 16.0000000  0  8G16G20G26G21G27G29G31G10
  20546173.079     -552349.897         932.383          46.000                  
                                                
  22508948.948    -1262037.340        2326.258          43.000                  
                                                
  20241901.668      399735.852        -909.144          49.000                  
                                                
  21177397.799      801244.150       -1638.526          45.000                  
                                                
  22123625.098    -1070751.811        1992.531          44.000                  
                                                
  23895858.362     1711485.597       -3284.159          44.000                  
                                                
  24072941.863     1995574.270       -3830.276          43.000                  
                                                
  24301288.698    -1575103.918        3016.760          38.000                  
                                                
 18 10  1  6 29 17.0000000  0  8G16G20G26G21G27G29G31G10
  20545995.187     -553281.296         930.677          46.000                  
                                                
  22508506.084    -1264362.729        2324.694          43.000                  
                                                
  20242074.831      400646.135        -910.812          48.000                  
                                                
  21177709.896      802883.961       -1640.113          45.000                  
                                                
  22123245.551    -1072744.036        1991.660          43.000                  
                                                
  23896483.433     1714770.225       -3285.059          44.000                  
                                                
  24073670.601     1999405.429       -3831.356          43.000                  
                                                
  24300714.861    -1578121.136        3016.977          38.000                  
                                                
 18 10  1  6 29 18.0000000  0  8G16G20G26G21G27G29G31G10
  20545818.029     -554212.328         931.490          46.000                  
                                                
  22508063.948    -1266687.898        2325.157          43.000                  
                                                
  20242248.164      401556.867        -910.299          49.000                  
                                                
  21178022.024      804524.063       -1639.870          45.000                  
                                                
  22122866.018    -1074736.183        1992.545          43.000                  
                                                
  23897107.575     1718054.796       -3283.895          44.000                  
                                                
  24074399.645     2003236.532       -3831.408          43.000                  
                                                
  24300140.548    -1581138.455        3018.091          38.000                  
                                                
 18 10  1  6 29 19.0000000  0  8G16G20G26G21G27G29G31G10
  20545641.136     -555143.288         930.829          46.000                  
                                                
  22507621.375    -1269013.141        2325.117          43.000                  
                                                
  20242421.428      402467.734        -911.269          49.000                  
                                                
  21178334.112      806164.146       -1640.685          45.000                  
                                                
  22122486.907    -1076728.539        1992.120          44.000                  
                                                
  23897732.655     1721338.990       -3284.475          44.000                  
                                                
  24075128.689     2007067.267       -3831.173          43.000                  
                                                
  24299566.261    -1584156.191        3017.003          39.000                  
                                                
 18 10  1  6 29 20.0000000  0  8G16G20G26G21G27G29G31G10
  20545463.855     -556073.365         929.518          46.000                  
                                                
  22507179.331    -1271337.612        2324.042          43.000                  
                                                
  20242594.905      403379.594        -912.445          49.000                  
                                                
  21178646.157      807805.082       -1641.778          45.000                  
                                                
  22122108.198    -1078720.271        1991.750          44.000                  
                                                
  23898358.258     1724623.675       -3285.174          44.000                  
                                                
  24075857.497     2010898.479       -3831.480          43.000                  
                                                
  24298992.646    -1587173.464        3016.846          39.000                  
                                                
 18 10  1  6 29 21.0000000  0  8G16G20G26G21G27G29G31G10
  20545287.258     -557002.556         928.451          46.000                  
                                                
  22506737.142    -1273661.361        2323.096          43.000                  
                                                
  20242768.844      404292.407        -913.278          49.000                  
                                                
  21178958.965      809446.796       -1642.337          45.000                  
                                                
  22121729.053    -1080711.419        1990.638          44.000                  
                                                
  23898983.499     1727908.813       -3285.394          44.000                  
                                                
  24076586.598     2014730.157       -3831.869          43.000                  
                                                
  24298417.915    -1590190.341        3016.218          39.000                  
                                                
 18 10  1  6 29 22.0000000  0  8G16G20G26G21G27G29G31G10
  20545110.169     -557931.315         929.627          46.000                  
                                                
  22506294.775    -1275984.815        2323.697          43.000                  
                                                
  20242942.687      405205.732        -912.995          49.000                  
                                                
  21179271.385      811088.877       -1641.401          45.000                  
                                                
  22121350.235    -1082702.408        1991.746          44.000                  
                                                
  23899608.296     1731193.946       -3284.088          44.000                  
                                                
  24077316.331     2018561.824       -3831.321          43.000                  
                                                
  24297843.440    -1593207.239        3017.389          39.000                  
                                                
 18 10  1  6 29 23.0000000  0  8G16G20G26G21G27G29G31G10
  20544933.385     -558860.339         928.665          46.000                  
                                                
  22505852.944    -1278308.677        2324.102          43.000                  
                                                
  20243116.252      406118.868        -912.861          49.000                  
                                                
  21179583.823      812730.616       -1641.450          45.000                  
                                                
  22120971.679    -1084693.931        1991.795          44.000                  
                                                
  23900233.502     1734478.398       -3283.910          44.000                  
                                                
  24078045.009     2022392.812       -3830.626          42.000                  
                                                
  24297269.359    -1596224.858        3018.300          39.000                  
                                                
 18 10  1  6 29 24.0000000  0  8G16G20G26G21G27G29G31G10
  20544757.086     -559788.804         927.523          46.000                  
                                                
  22505410.847    -1280632.091        2323.499          43.000                  
                                                
  20243290.060      407032.660        -914.018          49.000                  
                                                
  21179896.151      814372.853       -1641.796          45.000                  
                                                
  22120593.013    -1086685.176        1990.645          44.000                  
                                                
  23900858.979     1737762.992       -3284.343          44.000                  
                                                
  24078773.503     2026223.947       -3831.221          42.000                  
                                                
  24296695.940    -1599242.395        3017.520          39.000                  
                                                
 18 10  1  6 29 25.0000000  0  8G16G20G26G21G27G29G31G10
  20544580.097     -560716.465         927.636          46.000                  
                                                
  22504968.501    -1282954.885        2322.500          43.000                  
                                                
  20243464.161      407947.293        -914.844          49.000                  
                                                
  21180208.636      816015.768       -1642.835          45.000                  
                                                
  22120213.467    -1088675.910        1991.128          44.000                  
                                                
  23901484.002     1741047.930       -3285.108          44.000                  
                                                
  24079502.381     2030055.431       -3831.731          42.000                  
                                                
  24296122.173    -1602259.598        3017.902          39.000                  
                                                
 18 10  1  6 29 26.0000000  0  8G16G20G26G21G27G29G31G10
  20544403.645     -561643.568         927.689          46.000                  
                                                
  22504526.806    -1285277.225        2323.372          43.000                  
                                                
  20243638.502      408862.603        -914.586          49.000                  
                                                
  21180521.541      817659.204       -1643.237          45.000                  
                                                
  22119835.011    -1090666.349        1991.255          44.000                  
                                                
  23902108.698     1744333.040       -3284.423          44.000                  
                                                
  24080231.455     2033887.068       -3831.247          42.000                  
                                                
  24295547.938    -1605276.703        3018.684          39.000                  
                                                
 18 10  1  6 29 27.0000000  0  8G16G20G26G21G27G29G31G10
  20544227.760     -562570.604         927.233          46.000                  
                                                
  22504084.827    -1287599.657        2322.395          43.000                  
                                                
  20243812.297      409778.052        -915.298          49.000                  
                                                
  21180834.074      819302.629       -1643.200          45.000                  
                                                
  22119456.289    -1092657.006        1990.834          44.000                  
                                                
  23902734.489     1747617.787       -3284.555          44.000                  
                                                
  24080960.456     2037718.342       -3830.450          42.000                  
                                                
  24294973.451    -1608294.203        3018.349          39.000                  
                                                
 18 10  1  6 29 28.0000000  0  8G16G20G26G21G27G29G31G10
  20544051.434     -563497.363         926.468          46.000                  
                                                
  22503642.887    -1289921.939        2322.019          43.000                  
                                                
  20243986.642      410693.850        -916.142          49.000                  
                                                
  21181146.764      820946.241       -1643.945          45.000                  
                                                
  22119078.321    -1094647.650        1990.312          44.000                  
                                                
  23903358.980     1750902.372       -3285.028          44.000                  
                                                
  24081689.748     2041549.468       -3831.141          42.000                  
                                                
  24294399.465    -1611311.905        3017.602          39.000                  
                                                
 18 10  1  6 29 29.0000000  0  8G16G20G26G21G27G29G31G10
  20543874.646     -564423.263         925.501          46.000                  
                                                
  22503200.563    -1292243.514        2321.491          43.000                  
                                                
  20244161.480      411610.598        -917.382          49.000                  
                                                
  21181459.712      822590.644       -1644.589          46.000                  
                                                
  22118699.442    -1096637.740        1989.963          44.000                  
                                                
  23903984.182     1754187.400       -3284.668          44.000                  
                                                
  24082418.923     2045381.031       -3832.222          42.000                  
                                                
  24293825.755    -1614329.187        3016.829          39.000                  
                                                
 18 10  1  6 29 30.0000000  0  8G16G20G26G21G27G29G31G10
  20543698.643     -565348.597         925.264          46.000                  
                                                
  22502758.846    -1294564.653        2320.917          43.000                  
                                                
  20244335.686      412527.983        -917.394          49.000                  
                                                
  21181772.717      824235.528       -1645.072          45.000                  
                                                
  22118320.986    -1098627.527        1989.252          44.000                  
                                                
  23904609.724     1757472.557       -3285.103          44.000                  
                                                
  24083147.387     2049212.707       -3831.497          42.000                  
                                                
  24293251.464    -1617346.371        3017.021          39.000                  
                                                
 18 10  1  6 29 31.0000000  0  8G16G20G26G21G27G29G31G10
  20543522.862     -566273.793         925.573          46.000                  
                                                
  22502317.368    -1296885.811        2321.851          43.000                  
                                                
  20244510.397      413445.572        -917.316          49.000                  
                                                
  21182085.909      825880.461       -1644.517          45.000                  
                                                
  22117942.426    -1100617.477        1990.697          44.000                  
                                                
  23905234.665     1760757.424       -3284.588          44.000                  
                                                
  24083877.063     2053044.115       -3831.081          42.000                  
                                                
  24292677.351    -1620363.912        3018.143          39.000                  
                                                
 18 10  1  6 29 32.0000000  0  8G16G20G26G21G27G29G31G10
  20543346.694     -567198.864         924.659          46.000                  
                                                
  22501875.298    -1299206.964        2320.966          43.000                  
                                                
  20244685.345      414363.378        -918.271          49.000                  
                                                
  21182399.014      827525.460       -1645.634          45.000                  
                                                
  22117563.734    -1102607.557        1989.349          44.000                  
                                                
  23905859.906     1764042.004       -3284.757          43.000                  
                                                
  24084606.133     2056875.202       -3832.199          42.000                  
                                                
  24292102.733    -1623381.742        3017.336          39.000                  
                                                
 18 10  1  6 29 33.0000000  0  8G16G20G26G21G27G29G31G10
  20543171.267     -568122.872         923.641          46.000                  
                                                
  22501433.986    -1301527.199        2320.206          43.000                  
                                                
  20244859.493      415282.318        -919.190          49.000                  
                                                
  21182712.053      829171.445       -1646.433          46.000                  
                                                
  22117185.348    -1104596.861        1989.225          44.000                  
                                                
  23906484.877     1767327.190       -3285.087          43.000                  
                                                
  24085334.933     2060706.948       -3831.521          42.000                  
                                                
  24291528.529    -1626398.981        3017.869          39.000                  
                                                
 18 10  1  6 29 34.0000000  0  8G16G20G26G21G27G29G31G10
  20542995.268     -569046.206         922.761          46.000                  
                                                
  22500992.805    -1303846.900        2319.249          43.000                  
                                                
  20245035.126      416202.016        -920.110          49.000                  
                                                
  21183025.551      830818.027       -1647.171          45.000                  
                                                
  22116806.870    -1106585.768        1988.862          44.000                  
                                                
  23907110.127     1770612.662       -3285.615          44.000                  
                                                
  24086063.881     2064538.947       -3831.935          42.000                  
                                                
  24290954.832    -1629416.054        3016.916          39.000                  
                                                
 18 10  1  6 29 35.0000000  0  8G16G20G26G21G27G29G31G10
  20542819.597     -569969.232         922.478          46.000                  
                                                
  22500551.472    -1306166.427        2319.440          43.000                  
                                                
  20245209.951      417122.105        -920.462          49.000                  
                                                
  21183339.205      832464.853       -1647.048          45.000                  
                                                
  22116427.738    -1108574.648        1988.375          44.000                  
                                                
  23907735.499     1773897.995       -3285.894          44.000                  
                                                
  24086792.790     2068370.826       -3831.787          42.000                  
                                                
  24290381.112    -1632433.247        3016.594          39.000                  
                                                
 18 10  1  6 29 36.0000000  0  8G16G20G26G21G27G29G31G10
  20542643.816     -570892.077         922.505          46.000                  
                                                
  22500109.999    -1308485.914        2319.380          43.000                  
                                                
  20245385.207      418042.455        -920.497          49.000                  
                                                
  21183652.450      834111.765       -1647.290          46.000                  
                                                
  22116049.121    -1110563.611        1989.072          44.000                  
                                                
  23908360.788     1777183.081       -3286.076          44.000                  
                                                
  24087521.978     2072202.435       -3831.381          42.000                  
                                                
  24289806.699    -1635450.718        3017.204          39.000                  
                                                
 18 10  1  6 29 37.0000000  0  8G16G20G26G21G27G29G31G10
  20542468.734     -571814.259         922.077          46.000                  
                                                
  22499668.931    -1310804.881        2318.517          43.000                  
                                                
  20245560.456      418963.536        -921.499          49.000                  
                                                
  21183965.856      835759.257       -1647.786          46.000                  
                                                
  22115670.861    -1112552.213        1988.188          44.000                  
                                                
  23908986.043     1780468.419       -3285.756          44.000                  
                                                
  24088251.279     2076034.310       -3831.378          42.000                  
                                                
  24289232.478    -1638468.002        3017.711          39.000                  
                                                
 18 10  1  6 29 38.0000000  0  8G16G20G26G21G27G29G31G10
  20542293.255     -572735.672         920.959          46.000                  
                                                
  22499227.908    -1313123.222        2317.401          43.000                  
                                                
  20245735.983      419885.467        -922.452          49.000                  
                                                
  21184279.803      837407.456       -1648.642          45.000                  
                                                
  22115292.580    -1114540.316        1987.482          44.000                  
                                                
  23909610.817     1783754.092       -3285.592          44.000                  
                                                
  24088980.480     2079866.493       -3832.948          42.000                  
                                                
  24288658.200    -1641484.990        3016.004          39.000                  
                                                
 18 10  1  6 29 39.0000000  0  8G16G20G26G21G27G29G31G10
  20542117.919     -573656.486         921.231          46.000                  
                                                
  22498786.605    -1315441.075        2318.451          43.000                  
                                                
  20245911.419      420808.082        -922.319          49.000                  
                                                
  21184593.418      839056.189       -1648.494          46.000                  
                                                
  22114914.036    -1116528.089        1987.892          44.000                  
                                                
  23910236.652     1787039.921       -3285.830          44.000                  
                                                
  24089709.611     2083698.874       -3831.951          42.000                  
                                                
  24288083.939    -1644501.810        3017.912          39.000                  
                                                
 18 10  1  6 29 40.0000000  0  8G16G20G26G21G27G29G31G10
  20541942.885     -574577.165         921.089          46.000                  
                                                
  22498346.174    -1317758.952        2317.888          43.000                  
                                                
  20246086.789      421730.903        -922.838          49.000                  
                                                
  21184906.750      840704.965       -1648.549          46.000                  
                                                
  22114535.515    -1118516.012        1988.603          44.000                  
                                                
  23910862.181     1790325.474       -3285.405          44.000                  
                                                
  24090439.213     2087530.964       -3831.354          42.000                  
                                                
  24287509.277    -1647518.972        3017.455          39.000                  
                                                
 18 10  1  6 29 41.0000000  0  8G16G20G26G21G27G29G31G10
  20541767.419     -575497.554         919.804          46.000                  
                                                
  22497904.627    -1320076.661        2318.006          43.000                  
                                                
  20246262.932      422654.106        -923.429          49.000                  
                                                
  21185220.858      842353.955       -1649.250          46.000                  
                                                
  22114157.124    -1120503.930        1987.663          44.000                  
                                                
  23911487.156     1793610.908       -3286.159          44.000                  
                                                
  24091168.707     2091362.896       -3831.913          42.000                  
                                                
  24286935.305    -1650536.276        3017.446          39.000                  
                                                
 18 10  1  6 29 42.0000000  0  8G16G20G26G21G27G29G31G10
  20541592.694     -576417.165         919.364          46.000                  
                                                
  22497463.438    -1322393.760        2315.993          43.000                  
                                                
  20246438.599      423578.157        -924.452          49.000                  
                                                
  21185534.949      844003.655       -1649.536          46.000                  
                                                
  22113778.808    -1122491.351        1986.776          44.000                  
                                                
  23912111.826     1796896.685       -3285.780          44.000                  
                                                
  24091897.393     2095195.204       -3831.555          42.000                  
                                                
  24286360.818    -1653553.328        3017.141          39.000                  
                                                
 18 10  1  6 29 43.0000000  0  8G16G20G26G21G27G29G31G10
  20541418.161     -577336.014         918.951          46.000                  
                                                
  22497022.501    -1324710.216        2316.566          43.000                  
                                                
  20246614.362      424503.049        -925.018          49.000                  
                                                
  21185848.577      845654.014       -1650.864          46.000                  
                                                
  22113400.614    -1124478.270        1987.119          44.000                  
                                                
  23912737.443     1800182.791       -3285.337          43.000                  
                                                
  24092626.851     2099027.813       -3832.331          42.000                  
                                                
  24285787.307    -1656570.029        3017.093          39.000                  
                                                
 18 10  1  6 29 44.0000000  0  8G16G20G26G21G27G29G31G10
  20541243.135     -578254.858         918.825          46.000                  
                                                
  22496581.504    -1327026.801        2316.731          43.000                  
                                                
  20246790.412      425428.033        -924.922          49.000                  
                                                
  21186162.629      847304.321       -1650.332          46.000                  
                                                
  22113022.494    -1126465.477        1987.075          44.000                  
                                                
  23913362.775     1803468.487       -3285.422          43.000                  
                                                
  24093356.419     2102860.022       -3831.721          42.000                  
                                                
  24285213.296    -1659587.183        3017.091          39.000                  
                                                
 18 10  1  6 29 45.0000000  0  8G16G20G26G21G27G29G31G10
  20541068.659     -579173.325         918.437          46.000                  
                                                
  22496140.624    -1329343.158        2315.841          43.000                  
                                                
  20246966.865      426353.477        -925.701          49.000                  
                                                
  21186476.724      848954.927       -1650.703          46.000                  
                                                
  22112644.374    -1128452.582        1986.784          44.000                  
                                                
  23913988.047     1806754.102       -3285.797          43.000                  
                                                
  24094085.742     2106692.160       -3831.625          42.000                  
                                                
  24284638.616    -1662604.444        3017.823          39.000                  
                                                
 18 10  1  6 29 46.0000000  0  8G16G20G26G21G27G29G31G10
  20540893.813     -580091.009         917.538          46.000                  
                                                
  22495700.137    -1331658.876        2315.508          43.000                  
                                                
  20247142.780      427279.761        -926.900          49.000                  
                                                
  21186790.937      850606.210       -1651.983          45.000                  
                                                
  22112266.358    -1130439.195        1986.005          43.000                  
                                                
  23914612.909     1810040.089       -3286.404          43.000                  
                                                
  24094814.773     2110524.649       -3832.849          42.000                  
                                                
  24284064.229    -1665621.393        3016.323          38.000                  
                                                
 18 10  1  6 29 47.0000000  0  8G16G20G26G21G27G29G31G10
  20540719.380     -581007.807         916.614          46.000                  
                                                
  22495260.025    -1333973.825        2315.157          43.000                  
                                                
  20247319.529      428207.032        -927.518          49.000                  
                                                
  21187105.652      852258.324       -1652.011          45.000                  
                                                
  22111888.038    -1132425.186        1985.909          44.000                  
                                                
  23915238.198     1813326.553       -3286.785          43.000                  
                                                
  24095544.196     2114357.620       -3833.488          42.000                  
                                                
  24283489.956    -1668637.902        3016.147          39.000                  
                                                
 18 10  1  6 29 48.0000000  0  8G16G20G26G21G27G29G31G10
  20540544.690     -581924.420         916.521          46.000                  
                                                
  22494819.333    -1336288.729        2314.808          43.000                  
                                                
  20247496.008      429134.560        -927.743          49.000                  
                                                
  21187419.533      853910.552       -1652.346          46.000                  
                                                
  22111509.922    -1134411.266        1986.008          44.000                  
                                                
  23915863.387     1816612.754       -3286.338          43.000                  
                                                
  24096273.550     2118190.348       -3832.646          42.000                  
                                                
  24282915.922    -1671654.689        3018.246          39.000                  
                                                
 18 10  1  6 29 49.0000000  0  8G16G20G26G21G27G29G31G10
  20540370.524     -582840.841         916.296          46.000                  
                                                
  22494378.898    -1338603.605        2315.448          43.000                  
                                                
  20247672.050      430062.347        -928.159          49.000                  
                                                
  21187734.156      855562.872       -1652.341          45.000                  
                                                
  22111132.011    -1136397.453        1985.915          44.000                  
                                                
  23916488.559     1819898.736       -3286.046          43.000                  
                                                
  24097002.615     2122022.834       -3831.808          42.000                  
                                                
  24282341.766    -1674671.737        3017.188          39.000                  
                                                
 18 10  1  6 29 50.0000000  0  8G16G20G26G21G27G29G31G10
  20540196.109     -583756.600         915.396          46.000                  
                                                
  22493938.878    -1340917.936        2313.822          43.000                  
                                                
  20247849.047      430990.888        -929.243          49.000                  
                                                
  21188048.421      857215.781       -1652.912          45.000                  
                                                
  22110754.711    -1138383.239        1985.694          44.000                  
                                                
  23917113.813     1823184.947       -3286.219          43.000                  
                                                
  24097731.843     2125855.538       -3832.856          42.000                  
                                                
  24281767.519    -1677688.607        3016.256          39.000                  
                                                
 18 10  1  6 29 51.0000000  0  8G16G20G26G21G27G29G31G10
  20540021.642     -584671.523         914.734          46.000                  
                                                
  22493498.866    -1343231.577        2313.407          43.000                  
                                                
  20248025.931      431920.338        -929.717          49.000                  
                                                
  21188363.328      858869.454       -1653.925          45.000                  
                                                
  22110377.281    -1140368.482        1985.662          44.000                  
                                                
  23917738.880     1826471.564       -3286.136          43.000                  
                                                
  24098461.532     2129688.648       -3833.219          42.000                  
                                                
  24281193.402    -1680705.073        3016.645          39.000                  
                                                
 18 10  1  6 29 52.0000000  0  8G16G20G26G21G27G29G31G10
  20539848.165     -585585.932         914.558          46.000                  
                                                
  22493058.078    -1345544.831        2313.630          43.000                  
                                                
  20248203.614      432850.368        -930.071          49.000                  
                                                
  21188677.995      860523.565       -1654.062          45.000                  
                                                
  22109999.039    -1142353.506        1985.128          44.000                  
                                                
  23918364.235     1829758.271       -3286.633          43.000                  
                                                
  24099190.912     2133521.863       -3832.842          42.000                  
                                                
  24280619.718    -1683721.523        3016.071          39.000                  
                                                
 18 10  1  6 29 53.0000000  0  8G16G20G26G21G27G29G31G10
  20539673.929     -586500.372         914.472          46.000                  
                                                
  22492617.551    -1347858.279        2313.304          43.000                  
                                                
  20248380.324      433780.455        -930.140          49.000                  
                                                
  21188992.666      862177.543       -1653.997          45.000                  
                                                
  22109621.608    -1144338.815        1985.438          44.000                  
                                                
  23918989.973     1833044.510       -3285.726          43.000                  
                                                
  24099920.270     2137354.592       -3832.412          42.000                  
                                                
  24280044.951    -1686738.442        3016.948          39.000                  
                                                
 18 10  1  6 29 54.0000000  0  8G16G20G26G21G27G29G31G10
  20539500.308     -587414.384         913.765          46.000                  
                                                
  22492177.252    -1350171.409        2313.356          43.000                  
                                                
  20248557.273      434711.059        -930.793          49.000                  
                                                
  21189307.642      863831.893       -1654.954          45.000                  
                                                
  22109243.675    -1146323.969        1984.984          44.000                  
                                                
  23919615.141     1836330.750       -3285.816          43.000                  
                                                
  24100649.755     2141187.348       -3832.513          42.000                  
                                                
  24279471.332    -1689755.404        3016.909          39.000                  
                                                
 18 10  1  6 29 55.0000000  0  8G16G20G26G21G27G29G31G10
  20539325.915     -588327.429         912.710          46.000                  
                                                
  22491737.162    -1352483.728        2312.255          43.000                  
                                                
  20248734.585      435642.673        -932.011          49.000                  
                                                
  21189622.545      865487.115       -1655.437          45.000                  
                                                
  22108865.874    -1148308.467        1984.217          44.000                  
                                                
  23920240.391     1839617.528       -3287.058          43.000                  
                                                
  24101379.209     2145020.610       -3833.505          42.000                  
                                                
  24278897.512    -1692771.883        3016.450          39.000                  
                                                
 18 10  1  6 29 56.0000000  0  8G16G20G26G21G27G29G31G10
  20539152.630     -589239.803         912.749          46.000                  
                                                
  22491297.085    -1354795.514        2311.836          43.000                  
                                                
  20248912.032      436575.060        -932.323          49.000                  
                                                
  21189937.809      867142.933       -1655.557          45.000                  
                                                
  22108488.679    -1150292.563        1984.130          44.000                  
                                                
  23920865.990     1842904.560       -3285.792          43.000                  
                                                
  24102108.789     2148854.130       -3833.056          42.000                  
                                                
  24278323.304    -1695788.151        3015.984          39.000                  
                                                
 18 10  1  6 29 57.0000000  0  8G16G20G26G21G27G29G31G10
  20538979.397     -590151.947         912.298          46.000                  
                                                
  22490857.335    -1357107.223        2311.961          43.000                  
                                                
  20249089.492      437507.750        -932.206          49.000                  
                                                
  21190252.720      868798.882       -1655.384          45.000                  
                                                
  22108111.235    -1152276.707        1984.789          44.000                  
                                                
  23921491.597     1846191.362       -3286.286          43.000                  
                                                
  24102838.186     2152687.446       -3832.957          42.000                  
                                                
  24277749.667    -1698804.621        3017.177          39.000                  
                                                
 18 10  1  6 29 58.0000000  0  8G16G20G26G21G27G29G31G10
  20538805.837     -591063.828         910.992          46.000                  
                                                
  22490417.437    -1359418.786        2311.100          43.000                  
                                                
  20249266.982      438440.778        -933.721          49.000                  
                                                
  21190567.976      870455.028       -1656.727          45.000                  
                                                
  22107733.882    -1154260.881        1983.644          44.000                  
                                                
  23922117.061     1849478.040       -3286.982          43.000                  
                                                
  24103567.505     2156520.588       -3833.610          42.000                  
                                                
  24277176.327    -1701821.302        3016.219          39.000                  
                                                
 18 10  1  6 29 59.0000000  0  8G16G20G26G21G27G29G31G10
  20538632.579     -591974.876         910.654          46.000                  
                                                
  22489978.088    -1361729.676        2310.593          43.000                  
                                                
  20249445.001      439374.708        -934.281          49.000                  
                                                
  21190883.515      872111.901       -1657.202          45.000                  
                                                
  22107356.378    -1156244.496        1983.759          44.000                  
                                                
  23922742.049     1852765.109       -3287.241          43.000                  
                                                
  24104296.754     2160354.122       -3833.610          42.000                  
                                                
  24276602.233    -1704837.629        3016.656          39.000                  
                                                
 18 10  1  6 30  0.0000000  0  8G16G20G26G21G27G29G31G10
  20538459.202     -592885.409         910.510          46.000                  
                                                
  22489538.757    -1364040.174        2310.040          43.000                  
                                                
  20249622.661      440309.255        -934.427          49.000                  
                                                
  21191198.805      873769.250       -1657.153          45.000                  
                                                
  22106979.204    -1158227.865        1983.145          44.000                  
                                                
  23923367.609     1856052.269       -3286.982          43.000                  
                                                
  24105026.732     2164187.761       -3834.023          42.000                  
                                                
  24276027.889    -1707853.893        3015.937          39.000                  
                                                
 18 10  1  6 30  1.0000000  0  8G16G20G26G21G27G29G31G10
  20538285.982     -593795.635         909.943          46.000                  
                                                
  22489098.828    -1366350.482        2310.231          43.000                  
                                                
  20249800.723      441244.174        -935.240          49.000                  
                                                
  21191514.816      875426.809       -1657.825          45.000                  
                                                
  22106601.438    -1160211.215        1983.161          44.000                  
                                                
  23923993.108     1859339.310       -3287.149          43.000                  
                                                
  24105756.308     2168021.271       -3833.444          42.000                  
                                                
  24275454.148    -1710870.297        3017.312          39.000                  
                                                
 18 10  1  6 30  2.0000000  0  8G16G20G26G21G27G29G31G10
  20538112.693     -594705.677         909.428          46.000                  
                                                
  22488659.406    -1368660.773        2310.056          43.000                  
                                                
  20249978.663      442179.355        -935.615          49.000                  
                                                
  21191829.862      877084.468       -1658.356          45.000                  
                                                
  22106223.989    -1162194.654        1983.209          44.000                  
                                                
  23924618.511     1862626.108       -3286.957          43.000                  
                                                
  24106485.077     2171854.520       -3833.466          42.000                  
                                                
  24274880.106    -1713886.972        3016.147          39.000                  
                                                
 18 10  1  6 30  3.0000000  0  8G16G20G26G21G27G29G31G10
  20537939.818     -595614.889         908.575          46.000                  
                                                
  22488219.481    -1370970.373        2309.049          43.000                  
                                                
  20250156.808      443115.441        -936.508          49.000                  
                                                
  21192145.187      878742.871       -1658.702          45.000                  
                                                
  22105846.890    -1164177.556        1982.750          44.000                  
                                                
  23925244.467     1865913.306       -3287.555          43.000                  
                                                
  24107215.150     2175688.183       -3833.928          42.000                  
                                                
  24274306.098    -1716903.313        3016.232          39.000                  
                                                
 18 10  1  6 30  4.0000000  0  8G16G20G26G21G27G29G31G10
  20537766.812     -596523.180         908.146          46.000                  
                                                
  22487780.211    -1373279.165        2308.266          43.000                  
                                                
  20250335.036      444052.536        -937.329          49.000                  
                                                
  21192461.320      880402.141       -1659.763          45.000                  
                                                
  22105469.272    -1166159.793        1982.379          44.000                  
                                                
  23925870.250     1869201.009       -3287.671          43.000                  
                                                
  24107945.054     2179522.336       -3834.649          42.000                  
                                                
  24273732.374    -1719919.154        3015.817          39.000                  
                                                
 18 10  1  6 30  5.0000000  0  8G16G20G26G21G27G29G31G10
  20537593.715     -597431.070         907.468          46.000                  
                                                
  22487340.963    -1375587.708        2307.603          43.000                  
                                                
  20250513.530      444990.101        -938.180          49.000                  
                                                
  21192777.348      882061.717       -1660.038          45.000                  
                                                
  22105091.893    -1168141.922        1981.667          44.000                  
                                                
  23926495.818     1872488.679       -3287.583          43.000                  
                                                
  24108674.399     2183356.457       -3834.341          42.000                  
                                                
  24273158.930    -1722935.101        3015.279          39.000                  
                                                
 18 10  1  6 30  6.0000000  0  8G16G20G26G21G27G29G31G10
  20537421.202     -598338.661         907.570          46.000                  
                                                
  22486901.584    -1377896.077        2308.527          43.000                  
                                                
  20250692.242      445928.056        -938.022          49.000                  
                                                
  21193093.026      883721.499       -1660.347          46.000                  
                                                
  22104714.524    -1170124.031        1982.184          44.000                  
                                                
  23927121.339     1875776.225       -3287.596          43.000                  
                                                
  24109403.748     2187190.439       -3834.451          42.000                  
                                                
  24272585.376    -1725951.165        3015.854          39.000                  
                                                
 18 10  1  6 30  7.0000000  0  8G16G20G26G21G27G29G31G10
  20537248.436     -599245.578         906.278          46.000                  
                                                
  22486461.983    -1380203.934        2307.174          43.000                  
                                                
  20250870.723      446866.737        -939.407          49.000                  
                                                
  21193408.854      885381.894       -1661.365          45.000                  
                                                
  22104337.368    -1172105.755        1981.513          44.000                  
                                                
  23927746.863     1879063.996       -3287.885          43.000                  
                                                
  24110133.084     2191024.641       -3834.706          42.000                  
                                                
  24272011.608    -1728967.039        3015.527          40.000                  
                                                
 18 10  1  6 30  8.0000000  0  8G16G20G26G21G27G29G31G10
  20537076.002     -600151.800         905.624          46.000                  
                                                
  22486023.040    -1382511.210        2307.443          43.000                  
                                                
  20251049.374      447806.196        -940.275          49.000                  
                                                
  21193724.929      887042.886       -1661.677          46.000                  
                                                
  22103960.229    -1174087.055        1980.883          44.000                  
                                                
  23928373.069     1882352.028       -3288.117          43.000                  
                                                
  24110862.368     2194859.129       -3834.886          42.000                  
                                                
  24271437.828    -1731982.689        3015.165          39.000                  
                                                
 18 10  1  6 30  9.0000000  0  8G16G20G26G21G27G29G31G10
  20536903.419     -601057.412         905.406          46.000                  
                                                
  22485583.962    -1384818.042        2306.513          43.000                  
                                                
  20251228.217      448746.359        -940.066          49.000                  
                                                
  21194041.280      888704.423       -1661.186          46.000                  
                                                
  22103583.562    -1176068.025        1981.566          44.000                  
                                                
  23928998.921     1885640.261       -3287.909          43.000                  
                                                
  24111592.459     2198693.789       -3834.580          42.000                  
                                                
  24270863.702    -1734998.180        3015.464          40.000                  
                                                
 18 10  1  6 30 10.0000000  0  8G16G20G26G21G27G29G31G10
  20536731.307     -601962.933         904.944          46.000                  
                                                
  22485145.421    -1387124.897        2306.923          43.000                  
                                                
  20251407.526      449686.685        -940.369          49.000                  
                                                
  21194357.347      890365.959       -1662.039          46.000                  
                                                
  22103206.362    -1178049.181        1981.455          44.000                  
                                                
  23929624.455     1888928.155       -3287.525          43.000                  
                                                
  24112322.201     2202528.114       -3833.532          42.000                  
                                                
  24270289.542    -1738014.059        3015.071          40.000                  
                                                
 18 10  1  6 30 11.0000000  0  8G16G20G26G21G27G29G31G10
  20536558.969     -602867.977         904.735          46.000                  
                                                
  22484706.002    -1389431.418        2306.701          43.000                  
                                                
  20251586.539      450627.540        -941.087          49.000                  
                                                
  21194673.340      892027.885       -1662.358          46.000                  
                                                
  22102829.333    -1180030.158        1980.653          44.000                  
                                                
  23930249.971     1892216.078       -3287.528          43.000                  
                                                
  24113051.803     2206362.460       -3834.337          42.000                  
                                                
  24269716.115    -1741029.895        3016.180          40.000                  
                                                
 18 10  1  6 30 12.0000000  0  8G16G20G26G21G27G29G31G10
  20536387.071     -603772.172         903.513          46.000                  
                                                
  22484267.221    -1391737.222        2305.815          43.000                  
                                                
  20251765.784      451569.341        -942.424          49.000                  
                                                
  21194989.904      893690.575       -1663.195          46.000                  
                                                
  22102452.317    -1182010.560        1980.155          44.000                  
                                                
  23930875.653     1895504.425       -3288.601          43.000                  
                                                
  24113781.903     2210197.238       -3834.500          42.000                  
                                                
  24269142.203    -1744045.364        3015.702          40.000                  
                                                
 18 10  1  6 30 13.0000000  0  8G16G20G26G21G27G29G31G10
  20536215.549     -604675.729         903.804          46.000                  
                                                
  22483829.142    -1394042.533        2305.363          43.000                  
                                                
  20251945.303      452511.845        -942.519          49.000                  
                                                
  21195306.648      895353.832       -1663.163          46.000                  
                                                
  22102075.806    -1183990.606        1980.009          44.000                  
                                                
  23931501.409     1898792.982       -3288.250          43.000                  
                                                
  24114511.640     2214032.203       -3835.164          42.000                  
                                                
  24268568.907    -1747060.657        3015.430          40.000                  
                                                
 18 10  1  6 30 14.0000000  0  8G16G20G26G21G27G29G31G10
  20536043.010     -605579.113         902.427          46.000                  
                                                
  22483390.609    -1396347.802        2305.048          43.000                  
                                                
  20252124.263      453454.617        -943.512          49.000                  
                                                
  21195623.212      897017.180       -1663.840          46.000                  
                                                
  22101699.065    -1185970.761        1979.524          44.000                  
                                                
  23932127.470     1902081.301       -3288.947          43.000                  
                                                
  24115241.736     2217866.923       -3835.306          42.000                  
                                                
  24267995.397    -1750076.234        3015.166          40.000                  
                                                
 18 10  1  6 30 15.0000000  0  8G16G20G26G21G27G29G31G10
  20535871.304     -606482.126         902.910          46.000                  
                                                
  22482951.915    -1398652.860        2305.122          43.000                  
                                                
  20252303.599      454397.818        -943.531          49.000                  
                                                
  21195939.301      898680.804       -1664.241          46.000                  
                                                
  22101322.345    -1187950.827        1980.132          44.000                  
                                                
  23932753.252     1905369.543       -3288.984          43.000                  
                                                
  24115971.242     2221701.564       -3834.419          42.000                  
                                                
  24267421.939    -1753091.908        3016.059          40.000                  
                                                
 18 10  1  6 30 16.0000000  0  8G16G20G26G21G27G29G31G10
  20535699.655     -607384.485         901.833          46.000                  
                                                
  22482512.767    -1400957.388        2304.247          43.000                  
                                                
  20252483.720      455341.773        -944.250          49.000                  
                                                
  21196256.620      900345.020       -1664.995          46.000                  
                                                
  22100945.586    -1189930.516        1979.736          44.000                  
                                                
  23933379.100     1908658.034       -3288.238          43.000                  
                                                
  24116700.657     2225536.448       -3835.149          42.000                  
                                                
  24266847.879    -1756107.387        3015.099          40.000                  
                                                
 18 10  1  6 30 17.0000000  0  8G16G20G26G21G27G29G31G10
  20535527.866     -608285.982         901.636          46.000                  
                                                
  22482074.749    -1403261.196        2304.053          43.000                  
                                                
  20252663.288      456286.638        -945.107          49.000                  
                                                
  21196573.293      902010.008       -1664.840          46.000                  
                                                
  22100568.989    -1191909.625        1979.383          44.000                  
                                                
  23934005.070     1911946.944       -3288.825          43.000                  
                                                
  24117430.730     2229371.741       -3835.281          42.000                  
                                                
  24266274.020    -1759122.468        3014.841          40.000                  
                                                
 18 10  1  6 30 18.0000000  0  8G16G20G26G21G27G29G31G10
  20535356.462     -609187.178         900.663          46.000                  
                                                
  22481636.356    -1405564.812        2303.428          43.000                  
                                                
  20252842.968      457231.918        -945.577          49.000                  
                                                
  21196889.862      903675.229       -1666.129          46.000                  
                                                
  22100192.527    -1193888.701        1979.093          44.000                  
                                                
  23934630.521     1915235.739       -3288.879          43.000                  
                                                
  24118160.359     2233206.916       -3835.216          42.000                  
                                                
  24265700.035    -1762137.671        3014.838          40.000                  
                                                
 18 10  1  6 30 19.0000000  0  8G16G20G26G21G27G29G31G10
  20535185.415     -610088.140         900.795          46.000                  
                                                
  22481198.033    -1407868.362        2303.085          43.000                  
                                                
  20253022.801      458177.494        -946.022          49.000                  
                                                
  21197206.780      905340.614       -1665.865          46.000                  
                                                
  22099816.221    -1195867.815        1979.306          44.000                  
                                                
  23935256.102     1918524.320       -3288.640          43.000                  
                                                
  24118890.131     2237041.896       -3835.092          42.000                  
                                                
  24265125.848    -1765153.134        3014.636          40.000                  
                                                
 18 10  1  6 30 20.0000000  0  8G16G20G26G21G27G29G31G10
  20535014.280     -610988.358         899.459          46.000                  
                                                
  22480759.701    -1410171.293        2302.609          43.000                  
                                                
  20253202.757      459123.887        -946.832          49.000                  
                                                
  21197523.685      907006.612       -1666.329          46.000                  
                                                
  22099439.628    -1197846.494        1978.374          44.000                  
                                                
  23935882.011     1921813.216       -3289.256          43.000                  
                                                
  24119619.668     2240877.160       -3835.197          42.000                  
                                                
  24264552.207    -1768168.294        3014.579          40.000                  
                                                
 18 10  1  6 30 21.0000000  0  8G16G20G26G21G27G29G31G10
  20534842.902     -611887.723         899.136          46.000                  
                                                
  22480321.408    -1412473.511        2301.859          43.000                  
                                                
  20253383.192      460071.188        -947.661          49.000                  
                                                
  21197840.855      908673.407       -1667.047          46.000                  
                                                
  22099062.808    -1199824.610        1977.555          44.000                  
                                                
  23936508.094     1925102.540       -3289.343          43.000                  
                                                
  24120350.139     2244712.854       -3836.092          42.000                  
                                                
  24263978.640    -1771183.090        3014.927          40.000                  
                                                
 18 10  1  6 30 22.0000000  0  8G16G20G26G21G27G29G31G10
  20534672.020     -612786.792         899.096          46.000                  
                                                
  22479883.399    -1414775.567        2301.771          43.000                  
                                                
  20253563.723      461018.887        -947.985          49.000                  
                                                
  21198158.000      910340.413       -1667.104          46.000                  
                                                
  22098686.603    -1201802.684        1977.652          44.000                  
                                                
  23937134.417     1928391.732       -3288.685          43.000                  
                                                
  24121080.103     2248548.429       -3835.354          42.000                  
                                                
  24263404.668    -1774198.019        3015.509          40.000                  
                                                
 18 10  1  6 30 23.0000000  0  8G16G20G26G21G27G29G31G10
  20534500.454     -613685.490         898.823          46.000                  
                                                
  22479445.534    -1417077.377        2301.590          43.000                  
                                                
  20253744.211      461967.036        -948.376          49.000                  
                                                
  21198475.459      912007.700       -1667.484          45.000                  
                                                
  22098310.137    -1203780.657        1978.007          44.000                  
                                                
  23937760.178     1931680.866       -3288.963          43.000                  
                                                
  24121809.627     2252383.928       -3835.199          42.000                  
                                                
  24262830.922    -1777213.058        3014.867          40.000                  
                                                
 18 10  1  6 30 24.0000000  0  8G16G20G26G21G27G29G31G10
  20534329.608     -614583.625         898.229          46.000                  
                                                
  22479008.192    -1419378.784        2302.021          43.000                  
                                                
  20253924.594      462915.789        -949.370          49.000                  
                                                
  21198792.944      913675.444       -1667.952          46.000                  
                                                
  22097933.831    -1205758.382        1977.524          44.000                  
                                                
  23938386.139     1934970.119       -3288.343          43.000                  
                                                
  24122540.062     2256219.542       -3836.038          42.000                  
                                                
  24262257.128    -1780228.003        3014.597          40.000                  
                                                
 18 10  1  6 30 25.0000000  0  8G16G20G26G21G27G29G31G10
  20534159.028     -615480.944         897.086          46.000                  
                                                
  22478570.035    -1421679.500        2300.401          43.000                  
                                                
  20254105.011      463865.480        -949.712          49.000                  
                                                
  21199110.341      915343.955       -1668.651          45.000                  
                                                
  22097557.500    -1207735.562        1976.784          44.000                  
                                                
  23939012.227     1938259.773       -3289.562          43.000                  
                                                
  24123269.394     2260055.550       -3836.302          42.000                  
                                                
  24261683.156    -1783242.575        3014.742          40.000                  
                                                
 18 10  1  6 30 26.0000000  0  8G16G20G26G21G27G29G31G10
  20533988.452     -616377.701         896.560          46.000                  
                                                
  22478132.418    -1423979.778        2300.175          43.000                  
                                                
  20254286.324      464815.785        -950.247          49.000                  
                                                
  21199427.944      917012.930       -1669.272          45.000                  
                                                
  22097180.946    -1209712.429        1976.578          44.000                  
                                                
  23939638.380     1941549.541       -3289.488          43.000                  
                                                
  24123999.372     2263891.683       -3835.813          42.000                  
                                                
  24261109.467    -1786257.061        3014.417          39.000                  
                                                
 18 10  1  6 30 27.0000000  0  8G16G20G26G21G27G29G31G10
  20533818.081     -617274.247         896.391          46.000                  
                                                
  22477694.788    -1426279.983        2300.958          43.000                  
                                                
  20254467.138      465766.393        -950.762          49.000                  
                                                
  21199745.525      918682.028       -1669.809          45.000                  
                                                
  22096805.016    -1211689.406        1976.880          44.000                  
                                                
  23940264.960     1944839.114       -3289.725          43.000                  
                                                
  24124729.498     2267727.606       -3835.488          42.000                  
                                                
  24260535.682    -1789271.766        3014.583          39.000                  
                                                
 18 10  1  6 30 28.0000000  0  8G16G20G26G21G27G29G31G10
  20533647.291     -618170.317         895.535          46.000                  
                                                
  22477257.386    -1428579.862        2299.358          44.000                  
                                                
  20254648.075      466717.552        -951.309          49.000                  
                                                
  21200062.883      920351.523       -1669.972          45.000                  
                                                
  22096429.313    -1213666.168        1976.492          44.000                  
                                                
  23940890.411     1948128.720       -3289.695          43.000                  
                                                
  24125459.231     2271563.558       -3836.072          42.000                  
                                                
  24259962.032    -1792286.491        3014.689          39.000                  
                                                
 18 10  1  6 30 29.0000000  0  8G16G20G26G21G27G29G31G10
  20533477.256     -619065.576         894.639          46.000                  
                                                
  22476819.778    -1430879.057        2298.899          44.000                  
                                                
  20254829.361      467669.590        -952.688          49.000                  
                                                
  21200380.582      922021.745       -1670.744          45.000                  
                                                
  22096053.021    -1215642.400        1975.664          44.000                  
                                                
  23941516.089     1951418.707       -3290.157          43.000                  
                                                
  24126189.514     2275399.876       -3836.870          42.000                  
                                                
  24259388.029    -1795300.835        3014.799          39.000                  
                                                
 18 10  1  6 30 30.0000000  0  8G16G20G26G21G27G29G31G10
  20533307.173     -619960.107         894.546          46.000                  
                                                
  22476382.070    -1433177.656        2299.111          44.000                  
                                                
  20255010.355      468622.424        -952.872          49.000                  
                                                
  21200699.040      923692.604       -1671.186          45.000                  
                                                
  22095676.650    -1217618.189        1975.907          44.000                  
                                                
  23942141.897     1954708.981       -3290.012          43.000                  
                                                
  24126919.657     2279236.501       -3836.219          42.000                  
                                                
  24258814.340    -1798314.931        3013.629          39.000                  
                                                
 18 10  1  6 30 31.0000000  0  8G16G20G26G21G27G29G31G10
  20533137.269     -620854.365         894.247          46.000                  
                                                
  22475944.488    -1435476.131        2298.802          44.000                  
                                                
  20255191.658      469575.604        -953.336          49.000                  
                                                
  21201016.669      925363.658       -1670.791          45.000                  
                                                
  22095300.746    -1219594.005        1975.673          44.000                  
                                                
  23942768.430     1957999.088       -3290.042          43.000                  
                                                
  24127649.866     2283072.934       -3836.168          42.000                  
                                                
  24258240.852    -1801329.235        3014.043          39.000                  
                                                
 18 10  1  6 30 32.0000000  0  8G16G20G26G21G27G29G31G10
  20532966.750     -621748.360         893.444          46.000                  
                                                
  22475507.456    -1437774.467        2298.018          43.000                  
                                                
  20255373.027      470529.140        -954.291          49.000                  
                                                
  21201334.721      927034.901       -1671.690          45.000                  
                                                
  22094925.061    -1221569.818        1975.576          44.000                  
                                                
  23943394.334     1961289.037       -3290.117          43.000                  
                                                
  24128380.053     2286909.224       -3837.179          42.000                  
                                                
  24257667.459    -1804343.679        3014.783          39.000                  
                                                
 18 10  1  6 30 33.0000000  0  8G16G20G26G21G27G29G31G10
  20532796.938     -622641.569         893.123          46.000                  
                                                
  22475069.948    -1440072.160        2297.897          43.000                  
                                                
  20255554.575      471483.541        -954.370          49.000                  
                                                
  21201653.117      928706.852       -1671.909          45.000                  
                                                
  22094548.803    -1223545.141        1975.087          44.000                  
                                                
  23944020.317     1964579.363       -3290.434          43.000                  
                                                
  24129109.633     2290745.854       -3836.590          42.000                  
                                                
  24257093.666    -1807357.837        3014.358          39.000                  
                                                
 18 10  1  6 30 34.0000000  0  8G16G20G26G21G27G29G31G10
  20532627.038     -623533.933         892.171          46.000                  
                                                
  22474633.030    -1442369.138        2297.040          44.000                  
                                                
  20255736.323      472438.849        -955.529          49.000                  
                                                
  21201971.235      930379.550       -1673.097          46.000                  
                                                
  22094173.340    -1225519.887        1974.976          44.000                  
                                                
  23944646.461     1967870.099       -3290.779          43.000                  
                                                
  24129839.737     2294582.896       -3837.817          42.000                  
                                                
  24256520.060    -1810371.594        3013.590          39.000                  
                                                
 18 10  1  6 30 35.0000000  0  8G16G20G26G21G27G29G31G10
  20532457.138     -624426.032         892.093          46.000                  
                                                
  22474196.316    -1444666.001        2297.082          44.000                  
                                                
  20255918.146      473394.514        -955.591          49.000                  
                                                
  21202289.448      932052.426       -1672.560          46.000                  
                                                
  22093797.445    -1227494.654        1974.914          44.000                  
                                                
  23945272.706     1971160.635       -3289.919          43.000                  
                                                
  24130569.702     2298419.769       -3836.756          42.000                  
                                                
  24255946.305    -1813385.536        3014.714          39.000                  
                                                
 18 10  1  6 30 36.0000000  0  8G16G20G26G21G27G29G31G10
  20532287.077     -625318.092         891.636          46.000                  
                                                
  22473758.687    -1446962.952        2296.917          44.000                  
                                                
  20256100.182      474350.280        -955.697          49.000                  
                                                
  21202607.958      933725.267       -1672.501          46.000                  
                                                
  22093421.249    -1229469.672        1975.015          44.000                  
                                                
  23945898.349     1974450.804       -3290.008          43.000                  
                                                
  24131299.788     2302256.246       -3836.573          42.000                  
                                                
  24255372.442    -1816399.944        3014.047          39.000                  
                                                
 18 10  1  6 30 37.0000000  0  8G16G20G26G21G27G29G31G10
  20532118.142     -626209.350         890.429          46.000                  
                                                
  22473321.864    -1449259.245        2295.385          43.000                  
                                                
  20256282.467      475306.915        -957.356          49.000                  
                                                
  21202926.521      935398.813       -1674.180          46.000                  
                                                
  22093046.030    -1231444.166        1973.938          44.000                  
                                                
  23946525.139     1977741.335       -3291.128          43.000                  
                                                
  24132029.883     2306093.074       -3837.181          42.000                  
                                                
  24254798.849    -1819413.985        3013.070          39.000                  
                                                
 18 10  1  6 30 38.0000000  0  8G16G20G26G21G27G29G31G10
  20531948.425     -627099.732         890.113          46.000                  
                                                
  22472884.736    -1451554.795        2295.092          43.000                  
                                                
  20256464.434      476264.507        -957.625          49.000                  
                                                
  21203245.013      937073.148       -1674.011          46.000                  
                                                
  22092670.593    -1233418.055        1974.351          44.000                  
                                                
  23947150.925     1981032.315       -3290.583          43.000                  
                                                
  24132760.528     2309930.338       -3837.101          42.000                  
                                                
  24254225.072    -1822427.627        3013.324          39.000                  
                                                
 18 10  1  6 30 39.0000000  0  8G16G20G26G21G27G29G31G10
  20531779.416     -627989.970         890.246          46.000                  
                                                
  22472447.953    -1453850.337        2295.731          43.000                  
                                                
  20256647.041      477222.322        -958.098          49.000                  
                                                
  21203563.545      938747.540       -1674.347          46.000                  
                                                
  22092295.038    -1235392.089        1974.399          44.000                  
                                                
  23947777.358     1984322.998       -3290.926          43.000                  
                                                
  24133490.776     2313767.305       -3836.569          42.000                  
                                                
  24253651.379    -1825441.560        3013.409          39.000                  
                                                
 18 10  1  6 30 40.0000000  0  8G16G20G26G21G27G29G31G10
  20531609.891     -628879.751         889.811          46.000                  
                                                
  22472011.196    -1456145.555        2295.660          43.000                  
                                                
  20256829.287      478180.673        -958.387          49.000                  
                                                
  21203882.579      940422.322       -1674.725          46.000                  
                                                
  22091919.413    -1237365.948        1973.987          44.000                  
                                                
  23948403.672     1987613.744       -3290.584          43.000                  
                                                
  24134220.575     2317604.330       -3836.651          42.000                  
                                                
  24253078.231    -1828455.512        3014.324          39.000                  
                                                
 18 10  1  6 30 41.0000000  0  8G16G20G26G21G27G29G31G10
  20531440.188     -629768.896         888.939          46.000                  
                                                
  22471574.159    -1458440.265        2294.653          43.000                  
                                                
  20257012.043      479139.735        -959.287          49.000                  
                                                
  21204201.172      942097.643       -1675.709          46.000                  
                                                
  22091543.998    -1239339.450        1973.002          44.000                  
                                                
  23949030.065     1990904.638       -3291.486          43.000                  
                                                
  24134950.880     2321441.539       -3837.361          42.000                  
                                                
  24252504.450    -1831469.269        3013.868          39.000                  
                                                
 18 10  1  6 30 42.0000000  0  8G16G20G26G21G27G29G31G10
  20531271.435     -630657.141         887.725          46.000                  
                                                
  22471137.424    -1460734.215        2293.571          43.000                  
                                                
  20257194.442      480099.778        -960.624          49.000                  
                                                
  21204520.114      943773.798       -1676.551          46.000                  
                                                
  22091168.605    -1241312.318        1972.531          44.000                  
                                                
  23949655.817     1994196.065       -3291.165          43.000                  
                                                
  24135680.827     2325279.203       -3837.780          42.000                  
                                                
  24251931.110    -1834482.574        3014.311          39.000                  
                                                
 18 10  1  6 30 43.0000000  0  8G16G20G26G21G27G29G31G10
  20531102.570     -631544.991         887.840          46.000                  
                                                
  22470701.299    -1463027.907        2294.200          43.000                  
                                                
  20257377.093      481060.288        -960.380          49.000                  
                                                
  21204839.012      945450.250       -1676.473          46.000                  
                                                
  22090792.858    -1243285.088        1973.232          44.000                  
                                                
  23950282.637     1997487.417       -3290.909          43.000                  
                                                
  24136410.477     2329116.839       -3837.308          42.000                  
                                                
  24251357.387    -1837495.976        3013.453          39.000                  
                                                
 18 10  1  6 30 44.0000000  0  8G16G20G26G21G27G29G31G10
  20530933.582     -632432.769         887.590          46.000                  
                                                
  22470264.870    -1465321.656        2293.687          43.000                  
                                                
  20257559.880      482020.950        -960.284          49.000                  
                                                
  21205158.194      947126.688       -1676.502          46.000                  
                                                
  22090417.887    -1245258.069        1973.037          44.000                  
                                                
  23950909.157     2000778.420       -3290.969          43.000                  
                                                
  24137140.699     2332954.107       -3837.254          42.000                  
                                                
  24250783.663    -1840509.757        3014.216          39.000                  
                                                
 18 10  1  6 30 45.0000000  0  8G16G20G26G21G27G29G31G10
  20530764.786     -633320.118         887.130          46.000                  
                                                
  22469828.514    -1467615.131        2293.296          43.000                  
                                                
  20257742.937      482982.100        -961.717          49.000                  
                                                
  21205477.808      948803.472       -1677.338          46.000                  
                                                
  22090042.865    -1247230.920        1972.381          44.000                  
                                                
  23951535.332     2004069.409       -3290.755          43.000                  
                                                
  24137871.414     2336791.341       -3837.943          42.000                  
                                                
  24250210.663    -1843523.567        3013.354          39.000                  
                                                
 18 10  1  6 30 46.0000000  0  8G16G20G26G21G27G29G31G10
  20530595.824     -634206.569         885.818          46.000                  
                                                
  22469391.831    -1469907.831        2292.081          43.000                  
                                                
  20257926.269      483944.233        -962.657          48.000                  
                                                
  21205796.741      950481.067       -1677.958          46.000                  
                                                
  22089667.812    -1249203.125        1972.063          44.000                  
                                                
  23952161.507     2007360.870       -3291.455          43.000                  
                                                
  24138601.622     2340629.061       -3838.621          42.000                  
                                                
  24249637.336    -1846536.928        3013.187          39.000                  
                                                
 18 10  1  6 30 47.0000000  0  8G16G20G26G21G27G29G31G10
  20530426.936     -635092.293         885.981          46.000                  
                                                
  22468955.798    -1472199.952        2292.050          43.000                  
                                                
  20258109.134      484907.166        -962.816          48.000                  
                                                
  21206116.512      952159.302       -1678.197          46.000                  
                                                
  22089292.156    -1251174.922        1971.892          44.000                  
                                                
  23952787.808     2010652.622       -3291.554          43.000                  
                                                
  24139332.071     2344467.068       -3837.388          42.000                  
                                                
  24249063.577    -1849550.060        3014.347          39.000                  
                                                
 18 10  1  6 30 48.0000000  0  8G16G20G26G21G27G29G31G10
  20530258.904     -635977.944         885.747          46.000                  
                                                
  22468519.935    -1474492.116        2292.436          43.000                  
                                                
  20258292.134      485870.259        -962.989          48.000                  
                                                
  21206435.838      953837.523       -1678.698          46.000                  
                                                
  22088917.012    -1253146.887        1971.838          44.000                  
                                                
  23953414.205     2013944.030       -3291.246          43.000                  
                                                
  24140062.860     2348304.699       -3837.159          42.000                  
                                                
  24248490.067    -1852563.569        3012.790          39.000                  
                                                
 18 10  1  6 30 49.0000000  0  8G16G20G26G21G27G29G31G10
  20530090.121     -636863.041         884.467          46.000                  
                                                
  22468083.954    -1476783.856        2291.458          43.000                  
                                                
  20258475.658      486833.970        -963.902          49.000                  
                                                
  21206755.024      955516.224       -1678.906          46.000                  
                                                
  22088541.797    -1255118.588        1971.624          44.000                  
                                                
  23954040.690     2017235.558       -3291.427          43.000                  
                                                
  24140793.226     2352142.462       -3837.715          42.000                  
                                                
  24247916.849    -1855576.954        3013.352          39.000                  
                                                
 18 10  1  6 30 50.0000000  0  8G16G20G26G21G27G29G31G10
  20529921.770     -637747.472         884.510          46.000                  
                                                
  22467647.795    -1479075.087        2291.518          43.000                  
                                                
  20258659.357      487798.401        -964.804          49.000                  
                                                
  21207074.372      957195.479       -1679.638          46.000                  
                                                
  22088166.177    -1257089.936        1971.360          44.000                  
                                                
  23954666.581     2020527.291       -3291.698          43.000                  
                                                
  24141523.692     2355980.431       -3837.801          42.000                  
                                                
  24247343.570    -1858590.171        3013.123          39.000                  
                                                
 18 10  1  6 30 51.0000000  0  8G16G20G26G21G27G29G31G10
  20529753.236     -638631.292         883.850          46.000                  
                                                
  22467212.142    -1481365.840        2290.684          43.000                  
                                                
  20258843.317      488763.551        -965.375          49.000                  
                                                
  21207394.160      958875.278       -1679.906          46.000                  
                                                
  22087791.233    -1259060.935        1970.746          44.000                  
                                                
  23955293.341     2023819.243       -3291.756          43.000                  
                                                
  24142253.988     2359818.581       -3837.973          42.000                  
                                                
  24246769.624    -1861603.218        3012.635          39.000                  
                                                
 18 10  1  6 30 52.0000000  0  8G16G20G26G21G27G29G31G10
  20529585.387     -639514.787         883.209          46.000                  
                                                
  22466776.266    -1483656.382        2290.167          43.000                  
                                                
  20259026.632      489729.092        -965.726          49.000                  
                                                
  21207713.482      960555.315       -1679.962          46.000                  
                                                
  22087416.254    -1261031.894        1970.739          44.000                  
                                                
  23955919.616     2027111.076       -3291.677          43.000                  
                                                
  24142984.489     2363656.612       -3837.934          42.000                  
                                                
  24246196.162    -1864616.364        3013.371          39.000                  
                                                
 18 10  1  6 30 53.0000000  0  8G16G20G26G21G27G29G31G10
  20529417.777     -640397.916         882.881          46.000                  
                                                
  22466340.835    -1485946.701        2290.308          43.000                  
                                                
  20259210.696      490695.062        -966.304          49.000                  
                                                
  21208033.148      962235.610       -1680.455          46.000                  
                                                
  22087040.760    -1263002.766        1970.818          44.000                  
                                                
  23956546.175     2030402.813       -3291.559          43.000                  
                                                
  24143714.296     2367494.542       -3838.195          42.000                  
                                                
  24245622.874    -1867629.639        3013.594          39.000                  
                                                
 18 10  1  6 30 54.0000000  0  8G16G20G26G21G27G29G31G10
  20529249.143     -641280.287         882.273          46.000                  
                                                
  22465904.906    -1488236.421        2289.457          44.000                  
                                                
  20259394.604      491661.873        -966.880          49.000                  
                                                
  21208353.412      963916.586       -1681.256          46.000                  
                                                
  22086665.462    -1264973.165        1970.311          44.000                  
                                                
  23957172.568     2033694.899       -3291.771          43.000                  
                                                
  24144444.741     2371332.807       -3838.658          42.000                  
                                                
  24245049.329    -1870642.618        3013.583          39.000                  
                                                
 18 10  1  6 30 55.0000000  0  8G16G20G26G21G27G29G31G10
  20529081.197     -642161.922         881.285          46.000                  
                                                
  22465468.812    -1490525.512        2288.808          44.000                  
                                                
  20259579.188      492629.493        -967.978          49.000                  
                                                
  21208673.693      965598.215       -1681.836          46.000                  
                                                
  22086290.924    -1266943.101        1969.812          44.000                  
                                                
  23957798.948     2036987.295       -3292.990          43.000                  
                                                
  24145175.180     2375171.386       -3838.159          42.000                  
                                                
  24244476.377    -1873655.346        3011.818          39.000                  
                                                
 18 10  1  6 30 56.0000000  0  8G16G20G26G21G27G29G31G10
  20528913.863     -643043.115         881.258          46.000                  
                                                
  22465033.381    -1492814.311        2289.030          43.000                  
                                                
  20259763.079      493597.631        -968.028          49.000                  
                                                
  21208993.591      967280.194       -1681.664          46.000                  
                                                
  22085916.150    -1268912.882        1969.973          44.000                  
                                                
  23958425.528     2040279.695       -3292.031          44.000                  
                                                
  24145905.756     2379009.951       -3837.888          42.000                  
                                                
  24243903.517    -1876668.039        3013.540          39.000                  
                                                
 18 10  1  6 30 57.0000000  0  8G16G20G26G21G27G29G31G10
  20528746.227     -643924.122         880.680          46.000                  
                                                
  22464597.868    -1495103.035        2288.539          43.000                  
                                                
  20259947.305      494566.033        -968.626          49.000                  
                                                
  21209312.938      968962.271       -1682.473          46.000                  
                                                
  22085541.298    -1270882.766        1969.801          44.000                  
                                                
  23959052.052     2043571.838       -3292.084          44.000                  
                                                
  24146636.239     2382848.277       -3838.336          42.000                  
                                                
  24243330.840    -1879681.033        3012.854          39.000                  
                                                
 18 10  1  6 30 58.0000000  0  8G16G20G26G21G27G29G31G10
  20528578.980     -644804.575         879.948          46.000                  
                                                
  22464162.821    -1497391.382        2288.313          43.000                  
                                                
  20260131.989      495535.062        -969.997          49.000                  
                                                
  21209633.643      970644.811       -1683.116          46.000                  
                                                
  22085166.336    -1272852.385        1969.023          44.000                  
                                                
  23959678.629     2046864.114       -3292.447          44.000                  
                                                
  24147366.396     2386686.698       -3839.076          42.000                  
                                                
  24242757.610    -1882693.929        3012.540          39.000                  
                                                
 18 10  1  6 30 59.0000000  0  8G16G20G26G21G27G29G31G10
  20528411.545     -645684.218         879.333          46.000                  
                                                
  22463727.268    -1499679.037        2287.313          44.000                  
                                                
  20260316.390      496504.974        -970.168          49.000                  
                                                
  21209954.112      972328.081       -1683.451          46.000                  
                                                
  22084791.431    -1274821.458        1969.468          44.000                  
                                                
  23960305.436     2050156.777       -3292.284          44.000                  
                                                
  24148096.979     2390525.501       -3838.637          42.000                  
                                                
  24242184.531    -1885706.454        3012.601          39.000                  
                                                
 18 10  1  6 31  0.0000000  0  8G16G20G26G21G27G29G31G10
  20528244.211     -646563.393         878.844          46.000                  
                                                
  22463292.042    -1501966.358        2287.098          43.000                  
                                                
  20260501.345      497475.436        -970.938          49.000                  
                                                
  21210274.236      974011.733       -1683.797          45.000                  
                                                
  22084416.513    -1276790.349        1968.644          44.000                  
                                                
  23960931.777     2053449.463       -3292.660          44.000                  
                                                
  24148827.062     2394364.334       -3838.753          42.000                  
                                                
  24241611.575    -1888719.009        3013.016          39.000                  
                                                
 18 10  1  6 31  1.0000000  0  8G16G20G26G21G27G29G31G10
  20528077.038     -647442.322         878.859          46.000                  
                                                
  22462856.414    -1504253.570        2287.359          43.000                  
                                                
  20260686.082      498446.221        -970.958          49.000                  
                                                
  21210594.369      975695.548       -1683.951          45.000                  
                                                
  22084041.687    -1278759.280        1968.905          44.000                  
                                                
  23961558.523     2056741.978       -3292.161          44.000                  
                                                
  24149558.064     2398202.966       -3838.583          42.000                  
                                                
  24241038.309    -1891731.744        3013.980          39.000                  
                                                
 18 10  1  6 31  2.0000000  0  8G16G20G26G21G27G29G31G10
  20527910.000     -648320.920         877.728          46.000                  
                                                
  22462421.171    -1506540.584        2286.259          43.000                  
                                                
  20260870.622      499417.391        -972.082          49.000                  
                                                
  21210914.720      977379.604       -1684.887          45.000                  
                                                
  22083667.310    -1280728.167        1968.008          44.000                  
                                                
  23962184.986     2060034.369       -3293.277          44.000                  
                                                
  24150288.325     2402041.496       -3839.444          42.000                  
                                                
  24240464.747    -1894744.619        3012.599          39.000                  
                                                
 18 10  1  6 31  3.0000000  0  8G16G20G26G21G27G29G31G10
  20527743.337     -649198.536         877.552          46.000                  
                                                
  22461986.150    -1508826.752        2286.155          43.000                  
                                                
  20261055.935      500389.641        -972.705          49.000                  
                                                
  21211235.717      979064.557       -1685.500          45.000                  
                                                
  22083292.449    -1282696.347        1968.545          44.000                  
                                                
  23962811.200     2063327.332       -3292.898          44.000                  
                                                
  24151018.787     2405880.548       -3838.839          42.000                  
                                                
  24239891.407    -1897756.980        3012.050          39.000                  
                                                
 18 10  1  6 31  4.0000000  0  8G16G20G26G21G27G29G31G10
  20527576.038     -650075.566         876.632          46.000                  
                                                
  22461551.413    -1511112.464        2285.730          43.000                  
                                                
  20261241.239      501362.539        -972.947          49.000                  
                                                
  21211556.277      980750.011       -1685.798          45.000                  
                                                
  22082918.621    -1284664.230        1968.281          44.000                  
                                                
  23963438.754     2066620.443       -3293.076          44.000                  
                                                
  24151749.005     2409719.770       -3839.476          42.000                  
                                                
  24239318.337    -1900769.191        3011.827          39.000                  
                                                
 18 10  1  6 31  5.0000000  0  8G16G20G26G21G27G29G31G10
  20527409.135     -650952.239         876.447          46.000                  
                                                
  22461116.383    -1513397.960        2284.865          43.000                  
                                                
  20261426.010      502335.867        -973.614          49.000                  
                                                
  21211877.174      982435.732       -1685.979          45.000                  
                                                
  22082544.441    -1286632.032        1967.844          44.000                  
                                                
  23964065.592     2069913.468       -3293.226          44.000                  
                                                
  24152479.925     2413558.899       -3838.886          42.000                  
                                                
  24238745.054    -1903781.504        3011.649          39.000                  
                                                
 18 10  1  6 31  6.0000000  0  8G16G20G26G21G27G29G31G10
  20527242.075     -651828.387         876.228          46.000                  
                                                
  22460681.938    -1515683.071        2284.710          43.000                  
                                                
  20261611.637      503309.795        -974.342          49.000                  
                                                
  21212198.205      984121.882       -1686.368          46.000                  
                                                
  22082169.920    -1288599.596        1967.658          44.000                  
                                                
  23964692.408     2073206.598       -3293.377          44.000                  
                                                
  24153209.994     2417398.107       -3839.494          42.000                  
                                                
  24238171.688    -1906793.782        3012.618          40.000                  
                                                
 18 10  1  6 31  7.0000000  0  8G16G20G26G21G27G29G31G10
  20527075.596     -652704.038         875.273          46.000                  
                                                
  22460247.014    -1517967.803        2283.853          43.000                  
                                                
  20261796.762      504284.292        -974.881          49.000                  
                                                
  21212519.054      985808.438       -1686.905          45.000                  
                                                
  22081795.691    -1290566.952        1967.269          44.000                  
                                                
  23965319.015     2076499.785       -3293.695          44.000                  
                                                
  24153940.761     2421237.362       -3839.235          42.000                  
                                                
  24237598.352    -1909805.998        3012.185          39.000                  
                                                
 18 10  1  6 31  8.0000000  0  8G16G20G26G21G27G29G31G10
  20526909.103     -653579.070         874.564          46.000                  
                                                
  22459812.250    -1520252.056        2283.963          43.000                  
                                                
  20261982.589      505259.489        -975.613          49.000                  
                                                
  21212839.915      987495.522       -1687.447          45.000                  
                                                
  22081421.550    -1292533.967        1967.015          44.000                  
                                                
  23965945.752     2079793.163       -3293.814          44.000                  
                                                
  24154671.681     2425076.805       -3839.601          42.000                  
                                                
  24237025.326    -1912818.062        3012.253          39.000                  
                                                
 18 10  1  6 31  9.0000000  0  8G16G20G26G21G27G29G31G10
  20526742.777     -654453.826         874.668          46.000                  
                                                
  22459377.740    -1522536.159        2283.888          43.000                  
                                                
  20262168.116      506235.030        -975.861          49.000                  
                                                
  21213161.217      989182.812       -1687.369          46.000                  
                                                
  22081047.474    -1294500.990        1967.073          44.000                  
                                                
  23966572.577     2083086.383       -3292.832          44.000                  
                                                
  24155402.282     2428916.066       -3839.545          42.000                  
                                                
  24236452.065    -1915830.308        3011.980          39.000                  
                                                
 18 10  1  6 31 10.0000000  0  8G16G20G26G21G27G29G31G10
  20526576.145     -655328.271         874.220          46.000                  
                                                
  22458943.434    -1524820.129        2282.902          43.000                  
                                                
  20262353.494      507210.956        -976.413          49.000                  
                                                
  21213482.428      990870.303       -1687.188          46.000                  
                                                
  22080672.857    -1296467.987        1966.570          44.000                  
                                                
  23967198.639     2086379.456       -3293.246          44.000                  
                                                
  24156132.696     2432755.194       -3839.374          42.000                  
                                                
  24235878.782    -1918842.701        3012.411          39.000                  
                                                
 18 10  1  6 31 11.0000000  0  8G16G20G26G21G27G29G31G10
  20526409.844     -656202.087         873.489          46.000                  
                                                
  22458508.680    -1527103.543        2283.851          43.000                  
                                                
  20262539.469      508187.597        -977.086          49.000                  
                                                
  21213803.390      992558.336       -1688.234          46.000                  
                                                
  22080299.060    -1298434.633        1966.368          44.000                  
                                                
  23967825.398     2089672.753       -3293.196          44.000                  
                                                
  24156863.354     2436594.531       -3839.386          42.000                  
                                                
  24235305.647    -1921854.917        3012.008          39.000                  
                                                
 18 10  1  6 31 12.0000000  0  8G16G20G26G21G27G29G31G10
  20526243.434     -657075.112         872.875          46.000                  
                                                
  22458074.095    -1529386.344        2282.222          43.000                  
                                                
  20262725.511      509165.079        -977.828          49.000                  
                                                
  21214124.945      994247.051       -1689.140          46.000                  
                                                
  22079924.762    -1300400.794        1965.868          44.000                  
                                                
  23968452.057     2092966.383       -3293.537          44.000                  
                                                
  24157594.448     2440434.188       -3839.424          42.000                  
                                                
  24234732.446    -1924866.809        3012.359          39.000                  
                                                
 18 10  1  6 31 13.0000000  0  8G16G20G26G21G27G29G31G10
  20526077.745     -657948.069         873.218          46.000                  
                                                
  22457639.772    -1531669.197        2282.204          43.000                  
                                                
  20262911.678      510142.726        -977.717          49.000                  
                                                
  21214446.465      995935.776       -1688.895          46.000                  
                                                
  22079550.267    -1302367.134        1966.067          44.000                  
                                                
  23969078.764     2096259.666       -3293.213          43.000                  
                                                
  24158325.442     2444273.497       -3839.148          42.000                  
                                                
  24234158.879    -1927879.107        3012.643          39.000                  
                                                
 18 10  1  6 31 14.0000000  0  8G16G20G26G21G27G29G31G10
  20525911.802     -658820.898         872.422          46.000                  
                                                
  22457205.044    -1533952.068        2282.765          43.000                  
                                                
  20263097.968      511120.550        -978.373          49.000                  
                                                
  21214767.802      997624.511       -1689.449          46.000                  
                                                
  22079176.304    -1304333.658        1965.783          44.000                  
                                                
  23969705.402     2099552.610       -3293.301          43.000                  
                                                
  24159055.219     2448112.462       -3839.378          42.000                  
                                                
  24233586.207    -1930891.715        3013.203          39.000                  
                                                
 18 10  1  6 31 15.0000000  0  8G16G20G26G21G27G29G31G10
  20525745.950     -659692.677         870.964          46.000                  
                                                
  22456771.004    -1536234.010        2281.075          43.000                  
                                                
  20263283.909      512099.517        -979.996          49.000                  
                                                
  21215089.833      999314.232       -1690.516          46.000                  
                                                
  22078802.460    -1306299.386        1965.261          44.000                  
                                                
  23970331.834     2102846.202       -3294.193          43.000                  
                                                
  24159785.637     2451952.061       -3840.422          42.000                  
                                                
  24233012.640    -1933903.714        3011.737          39.000                  
                                                
 18 10  1  6 31 16.0000000  0  8G16G20G26G21G27G29G31G10
  20525580.038     -660563.164         870.239          46.000                  
                                                
  22456336.747    -1538514.773        2281.066          43.000                  
                                                
  20263470.321      513079.873        -980.712          49.000                  
                                                
  21215411.388     1001005.174       -1690.918          46.000                  
                                                
  22078428.410    -1308264.109        1964.596          44.000                  
                                                
  23970958.371     2106140.667       -3295.041          43.000                  
                                                
  24160516.081     2455792.518       -3840.581          42.000                  
                                                
  24232439.658    -1936914.877        3010.640          39.000                  
                                                
 18 10  1  6 31 17.0000000  0  8G16G20G26G21G27G29G31G10
  20525414.348     -661433.104         869.639          46.000                  
                                                
  22455902.913    -1540795.140        2280.563          43.000                  
                                                
  20263657.112      514060.830        -981.156          49.000                  
                                                
  21215733.105     1002696.560       -1691.369          46.000                  
                                                
  22078054.186    -1310228.571        1964.528          44.000                  
                                                
  23971585.366     2109435.218       -3294.771          43.000                  
                                                
  24161247.416     2459633.076       -3841.030          42.000                  
                                                
  24231866.471    -1939925.968        3010.824          39.000                  
                                                
 18 10  1  6 31 18.0000000  0  8G16G20G26G21G27G29G31G10
  20525248.711     -662302.510         869.182          46.000                  
                                                
  22455469.201    -1543075.121        2280.346          44.000                  
                                                
  20263843.947      515042.397        -981.266          49.000                  
                                                
  21216054.965     1004388.375       -1691.663          46.000                  
                                                
  22077680.651    -1312192.783        1964.349          44.000                  
                                                
  23972212.147     2112729.874       -3294.551          43.000                  
                                                
  24161978.292     2463473.725       -3840.888          42.000                  
                                                
  24231293.379    -1942936.996        3011.133          39.000                  
                                                
 18 10  1  6 31 19.0000000  0  8G16G20G26G21G27G29G31G10
  20525083.065     -663171.261         868.164          46.000                  
                                                
  22455035.724    -1545354.560        2279.197          44.000                  
                                                
  20264030.748      516024.691        -982.561          49.000                  
                                                
  21216376.616     1006080.766       -1693.121          46.000                  
                                                
  22077307.059    -1314156.630        1963.431          44.000                  
                                                
  23972839.042     2116024.768       -3294.639          43.000                  
                                                
  24162709.438     2467314.569       -3840.093          42.000                  
                                                
  24230720.039    -1945947.830        3011.062          39.000                  
                                                
 18 10  1  6 31 20.0000000  0  8G16G20G26G21G27G29G31G10
  20524918.217     -664039.249         867.745          46.000                  
                                                
  22454601.676    -1547633.401        2277.852          44.000                  
                                                
  20264217.988      517007.795        -983.801          49.000                  
                                                
  21216699.219     1007773.816       -1693.311          46.000                  
                                                
  22076932.887    -1316120.004        1962.880          44.000                  
                                                
  23973465.636     2119319.963       -3296.034          43.000                  
                                                
  24163440.446     2471155.733       -3841.225          42.000                  
                                                
  24230147.205    -1948958.322        3009.978          39.000                  
                                                
 18 10  1  6 31 21.0000000  0  8G16G20G26G21G27G29G31G10
  20524753.238     -664906.752         867.482          46.000                  
                                                
  22454168.283    -1549911.868        2278.247          44.000                  
                                                
  20264405.330      517991.493        -983.713          49.000                  
                                                
  21217021.563     1009467.267       -1693.702          46.000                  
                                                
  22076559.339    -1318083.163        1963.470          44.000                  
                                                
  23974092.945     2122615.229       -3295.001          43.000                  
                                                
  24164171.230     2474996.939       -3841.263          42.000                  
                                                
  24229574.358    -1951968.854        3010.972          39.000                  
                                                
 18 10  1  6 31 22.0000000  0  8G16G20G26G21G27G29G31G10
  20524588.713     -665773.959         867.142          46.000                  
                                                
  22453735.264    -1552190.175        2278.415          44.000                  
                                                
  20264592.697      518975.539        -984.201          49.000                  
                                                
  21217343.899     1011160.932       -1694.006          46.000                  
                                                
  22076185.590    -1320046.322        1963.393          44.000                  
                                                
  23974719.931     2125910.333       -3295.126          43.000                  
                                                
  24164901.862     2478838.011       -3841.190          42.000                  
                                                
  24229001.393    -1954979.488        3010.306          39.000                  
                                                
 18 10  1  6 31 23.0000000  0  8G16G20G26G21G27G29G31G10
  20524423.813     -666640.642         866.390          46.000                  
                                                
  22453301.980    -1554468.081        2277.948          44.000                  
                                                
  20264780.147      519960.194        -985.318          49.000                  
                                                
  21217666.619     1012855.022       -1694.120          46.000                  
                                                
  22075812.007    -1322009.240        1962.378          44.000                  
                                                
  23975346.782     2129205.547       -3295.338          43.000                  
                                                
  24165632.660     2482679.161       -3840.859          42.000                  
                                                
  24228428.341    -1957990.049        3011.706          39.000                  
                                                
 18 10  1  6 31 24.0000000  0  8G16G20G26G21G27G29G31G10
  20524259.083     -667506.728         866.052          46.000                  
                                                
  22452868.023    -1556745.539        2277.464          44.000                  
                                                
  20264967.589      520945.527        -985.688          49.000                  
                                                
  21217988.397     1014549.621       -1694.847          45.000                  
                                                
  22075438.804    -1323971.826        1962.647          44.000                  
                                                
  23975974.135     2132500.918       -3294.635          44.000                  
                                                
  24166363.610     2486520.454       -3841.646          42.000                  
                                                
  24227855.542    -1961000.536        3009.880          39.000                  
                                                
 18 10  1  6 31 25.0000000  0  8G16G20G26G21G27G29G31G10
  20524094.274     -668372.262         865.422          46.000                  
                                                
  22452435.022    -1559022.538        2276.982          44.000                  
                                                
  20265155.052      521931.501        -986.162          49.000                  
                                                
  21218310.790     1016244.713       -1694.733          45.000                  
                                                
  22075064.981    -1325934.133        1962.327          44.000                  
                                                
  23976601.370     2135796.432       -3295.114          44.000                  
                                                
  24167094.539     2490361.893       -3841.450          42.000                  
                                                
  24227282.730    -1964010.836        3010.449          39.000                  
                                                
 18 10  1  6 31 26.0000000  0  8G16G20G26G21G27G29G31G10
  20523929.976     -669237.452         864.629          46.000                  
                                                
  22452001.502    -1561299.350        2276.540          44.000                  
                                                
  20265342.773      522917.885        -986.980          49.000                  
                                                
  21218633.047     1017940.042       -1695.484          45.000                  
                                                
  22074691.524    -1327896.360        1962.138          44.000                  
                                                
  23977229.006     2139091.832       -3295.894          43.000                  
                                                
  24167825.755     2494203.205       -3842.051          42.000                  
                                                
  24226710.032    -1967021.273        3010.369          39.000                  
                                                
